$GNRMC,040117.00,A,3726.8813530,N,12639.1956575,E,0.018,,210622,,,R,V*0F
$GNVTG,,T,,M,0.018,N,0.033,K,D*31
$GNGNS,040117.00,3726.8813530,N,12639.1956575,E,RRRR,28,0.71,13.822,17.837,2.0,4095,V*0E
$GNGGA,040117.00,3726.8813530,N,12639.1956575,E,4,12,0.71,13.822,M,17.837,M,2.0,4095*52
$GNGSA,A,3,04,19,03,17,01,06,14,,,,,,1.71,0.71,1.55,1*0A
$GNGSA,A,3,76,87,85,71,,,,,,,,,1.71,0.71,1.55,2*07
$GNGSA,A,3,21,13,08,03,27,15,,,,,,,1.71,0.71,1.55,3*08
$GNGSA,A,3,02,13,10,37,04,07,33,01,08,27,28,,1.71,0.71,1.55,4*04
$GPGSV,3,1,09,01,19,060,43,03,47,055,41,04,16,108,37,06,42,274,45,1*6C
$GPGSV,3,2,09,09,11,140,37,14,43,192,45,17,74,012,43,19,54,322,45,1*67
$GPGSV,3,3,09,28,,,46,1*65
$GPGSV,2,1,07,01,19,060,38,03,47,055,39,04,16,108,37,06,42,274,37,6*62
$GPGSV,2,2,07,09,11,140,36,14,43,192,43,17,74,012,37,6*50
$GPGSV,2,1,05,02,04,261,,11,07,255,,12,00,327,,21,00,071,,0*65
$GPGSV,2,2,05,21,00,071,,0*55
$GLGSV,2,1,07,70,38,061,34,71,39,130,44,75,09,201,44,76,36,253,46,1*74
$GLGSV,2,2,07,77,26,311,34,85,34,060,44,87,15,290,37,1*47
$GLGSV,2,1,06,71,39,130,35,75,09,201,38,76,36,253,41,77,26,311,29,3*7D
$GLGSV,2,2,06,85,34,060,38,87,15,290,09,3*72
$GLGSV,1,1,02,72,08,170,,86,52,353,,0*7C
$GAGSV,2,1,07,03,23,081,38,08,19,134,41,13,62,310,46,15,44,050,38,2*7D
$GAGSV,2,2,07,18,49,104,47,21,48,277,45,27,39,200,44,2*42
$GAGSV,2,1,07,03,23,081,36,08,19,134,39,13,62,310,43,15,44,050,42,7*71
$GAGSV,2,2,07,18,49,104,48,21,48,277,44,27,39,200,42,7*4F
$GAGSV,1,1,04,01,15,321,,05,04,034,,26,17,267,,34,00,073,,0*71
$GBGSV,3,1,12,01,43,152,42,02,27,236,33,03,44,206,41,04,35,132,40,1*75
$GBGSV,3,2,12,07,73,224,42,08,51,243,42,10,69,267,45,13,41,241,45,1*77
$GBGSV,3,3,12,27,42,304,45,28,66,041,45,33,49,091,41,37,20,226,38,1*75
$GBGSV,2,1,08,02,27,236,42,03,44,206,43,04,35,132,42,07,73,224,42,3*7C
$GBGSV,2,2,08,08,51,243,43,10,69,267,45,13,41,241,38,27,42,304,12,3*72
$GBGSV,1,1,01,05,08,255,,0*49
$GNRMC,040118.00,A,3726.8813502,N,12639.1956543,E,0.002,,210622,,,R,V*0F
$GNVTG,,T,,M,0.002,N,0.004,K,D*3E
$GNGNS,040118.00,3726.8813502,N,12639.1956543,E,RRRR,28,0.71,13.847,17.837,2.0,4095,V*06
$GNGGA,040118.00,3726.8813502,N,12639.1956543,E,4,12,0.71,13.847,M,17.837,M,2.0,4095*5A
$GNGSA,A,3,04,19,03,17,01,06,14,,,,,,1.71,0.71,1.55,1*0A
$GNGSA,A,3,76,87,85,71,,,,,,,,,1.71,0.71,1.55,2*07
$GNRMC,040119.00,A,3726.8813532,N,12639.1956561,E,0.029,,210622,,,R,V*04
$GNVTG,,T,,M,0.029,N,0.054,K,D*32
$GNGNS,040119.00,3726.8813532,N,12639.1956561,E,RRRR,28,0.69,13.810,17.837,2.0,4095,V*0F
$GNGGA,040119.00,3726.8813532,N,12639.1956561,E,4,12,0.69,13.810,M,17.837,M,2.0,4095*53
$GNGSA,A,3,04,19,03,17,01,06,14,,,,,,1.61,0.69,1.45,1*03
$GNGSA,A,3,76,87,85,71,,,,,,,,,1.61,0.69,1.45,2*0E
$GNGSA,A,3,21,13,08,03,27,15,,,,,,,1.61,0.69,1.45,3*01
$GNGSA,A,3,02,13,10,37,04,07,33,01,08,27,28,,1.61,0.69,1.45,4*0D
$GPGSV,3,1,10,01,19,060,41,03,47,055,43,04,16,108,37,06,42,274,45,1*64
$GPGSV,3,2,10,09,11,140,31,14,43,192,44,17,74,012,43,19,55,323,45,1*68
$GPGSV,3,3,10,28,,,45,50,47,179,38,1*5C
$GPGSV,2,1,07,01,19,060,38,03,47,055,42,04,16,108,36,06,42,274,34,6*6C
$GPGSV,2,2,07,09,11,140,30,14,43,192,43,17,74,012,37,6*56
$GPGSV,1,1,04,02,04,261,,11,07,255,,12,00,327,,21,00,071,,0*67
$GLGSV,2,1,07,70,38,061,32,71,39,130,46,75,09,201,42,76,36,253,45,1*75
$GLGSV,2,2,07,77,26,311,34,85,34,060,46,87,15,290,31,1*43
$GLGSV,2,1,06,71,39,130,36,75,09,201,39,76,36,253,40,77,26,311,30,3*76
$GLGSV,2,2,06,85,34,060,41,87,15,290,08,3*7D
$GLGSV,1,1,02,72,08,170,,86,52,353,,0*7C
$GAGSV,2,1,07,03,23,081,37,08,19,134,40,13,62,310,46,15,44,050,43,2*7F
$GAGSV,2,2,07,18,49,104,47,21,48,277,44,27,39,200,44,2*43
$GAGSV,2,1,08,03,23,081,37,08,19,134,40,13,62,310,44,15,44,050,44,7*70
$GAGSV,2,2,08,18,49,104,47,21,48,277,42,26,17,267,33,27,39,200,43,7*79
$GAGSV,1,1,03,01,15,321,,05,04,034,,34,00,073,,0*47
$GBGSV,3,1,12,01,43,152,38,02,27,236,33,03,44,206,40,04,35,132,41,1*78
$GBGSV,3,2,12,07,73,224,42,08,51,243,42,10,69,267,45,13,41,241,44,1*76
$GBGSV,3,3,12,27,42,304,43,28,66,041,46,33,49,091,42,37,20,226,39,1*72
$GBGSV,2,1,07,02,27,236,43,04,35,132,41,07,73,224,41,08,51,243,44,3*7B
$GBGSV,2,2,07,10,69,267,44,13,41,241,37,27,42,304,08,3*46
$GBGSV,1,1,01,05,08,255,,0*49
$GNVTG,,T,,M,0.008,N,0.014,K,D*35
$GNGNS,040120.00,3726.8813543,N,12639.1956549,E,RRRR,28,0.69,13.818,17.837,2.0,4095,V*01
$GNGSA,A,3,76,87,85,71,,,,,,,,,1.61,0.69,1.45,2*0E
$GNGSA,A,3,21,13,08,03,27,15,,,,,,,1.61,0.69,1.45,3*01
$GNGSA,A,3,02,13,10,37,04,07,33,01,08,27,28,,1.61,0.69,1.45,4*0D
$GPGSV,3,1,10,01,19,060,42,03,47,055,42,04,16,108,36,06,42,274,45,1*67
$GPGSV,3,2,10,09,11,140,35,14,43,192,44,17,74,012,43,19,55,323,45,1*6C
$GPGSV,3,3,10,28,,,45,50,47,179,40,1*53
$GPGSV,2,1,07,01,19,060,36,03,47,055,42,04,16,108,38,06,42,274,35,6*6D
$GPGSV,2,2,07,09,11,140,36,14,43,192,42,17,74,012,37,6*51
$GPGSV,1,1,04,02,04,261,,11,07,255,,12,00,327,,21,00,072,,0*64
$GLGSV,2,1,07,70,38,061,33,71,39,130,44,75,09,201,35,76,36,253,44,1*77
$GLGSV,2,2,07,77,26,311,33,85,34,060,46,87,15,290,32,1*47
$GLGSV,2,1,05,71,39,130,34,75,09,201,31,76,36,253,40,77,26,311,29,3*77
$GLGSV,2,2,05,85,34,060,41,3*46
$GLGSV,1,1,02,72,08,170,,86,52,353,,0*7C
$GAGSV,2,1,07,03,23,081,37,08,19,134,40,13,62,310,46,15,44,050,43,2*7F
$GAGSV,2,2,07,18,49,104,47,21,48,277,44,27,39,200,42,2*45
$GAGSV,2,1,08,03,23,081,37,08,19,134,39,13,62,310,44,15,44,050,45,7*7F
$GAGSV,2,2,08,18,49,104,48,21,48,277,42,26,17,267,33,27,39,200,42,7*77
$GAGSV,1,1,03,01,15,321,,05,04,034,,34,00,073,,0*47
$GBGSV,3,1,12,01,43,152,43,02,27,236,34,03,44,206,41,04,35,132,39,1*7D
$GBGSV,3,2,12,07,73,224,42,08,51,243,42,10,69,267,45,13,41,241,44,1*76
$GBGSV,2,2,07,10,69,267,44,13,41,241,38,27,42,304,07,3*46
$GNRMC,040121.00,A,3726.8813532,N,12639.1956591,E,0.005,,210622,,,R,V*0E
$GNVTG,,T,,M,0.005,N,0.009,K,D*34
$GNGNS,040121.00,3726.8813532,N,12639.1956591,E,RRRR,28,0.69,13.824,17.837,2.0,4095,V*0C
$GNGGA,040121.00,3726.8813532,N,12639.1956591,E,4,12,0.69,13.824,M,17.837,M,2.0,4095*50
$GNGSA,A,3,04,19,03,17,01,06,14,,,,,,1.61,0.69,1.45,1*03
$GNGSA,A,3,76,87,85,71,,,,,,,,,1.61,0.69,1.45,2*0E
$GNGSA,A,3,21,13,08,03,27,15,,,,,,,1.61,0.69,1.45,3*01
$GNGSA,A,3,02,13,10,37,04,07,33,01,08,27,28,,1.61,0.69,1.45,4*0D
$GPGSV,3,1,10,01,19,060,42,03,47,055,42,04,16,108,36,06,42,274,45,1*67
$GPGSV,3,2,10,09,11,140,36,14,43,192,44,17,74,012,43,19,55,323,45,1*6F
$GPGSV,3,3,10,28,,,45,50,47,179,39,1*5D
$GPGSV,2,1,07,01,19,060,37,03,47,055,42,04,16,108,37,06,42,274,35,6*63
$GPGSV,2,2,07,09,11,140,35,14,43,192,42,17,74,012,36,6*53
$GPGSV,1,1,04,02,04,261,,11,07,255,,12,00,327,,21,00,072,,0*64
$GLGSV,2,1,07,70,38,061,33,71,39,130,43,75,09,201,41,76,36,253,45,1*72
$GLGSV,2,2,07,77,26,311,34,85,34,060,47,87,15,290,33,1*40
$GLGSV,2,1,05,71,39,130,34,75,09,201,35,76,36,253,40,77,26,311,29,3*73
$GLGSV,2,2,05,85,34,060,41,3*46
$GLGSV,1,1,02,72,08,170,,86,52,353,,0*7C
$GAGSV,2,1,07,03,23,081,35,08,19,134,40,13,62,310,45,15,44,050,43,2*7E
$GAGSV,2,2,07,18,49,104,48,21,48,277,44,27,39,200,42,2*4A
$GAGSV,2,1,08,03,23,081,36,08,19,134,40,13,62,310,44,15,44,050,45,7*70
$GAGSV,2,2,08,18,49,104,47,21,48,277,43,26,17,267,32,27,39,200,43,7*79
$GAGSV,1,1,03,01,15,321,,05,04,034,,34,00,073,,0*47
$GBGSV,3,1,12,01,43,152,42,02,27,236,33,03,44,206,41,04,35,132,39,1*7B
$GBGSV,3,2,12,07,73,224,42,08,51,243,41,10,69,267,45,13,41,241,44,1*75
$GNRMC,040122.00,A,3726.8813506,N,12639.1956574,E,0.004,,210622,,,R,V*00
$GNVTG,,T,,M,0.004,N,0.007,K,D*3B
$GNGNS,040122.00,3726.8813506,N,12639.1956574,E,RRRR,28,0.69,13.833,17.837,2.0,4095,V*05
$GNGGA,040122.00,3726.8813506,N,12639.1956574,E,4,12,0.69,13.833,M,17.837,M,2.0,4095*59
$GNGSA,A,3,04,19,03,17,01,06,14,,,,,,1.61,0.69,1.45,1*03
$GNGSA,A,3,76,87,85,71,,,,,,,,,1.61,0.69,1.45,2*0E
$GNGSA,A,3,21,13,08,03,27,15,,,,,,,1.61,0.69,1.45,3*01
$GNGSA,A,3,02,13,10,37,04,07,33,01,08,27,28,,1.61,0.69,1.45,4*0D
$GPGSV,3,1,10,01,19,060,40,03,47,055,42,04,16,108,35,06,42,274,45,1*66
$GPGSV,3,2,10,09,11,140,35,14,43,192,44,17,74,012,43,19,55,323,45,1*6C
$GPGSV,3,3,10,28,,,45,50,47,179,39,1*5D
$GPGSV,2,1,07,01,19,060,38,03,47,055,41,04,16,108,37,06,42,274,34,6*6E
$GPGSV,2,2,07,09,11,140,35,14,43,192,42,17,74,012,37,6*52
$GPGSV,1,1,04,02,04,261,,11,07,255,,12,00,327,,21,00,072,,0*64
$GLGSV,2,1,07,70,38,061,33,71,39,130,42,75,09,201,44,76,36,253,45,1*76
$GLGSV,2,2,07,77,26,311,34,85,34,060,46,87,15,290,33,1*41
$GLGSV,2,1,05,71,39,130,33,75,09,201,38,76,36,253,40,77,26,311,28,3*78
$GLGSV,2,2,05,85,34,060,40,3*47
$GLGSV,1,1,02,72,08,170,,86,52,353,,0*7C
$GAGSV,2,1,07,03,23,081,38,08,19,134,41,13,62,310,46,15,44,050,43,2*71
$GAGSV,2,2,07,18,49,104,46,21,48,277,44,27,39,200,42,2*44
$GAGSV,2,1,08,03,23,081,38,08,19,134,39,13,62,310,44,15,44,050,44,7*71
$GAGSV,2,2,08,18,49,104,47,21,48,277,42,26,17,267,32,27,39,200,42,7*79
$GAGSV,1,1,03,01,15,321,,05,04,034,,34,00,073,,0*47
$GBGSV,3,1,12,01,43,152,42,02,27,236,33,03,44,206,41,04,35,132,39,1*7B
$GBGSV,3,2,12,07,73,224,42,08,51,243,41,10,69,267,45,13,41,241,44,1*75
$GBGSV,3,3,12,27,42,304,42,28,66,041,45,33,49,091,41,37,20,226,36,1*7C
$GBGSV,2,1,07,02,27,236,39,04,35,132,41,07,73,224,41,08,51,243,42,3*70
$GBGSV,2,2,07,10,69,267,44,13,41,241,38,27,42,304,08,3*49
$GBGSV,1,1,01,05,08,255,,0*49
$GNRMC,040123.00,A,3726.8813550,N,12639.1956552,E,0.006,,210622,,,R,V*04
$GNVTG,,T,,M,0.006,N,0.012,K,D*3D
$GNGNS,040123.00,3726.8813550,N,12639.1956552,E,RRRR,28,0.69,13.824,17.837,1.0,4095,V*06
$GNGGA,040123.00,3726.8813550,N,12639.1956552,E,4,12,0.69,13.824,M,17.837,M,1.0,4095*5A
$GNGSA,A,3,04,19,03,17,01,06,14,,,,,,1.61,0.69,1.45,1*03
$GNGSA,A,3,76,87,85,71,,,,,,,,,1.61,0.69,1.45,2*0E
$GNGSA,A,3,21,13,08,03,27,15,,,,,,,1.61,0.69,1.45,3*01
$GNGSA,A,3,02,13,10,37,04,07,33,01,08,27,28,,1.61,0.69,1.45,4*0D
$GPGSV,3,1,10,01,19,060,42,03,47,055,42,04,16,108,35,06,42,274,45,1*64
$GPGSV,3,2,10,09,11,140,35,14,43,192,44,17,74,012,42,19,55,323,45,1*6D
$GPGSV,3,3,10,28,,,45,50,47,179,39,1*5D
$GPGSV,2,1,07,01,19,060,38,03,47,055,41,04,16,108,36,06,42,274,34,6*6F
$GPGSV,2,2,07,09,11,140,35,14,43,192,42,17,74,012,37,6*52
$GPGSV,1,1,04,02,04,261,,11,07,255,,12,00,327,,21,00,072,,0*64
$GLGSV,2,1,07,70,38,061,33,71,39,130,42,75,09,201,43,76,36,253,45,1*71
$GLGSV,2,2,07,77,26,311,34,85,34,060,46,87,15,290,32,1*40
$GLGSV,2,1,05,71,39,130,33,75,09,201,38,76,36,253,39,77,26,311,28,3*76
$GLGSV,2,2,05,85,34,060,40,3*47
$GLGSV,1,1,02,72,08,170,,86,52,353,,0*7C
$GAGSV,2,1,07,03,23,081,38,08,19,134,41,13,62,310,46,15,44,050,43,2*71
$GAGSV,2,2,07,18,49,104,47,21,48,277,45,27,39,200,42,2*44
$GAGSV,2,1,08,03,23,081,37,08,19,134,40,13,62,310,44,15,44,050,43,7*77
$GAGSV,2,2,08,18,49,104,47,21,48,277,42,26,17,267,32,27,39,200,41,7*7A
$GAGSV,1,1,03,01,15,321,,05,04,034,,34,00,073,,0*47
$GBGSV,3,1,12,01,43,152,42,02,27,236,32,03,44,206,40,04,35,132,39,1*7B
$GBGSV,3,2,12,07,73,224,42,08,51,243,41,10,69,267,45,13,41,241,44,1*75
$GBGSV,3,3,12,27,42,304,42,28,66,041,45,33,49,091,41,37,20,226,40,1*7D
$GBGSV,2,1,07,02,27,236,40,04,35,132,42,07,73,224,41,08,51,243,42,3*7D
$GBGSV,2,2,07,10,69,267,44,13,41,241,37,27,42,304,08,3*46
$GBGSV,1,1,01,05,08,255,,0*49
$GNRMC,040124.00,A,3726.8813553,N,12639.1956548,E,0.005,,210622,,,R,V*08
$GNVTG,,T,,M,0.005,N,0.009,K,D*34
$GNGNS,040124.00,3726.8813553,N,12639.1956548,E,RRRR,28,0.69,13.824,17.837,2.0,4095,V*0A
$GNGGA,040124.00,3726.8813553,N,12639.1956548,E,4,12,0.69,13.824,M,17.837,M,2.0,4095*56
$GNGSA,A,3,04,19,03,17,01,06,14,,,,,,1.61,0.69,1.45,1*03
$GNGSA,A,3,76,87,85,71,,,,,,,,,1.61,0.69,1.45,2*0E
$GNGSA,A,3,21,13,08,03,27,15,,,,,,,1.61,0.69,1.45,3*01
$GPGSV,3,1,10,01,19,060,42,03,47,055,42,04,16,108,36,06,42,274,45,1*67
$GPGSV,3,2,10,09,11,140,34,14,43,192,44,17,74,012,42,19,55,323,45,1*6C
$GPGSV,3,3,10,28,,,45,50,47,179,39,1*5D
$GPGSV,2,1,07,01,19,060,37,03,47,055,41,04,16,108,36,06,42,274,33,6*67
$GPGSV,2,2,07,09,11,140,34,14,43,192,41,17,74,012,36,6*51
$GPGSV,1,1,04,02,04,261,,11,07,255,,12,00,327,,21,00,072,,0*64
$GLGSV,2,1,07,70,38,061,32,71,39,130,42,75,09,201,43,76,36,253,46,1*73
$GLGSV,2,2,07,77,26,311,33,85,34,060,46,87,15,290,33,1*46
$GLGSV,2,1,05,71,39,130,32,75,09,201,36,76,36,253,37,77,26,311,27,3*78
$GLGSV,2,2,05,85,34,060,38,3*48
$GLGSV,1,1,02,72,08,170,,86,52,353,,0*7C
$GAGSV,2,1,07,03,23,081,37,08,19,134,41,13,62,310,46,15,44,050,43,2*7E
$GAGSV,2,2,07,18,49,104,47,21,48,277,45,27,39,200,43,2*45
$GAGSV,2,1,08,03,23,081,37,08,19,134,40,13,62,310,44,15,44,050,43,7*77
$GAGSV,2,2,08,18,49,104,46,21,48,277,42,26,17,267,32,27,39,200,42,7*78
$GAGSV,1,1,03,01,15,321,,05,04,034,,34,00,073,,0*47
$GBGSV,3,1,12,01,43,152,42,02,27,236,33,03,44,206,40,04,35,132,39,1*7A
$GNRMC,040125.00,A,3726.8813528,N,12639.1956558,E,0.016,,210622,,,R,V*06
$GNVTG,,T,,M,0.016,N,0.030,K,D*3C
$GNGNS,040125.00,3726.8813528,N,12639.1956558,E,RRRR,28,0.69,13.833,17.837,2.0,4095,V*00
$GNGGA,040125.00,3726.8813528,N,12639.1956558,E,4,12,0.69,13.833,M,17.837,M,2.0,4095*5C
$GNGSA,A,3,04,19,03,17,01,06,14,,,,,,1.61,0.69,1.45,1*03
$GNGSA,A,3,76,87,85,71,,,,,,,,,1.61,0.69,1.45,2*0E
$GNGSA,A,3,21,13,08,03,27,15,,,,,,,1.61,0.69,1.45,3*01
$GNGSA,A,3,02,13,10,37,04,07,33,01,08,27,28,,1.61,0.69,1.45,4*0D
$GPGSV,3,1,10,01,19,060,42,03,47,055,42,04,16,108,36,06,42,274,46,1*64
$GPGSV,3,2,10,09,11,140,34,14,43,192,44,17,74,012,42,19,55,323,45,1*6C
$GPGSV,3,3,10,28,,,44,50,47,179,39,1*5C
$GPGSV,2,1,07,01,19,060,37,03,47,055,41,04,16,108,36,06,42,274,32,6*66
$GPGSV,2,2,07,09,11,140,34,14,43,192,41,17,74,012,36,6*51
$GPGSV,1,1,04,02,04,261,,11,07,255,,12,00,327,,21,00,072,,0*64
$GLGSV,2,1,07,70,38,061,32,71,39,130,42,75,09,201,42,76,36,253,45,1*71
$GLGSV,2,2,07,77,26,311,33,85,34,060,46,87,15,290,32,1*47
$GLGSV,2,1,05,71,39,130,33,75,09,201,36,76,36,253,37,77,26,311,27,3*79
$GLGSV,2,2,05,85,34,060,38,3*48
$GLGSV,1,1,02,72,08,170,,86,52,353,,0*7C
$GAGSV,2,1,07,03,23,081,37,08,19,134,41,13,62,310,46,15,44,050,43,2*7E
$GAGSV,2,2,07,18,49,104,47,21,48,277,44,27,39,200,43,2*44
$GAGSV,2,1,08,03,23,081,37,08,19,134,39,13,62,310,44,15,44,050,44,7*7E
$GAGSV,2,2,08,18,49,104,47,21,48,277,42,26,17,267,31,27,39,200,42,7*7A
$GAGSV,1,1,03,01,15,321,,05,04,034,,34,00,073,,0*47
$GBGSV,3,1,12,01,43,152,41,02,27,236,34,03,44,206,40,04,35,132,38,1*7F
$GBGSV,3,2,12,07,73,224,42,08,51,243,42,10,69,267,45,13,41,241,43,1*71
$GBGSV,3,3,12,27,42,304,43,28,66,041,46,33,49,091,42,37,20,226,40,1*7C
$GBGSV,2,1,07,02,27,236,41,04,35,132,42,07,73,224,41,08,51,243,43,3*7D
$GBGSV,2,2,07,10,69,267,44,13,41,241,38,27,42,304,08,3*49
$GBGSV,1,1,01,05,08,255,,0*49
$GNRMC,040126.00,A,3726.8813536,N,12639.1956574,E,0.026,,210622,,,R,V*07
$GNVTG,,T,,M,0.026,N,0.047,K,D*3F
$GNGNS,040126.00,3726.8813536,N,12639.1956574,E,RRRR,28,0.69,13.833,17.837,2.0,4095,V*02
$GNGGA,040126.00,3726.8813536,N,12639.1956574,E,4,12,0.69,13.833,M,17.837,M,2.0,4095*5E
$GNGSA,A,3,04,19,03,17,01,06,14,,,,,,1.61,0.69,1.45,1*03
$GNGSA,A,3,76,87,85,71,,,,,,,,,1.61,0.69,1.45,2*0E
$GNGSA,A,3,21,13,08,03,27,15,,,,,,,1.61,0.69,1.45,3*01
$GNGSA,A,3,02,13,10,37,04,07,33,01,08,27,28,,1.61,0.69,1.45,4*0D
$GPGSV,3,1,10,01,19,060,42,03,47,055,42,04,16,108,35,06,42,274,45,1*64
$GPGSV,3,2,10,09,11,140,34,14,43,192,44,17,74,012,42,19,55,323,45,1*6C
$GPGSV,3,3,10,28,,,45,50,47,179,39,1*5D
$GPGSV,2,1,07,01,19,060,37,03,47,055,41,04,16,108,36,06,42,274,33,6*67
$GPGSV,2,2,07,09,11,140,35,14,43,192,42,17,74,012,36,6*53
$GPGSV,1,1,04,02,04,261,,11,07,255,,12,00,327,,21,00,072,,0*64
$GLGSV,2,1,07,70,38,061,33,71,39,130,43,75,09,201,43,76,36,253,45,1*70
$GLGSV,2,2,07,77,26,311,33,85,34,060,46,87,15,290,33,1*46
$GLGSV,2,1,05,71,39,130,33,75,09,201,36,76,36,253,37,77,26,311,27,3*79
$GLGSV,2,2,05,85,34,060,39,3*49
$GLGSV,1,1,02,72,08,170,,86,52,353,,0*7C
$GAGSV,2,1,07,03,23,081,38,08,19,134,41,13,62,310,46,15,44,050,43,2*71
$GAGSV,2,2,07,18,49,104,47,21,48,277,43,27,39,200,43,2*43
$GAGSV,2,1,08,03,23,081,37,08,19,134,39,13,62,310,43,15,44,050,44,7*79
$GAGSV,2,2,08,18,49,104,48,21,48,277,42,26,17,267,30,27,39,200,42,7*74
$GAGSV,1,1,03,01,15,321,,05,04,034,,34,00,073,,0*47
$GBGSV,3,1,12,01,43,152,42,02,27,236,34,03,44,206,41,04,35,132,39,1*7C
$GBGSV,3,2,12,07,73,224,42,08,51,243,41,10,69,267,45,13,41,241,44,1*75
$GBGSV,3,3,12,27,42,304,43,28,66,041,46,33,49,091,42,37,20,226,39,1*72
$GBGSV,2,1,07,02,27,236,43,04,35,132,42,07,73,224,41,08,51,243,43,3*7F
$GBGSV,2,2,07,10,69,267,44,13,41,241,39,27,42,304,08,3*48
$GBGSV,1,1,01,05,08,255,,0*49
$GNRMC,040127.00,A,3726.8813552,N,12639.1956567,E,0.009,,210622,,,R,V*0B
$GNVTG,,T,,M,0.009,N,0.017,K,D*37
$GNGNS,040127.00,3726.8813552,N,12639.1956567,E,RRRR,28,0.69,13.830,17.837,2.0,4095,V*00
$GNGGA,040127.00,3726.8813552,N,12639.1956567,E,4,12,0.69,13.830,M,17.837,M,2.0,4095*5C
$GNGSA,A,3,04,19,03,17,01,06,14,,,,,,1.61,0.69,1.45,1*03
$GNGSA,A,3,76,87,85,71,,,,,,,,,1.61,0.69,1.45,2*0E
$GNGSA,A,3,21,13,08,03,27,15,,,,,,,1.61,0.69,1.45,3*01
$GNGSA,A,3,02,13,10,37,04,07,33,01,08,27,28,,1.61,0.69,1.45,4*0D
$GPGSV,3,1,10,01,19,060,42,03,47,055,43,04,16,108,35,06,42,274,44,1*64
$GPGSV,3,2,10,09,11,140,35,14,43,192,44,17,74,012,43,19,55,323,45,1*6C
$GPGSV,3,3,10,28,,,45,50,47,179,39,1*5D
$GPGSV,2,1,07,01,19,060,37,03,47,055,41,04,16,108,36,06,42,274,34,6*60
$GPGSV,2,2,07,09,11,140,35,14,43,192,42,17,74,012,36,6*53
$GPGSV,1,1,04,02,04,261,,11,07,255,,12,00,327,,21,00,072,,0*64
$GLGSV,2,1,07,70,38,061,33,71,39,130,42,75,09,201,43,76,36,253,46,1*72
$GLGSV,2,2,07,77,26,311,33,85,34,060,46,87,15,290,33,1*46
$GLGSV,2,1,05,71,39,130,34,75,09,201,37,76,36,253,37,77,26,311,28,3*70
$GLGSV,2,2,05,85,34,060,40,3*47
$GLGSV,1,1,02,72,08,170,,86,52,353,,0*7C
$GAGSV,2,1,07,03,23,081,38,08,19,134,41,13,62,310,46,15,44,050,43,2*71
$GAGSV,2,2,07,18,49,104,47,21,48,277,44,27,39,200,43,2*44
$GAGSV,2,1,08,03,23,081,37,08,19,134,40,13,62,310,43,15,44,050,44,7*77
$GAGSV,2,2,08,18,49,104,47,21,48,277,42,26,17,267,29,27,39,200,42,7*73
$GAGSV,1,1,03,01,15,321,,05,04,034,,34,00,073,,0*47
$GBGSV,3,1,12,01,43,152,42,02,27,236,35,03,44,206,41,04,35,132,39,1*7D
$GBGSV,3,2,12,07,73,224,42,08,51,243,42,10,69,267,45,13,41,241,44,1*76
$GBGSV,3,3,12,27,42,304,43,28,66,041,45,33,49,091,42,37,20,226,39,1*71
$GBGSV,2,1,06,02,27,236,43,04,35,132,42,07,73,224,41,08,51,243,43,3*7E
$GBGSV,2,2,06,10,69,267,44,13,41,241,39,3*75
$GBGSV,1,1,01,05,08,255,,0*49
$GNRMC,040128.00,A,3726.8813540,N,12639.1956563,E,0.007,,210622,,,R,V*0D
$GNVTG,,T,,M,0.007,N,0.013,K,D*3D
$GNGNS,040128.00,3726.8813540,N,12639.1956563,E,RRRR,28,0.69,13.826,17.837,2.0,4095,V*0F
$GNGGA,040128.00,3726.8813540,N,12639.1956563,E,4,12,0.69,13.826,M,17.837,M,2.0,4095*53
$GNGSA,A,3,04,19,03,17,01,06,14,,,,,,1.61,0.69,1.45,1*03
$GNGSA,A,3,76,87,85,71,,,,,,,,,1.61,0.69,1.45,2*0E
$GNGSA,A,3,21,13,08,03,27,15,,,,,,,1.61,0.69,1.45,3*01
$GNGSA,A,3,02,13,10,37,04,07,33,01,08,27,28,,1.61,0.69,1.45,4*0D
$GPGSV,3,1,10,01,19,060,42,03,47,055,43,04,16,108,35,06,42,274,44,1*64
$GPGSV,3,2,10,09,11,140,35,14,43,192,44,17,74,012,42,19,55,323,45,1*6D
$GPGSV,3,3,10,28,,,45,50,47,179,39,1*5D
$GPGSV,2,1,07,01,19,060,37,03,47,055,41,04,16,108,36,06,42,274,34,6*60
$GPGSV,2,2,07,09,11,140,35,14,43,192,42,17,74,012,36,6*53
$GPGSV,1,1,04,02,04,261,,11,07,255,,12,00,327,,21,00,072,,0*64
$GLGSV,2,1,07,70,38,061,33,71,39,130,42,75,09,201,42,76,36,253,46,1*73
$GLGSV,2,2,07,77,26,311,33,85,34,060,46,87,15,290,29,1*4D
$GLGSV,2,1,05,71,39,130,34,75,09,201,37,76,36,253,39,77,26,311,27,3*71
$GLGSV,2,2,05,85,34,060,40,3*47
$GLGSV,1,1,02,72,08,170,,86,52,353,,0*7C
$GAGSV,2,1,07,03,23,081,38,08,19,134,41,13,62,310,46,15,44,050,43,2*71
$GAGSV,2,2,07,18,49,104,47,21,48,277,43,27,39,200,43,2*43
$GAGSV,2,1,08,03,23,081,38,08,19,134,40,13,62,310,44,15,44,050,44,7*7F
$GAGSV,2,2,08,18,49,104,47,21,48,277,42,26,17,267,31,27,39,200,42,7*7A
$GAGSV,1,1,03,01,15,321,,05,04,034,,34,00,073,,0*47
$GBGSV,3,1,12,01,43,152,42,02,27,236,34,03,44,206,41,04,35,132,39,1*7C
$GBGSV,3,2,12,07,73,224,42,08,51,243,42,10,69,267,45,13,41,241,44,1*76
$GBGSV,3,3,12,27,42,304,43,28,66,041,45,33,49,091,42,37,20,226,39,1*71
$GBGSV,2,1,06,02,27,236,42,04,35,132,42,07,73,224,41,08,51,243,43,3*7F
$GBGSV,2,2,06,10,69,267,44,13,41,241,38,3*74
$GBGSV,1,1,01,05,08,255,,0*49
$GNRMC,040129.00,A,3726.8813524,N,12639.1956552,E,0.010,,210622,,,R,V*0A
$GNVTG,,T,,M,0.010,N,0.018,K,D*30
$GNGNS,040129.00,3726.8813524,N,12639.1956552,E,RRRR,28,0.69,13.829,17.837,2.0,4095,V*01
$GNGGA,040129.00,3726.8813524,N,12639.1956552,E,4,12,0.69,13.829,M,17.837,M,2.0,4095*5D
$GNGSA,A,3,04,19,03,17,01,06,14,,,,,,1.61,0.69,1.45,1*03
$GNGSA,A,3,76,87,85,71,,,,,,,,,1.61,0.69,1.45,2*0E
$GNGSA,A,3,21,13,08,03,27,15,,,,,,,1.61,0.69,1.45,3*01
$GNGSA,A,3,02,13,10,37,04,07,33,01,08,27,28,,1.61,0.69,1.45,4*0D
$GPGSV,3,1,10,01,19,060,43,03,47,055,43,04,16,108,35,06,42,274,45,1*64
$GPGSV,3,2,10,09,11,140,34,14,43,192,44,17,74,012,42,19,55,323,45,1*6C
$GPGSV,3,3,10,28,,,45,50,47,179,39,1*5D
$GPGSV,2,1,07,01,19,060,37,03,47,055,41,04,16,108,36,06,42,274,34,6*60
$GPGSV,2,2,07,09,11,140,35,14,43,192,42,17,74,012,36,6*53
$GPGSV,1,1,04,02,04,261,,11,07,255,,12,00,327,,21,00,072,,0*64
$GLGSV,2,1,08,70,38,061,33,71,39,130,42,72,08,170,36,75,09,201,43,1*71
$GLGSV,2,2,08,76,36,253,45,77,26,311,33,85,34,060,47,87,15,290,34,1*7E
$GLGSV,2,1,05,71,39,130,33,75,09,201,37,76,36,253,39,77,26,311,27,3*76
$GLGSV,2,2,05,85,34,060,40,3*47
$GLGSV,1,1,01,86,52,353,,0*44
$GAGSV,2,1,07,03,23,081,38,08,19,134,42,13,62,310,46,15,44,050,43,2*72
$GAGSV,2,2,07,18,49,104,47,21,48,277,43,27,39,200,43,2*43
$GAGSV,2,1,08,03,23,081,38,08,19,134,40,13,62,310,43,15,44,050,44,7*78
$GAGSV,2,2,08,18,49,104,47,21,48,277,42,26,17,267,31,27,39,200,42,7*7A
$GAGSV,1,1,03,01,15,321,,05,04,034,,34,00,073,,0*47
$GBGSV,3,1,12,01,43,152,41,02,27,236,34,03,44,206,40,04,35,132,38,1*7F
$GBGSV,3,2,12,07,73,224,42,08,51,243,42,10,69,267,45,13,41,241,44,1*76
$GBGSV,3,3,12,27,42,304,43,28,66,041,45,33,49,091,42,37,20,226,39,1*71
$GBGSV,2,1,06,02,27,236,42,04,35,132,42,07,73,224,41,08,51,243,43,3*7F
$GBGSV,2,2,06,10,69,267,44,13,41,241,38,3*74
$GBGSV,1,1,01,05,08,255,,0*49
$GNRMC,040130.00,A,3726.8813526,N,12639.1956553,E,0.009,,210622,,,R,V*09
$GNVTG,,T,,M,0.009,N,0.017,K,D*37
$GNGNS,040130.00,3726.8813526,N,12639.1956553,E,RRRR,28,0.69,13.821,17.837,2.0,4095,V*02
$GNGGA,040130.00,3726.8813526,N,12639.1956553,E,4,12,0.69,13.821,M,17.837,M,2.0,4095*5E
$GNGSA,A,3,04,19,03,17,01,06,14,,,,,,1.61,0.69,1.45,1*03
$GNGSA,A,3,76,87,85,71,,,,,,,,,1.61,0.69,1.45,2*0E
$GNGSA,A,3,21,13,08,03,27,15,,,,,,,1.61,0.69,1.45,3*01
$GPGSV,3,1,10,01,19,060,42,03,47,055,43,04,16,108,35,06,42,274,45,1*65
$GPGSV,3,2,10,09,11,140,35,14,43,192,44,17,74,012,42,19,55,323,45,1*6D
$GPGSV,3,3,10,28,,,44,50,47,179,39,1*5C
$GPGSV,2,1,07,01,19,060,37,03,47,055,42,04,16,108,37,06,42,274,34,6*62
$GPGSV,2,2,07,09,11,140,35,14,43,192,41,17,74,012,36,6*50
$GPGSV,1,1,04,02,04,261,,11,07,255,,12,00,327,,21,00,072,,0*64
$GLGSV,2,1,08,70,38,061,33,71,39,130,43,72,08,170,37,75,09,201,42,1*70
$GLGSV,2,2,08,76,36,253,42,77,26,311,32,85,34,060,47,87,15,290,34,1*78
$GLGSV,2,1,05,71,39,130,33,75,09,201,37,76,36,253,39,77,26,311,27,3*76
$GLGSV,2,2,05,85,34,060,40,3*47
$GLGSV,1,1,01,86,52,353,,0*44
$GAGSV,2,1,07,03,23,081,38,08,19,134,42,13,62,310,46,15,44,050,43,2*72
$GAGSV,2,2,07,18,49,104,47,21,48,277,44,27,39,200,43,2*44
$GAGSV,2,1,08,03,23,081,38,08,19,134,40,13,62,310,43,15,44,050,44,7*78
$GAGSV,2,2,08,18,49,104,47,21,48,277,42,26,17,267,31,27,39,200,42,7*7A
$GAGSV,1,1,03,01,15,321,,05,04,034,,34,00,073,,0*47
$GBGSV,3,1,12,01,43,152,42,02,27,236,34,03,44,206,40,04,35,132,39,1*7D
$GBGSV,3,2,12,07,73,224,42,08,51,243,42,10,69,267,45,13,41,241,44,1*76
$GBGSV,3,3,12,27,42,304,44,28,66,041,45,33,49,091,41,37,20,226,39,1*75
$GBGSV,2,1,06,02,27,236,42,04,35,132,42,07,73,224,41,08,51,243,43,3*7F
$GBGSV,2,2,06,10,69,267,44,13,41,241,38,3*74
$GBGSV,1,1,01,05,08,255,,0*49
$GNRMC,040131.00,A,3726.8813522,N,12639.1956552,E,0.016,,210622,,,R,V*03
$GNVTG,,T,,M,0.016,N,0.029,K,D*34
$GNGNS,040131.00,3726.8813522,N,12639.1956552,E,RRRR,28,0.69,13.825,17.837,2.0,4095,V*02
$GNGGA,040131.00,3726.8813522,N,12639.1956552,E,4,12,0.69,13.825,M,17.837,M,2.0,4095*5E
$GNGSA,A,3,04,19,03,17,01,06,14,,,,,,1.61,0.69,1.45,1*03
$GNGSA,A,3,76,87,85,71,,,,,,,,,1.61,0.69,1.45,2*0E
$GNGSA,A,3,21,13,08,03,27,15,,,,,,,1.61,0.69,1.45,3*01
$GNGSA,A,3,02,13,10,37,04,07,33,01,08,27,28,,1.61,0.69,1.45,4*0D
$GPGSV,3,1,10,01,19,060,42,03,47,055,43,04,16,108,36,06,42,274,46,1*65
$GPGSV,3,2,10,09,11,140,35,14,43,192,44,17,74,012,42,19,55,323,45,1*6D
$GPGSV,3,3,10,28,,,45,50,47,179,39,1*5D
$GPGSV,2,1,07,01,19,060,37,03,47,055,42,04,16,108,37,06,42,274,34,6*62
$GPGSV,2,2,07,09,11,140,35,14,43,192,41,17,74,012,36,6*50
$GPGSV,1,1,04,02,04,261,,11,07,255,,12,00,327,,21,00,072,,0*64
$GLGSV,2,1,08,70,38,061,33,71,39,130,43,72,08,170,37,75,09,201,43,1*71
$GLGSV,2,2,08,76,36,253,44,77,26,311,31,85,34,060,47,87,15,290,31,1*78
$GLGSV,2,1,05,71,39,130,33,75,09,201,37,76,36,253,39,77,26,311,27,3*76
$GLGSV,2,2,05,85,34,060,40,3*47
$GLGSV,1,1,01,86,52,353,,0*44
$GAGSV,2,1,07,03,23,081,38,08,19,134,42,13,62,310,45,15,44,050,43,2*71
$GAGSV,2,2,07,18,49,104,47,21,48,277,44,27,39,200,43,2*44
$GAGSV,2,1,08,03,23,081,37,08,19,134,40,13,62,310,43,15,44,050,44,7*77
$GAGSV,2,2,08,18,49,104,47,21,48,277,42,26,17,267,31,27,39,200,42,7*7A
$GNRMC,040132.00,A,3726.8813534,N,12639.1956549,E,0.006,,210622,,,R,V*0C
$GNVTG,,T,,M,0.006,N,0.011,K,D*3E
$GNGNS,040132.00,3726.8813534,N,12639.1956549,E,RRRR,28,0.69,13.826,17.837,2.0,4095,V*0F
$GNGGA,040132.00,3726.8813534,N,12639.1956549,E,4,12,0.69,13.826,M,17.837,M,2.0,4095*53
$GNGSA,A,3,04,19,03,17,01,06,14,,,,,,1.61,0.69,1.45,1*03
$GNGSA,A,3,76,87,85,71,,,,,,,,,1.61,0.69,1.45,2*0E
$GNGSA,A,3,21,13,08,03,27,15,,,,,,,1.61,0.69,1.45,3*01
$GNGSA,A,3,02,13,10,37,04,07,33,01,08,27,28,,1.61,0.69,1.45,4*0D
$GPGSV,3,1,10,01,19,060,42,03,47,055,42,04,16,108,36,06,42,274,45,1*67
$GPGSV,3,2,10,09,11,140,35,14,43,192,44,17,74,012,42,19,55,323,46,1*6E
$GPGSV,3,3,10,28,,,44,50,47,179,39,1*5C
$GPGSV,2,1,07,01,19,060,37,03,47,055,42,04,16,108,37,06,42,274,35,6*63
$GPGSV,2,2,07,09,11,140,35,14,43,192,41,17,74,012,36,6*50
$GPGSV,1,1,04,02,04,261,,11,07,255,,12,00,327,,21,00,072,,0*64
$GLGSV,2,1,08,70,38,061,32,71,39,130,42,72,08,170,38,75,09,201,43,1*7E
$GLGSV,2,2,08,76,36,253,43,77,26,311,33,85,34,060,46,87,15,290,32,1*7F
$GLGSV,2,1,05,71,39,130,32,75,09,201,37,76,36,253,39,77,26,311,26,3*76
$GLGSV,2,2,05,85,34,060,40,3*47
$GLGSV,1,1,01,86,52,353,,0*44
$GAGSV,2,1,07,03,23,081,38,08,19,134,42,13,62,310,45,15,44,050,43,2*71
$GAGSV,2,2,07,18,49,104,47,21,48,277,45,27,39,200,43,2*45
$GAGSV,2,1,08,03,23,081,37,08,19,134,39,13,62,310,43,15,44,050,44,7*79
$GAGSV,2,2,08,18,49,104,47,21,48,277,41,26,17,267,31,27,39,200,42,7*79
$GAGSV,1,1,03,01,15,321,,05,04,034,,34,00,073,,0*47
$GBGSV,3,1,12,01,43,152,42,02,27,236,35,03,44,206,41,04,35,132,39,1*7D
$GBGSV,3,2,12,07,73,224,42,08,51,243,42,10,69,267,45,13,41,241,44,1*76
$GBGSV,3,3,12,27,42,304,45,28,66,041,46,33,49,091,42,37,20,226,39,1*74
$GBGSV,2,1,06,02,27,236,42,04,35,132,42,07,73,224,41,08,51,243,43,3*7F
$GBGSV,2,2,06,10,69,267,44,13,41,241,37,3*7B
$GBGSV,1,1,01,05,08,255,,0*49
$GNRMC,040133.00,A,3726.8813538,N,12639.1956569,E,0.008,,210622,,,R,V*0D
$GNVTG,,T,,M,0.008,N,0.015,K,D*34
$GNGNS,040133.00,3726.8813538,N,12639.1956569,E,RRRR,28,0.69,13.817,17.837,1.0,4095,V*01
$GNGGA,040133.00,3726.8813538,N,12639.1956569,E,4,12,0.69,13.817,M,17.837,M,1.0,4095*5D
$GNGSA,A,3,04,19,03,17,01,06,14,,,,,,1.61,0.69,1.45,1*03
$GNGSA,A,3,76,87,85,71,,,,,,,,,1.61,0.69,1.45,2*0E
$GNGSA,A,3,21,13,08,03,27,15,,,,,,,1.61,0.69,1.45,3*01
$GNGSA,A,3,02,13,10,37,04,07,33,01,08,27,28,,1.61,0.69,1.45,4*0D
$GPGSV,3,1,10,01,19,060,42,03,47,055,42,04,16,108,37,06,42,274,45,1*66
$GPGSV,3,2,10,09,11,140,35,14,43,192,44,17,74,012,42,19,55,323,45,1*6D
$GPGSV,3,3,10,28,,,45,50,47,179,39,1*5D
$GPGSV,2,1,07,01,19,060,37,03,47,055,42,04,16,108,37,06,42,274,35,6*63
$GPGSV,2,2,07,09,11,140,35,14,43,192,42,17,74,012,36,6*53
$GPGSV,1,1,04,02,04,261,,11,07,255,,12,00,327,,21,00,072,,0*64
$GLGSV,2,1,08,70,38,061,32,71,39,130,43,72,08,170,38,75,09,201,43,1*7F
$GLGSV,2,2,08,76,36,253,44,77,26,311,31,85,34,060,47,87,15,290,33,1*7A
$GLGSV,2,1,05,71,39,130,33,75,09,201,37,76,36,253,39,77,26,311,27,3*76
$GLGSV,2,2,05,85,34,060,40,3*47
$GLGSV,1,1,01,86,52,353,,0*44
$GAGSV,2,1,07,03,23,081,38,08,19,134,41,13,62,310,45,15,44,050,43,2*72
$GAGSV,2,2,07,18,49,104,47,21,48,277,45,27,39,200,43,2*45
$GAGSV,2,1,08,03,23,081,36,08,19,134,40,13,62,310,43,15,44,050,44,7*76
$GAGSV,2,2,08,18,49,104,47,21,48,277,41,26,17,267,31,27,39,200,42,7*79
$GAGSV,1,1,03,01,15,321,,05,04,034,,34,00,073,,0*47
$GBGSV,3,1,12,01,43,152,42,02,27,236,35,03,44,206,41,04,35,132,38,1*7C
$GBGSV,3,2,12,07,73,224,42,08,51,243,42,10,69,267,45,13,41,241,44,1*76
$GBGSV,3,3,12,27,42,304,45,28,66,041,45,33,49,091,42,37,20,226,39,1*77
$GBGSV,2,1,07,02,27,236,42,04,35,132,42,07,73,224,41,08,51,243,43,3*7E
$GBGSV,2,2,07,10,69,267,44,13,41,241,37,27,42,304,13,3*4C
$GBGSV,1,1,01,05,08,255,,0*49
$GNRMC,040134.00,A,3726.8813524,N,12639.1956581,E,0.006,,210622,,,R,V*0F
$GNVTG,,T,,M,0.006,N,0.010,K,D*3F
$GNGNS,040134.00,3726.8813524,N,12639.1956581,E,RRRR,28,0.69,13.825,17.837,2.0,4095,V*0F
$GNGGA,040134.00,3726.8813524,N,12639.1956581,E,4,12,0.69,13.825,M,17.837,M,2.0,4095*53
$GNGSA,A,3,04,19,03,17,01,06,14,,,,,,1.61,0.69,1.45,1*03
$GNGSA,A,3,76,87,85,71,,,,,,,,,1.61,0.69,1.45,2*0E
$GNGSA,A,3,21,13,08,03,27,15,,,,,,,1.61,0.69,1.45,3*01
$GNGSA,A,3,02,13,10,37,04,07,33,01,08,27,28,,1.61,0.69,1.45,4*0D
$GPGSV,3,1,10,01,19,060,42,03,47,055,42,04,16,108,36,06,42,274,45,1*67
$GPGSV,3,2,10,09,11,140,36,14,43,192,44,17,74,012,42,19,55,323,45,1*6E
$GPGSV,3,3,10,28,,,45,50,47,179,39,1*5D
$GPGSV,2,1,07,01,19,060,37,03,47,055,42,04,16,108,37,06,42,274,36,6*60
$GPGSV,2,2,07,09,11,140,35,14,43,192,42,17,74,012,36,6*53
$GPGSV,1,1,04,02,04,261,,11,07,255,,12,00,327,,21,00,072,,0*64
$GLGSV,2,1,08,70,38,061,32,71,39,130,44,72,08,170,38,75,09,201,43,1*78
$GLGSV,2,2,08,76,36,253,44,77,26,311,32,85,34,060,47,87,15,291,33,1*78
$GLGSV,2,1,05,71,39,130,32,75,09,201,37,76,36,253,39,77,26,311,27,3*77
$GLGSV,2,2,05,85,34,060,40,3*47
$GLGSV,1,1,01,86,52,353,,0*44
$GAGSV,2,1,07,03,23,081,39,08,19,134,42,13,62,310,46,15,44,050,43,2*73
$GAGSV,2,2,07,18,49,104,47,21,48,277,44,27,39,200,43,2*44
$GAGSV,2,1,08,03,23,081,39,08,19,134,40,13,62,310,43,15,44,050,44,7*79
$GAGSV,2,2,08,18,49,104,47,21,48,277,42,26,17,267,31,27,39,200,42,7*7A
$GAGSV,1,1,03,01,15,321,,05,04,034,,34,00,073,,0*47
$GBGSV,3,1,12,01,43,152,42,02,27,236,35,03,44,206,40,04,35,132,39,1*7C
$GBGSV,3,2,12,07,73,224,42,08,51,244,42,10,69,266,45,13,41,241,44,1*70
$GBGSV,3,3,12,27,42,304,43,28,66,041,45,33,49,091,41,37,19,226,40,1*76
$GBGSV,2,1,07,02,27,236,42,04,35,132,42,07,73,224,41,08,51,244,43,3*79
$GBGSV,2,2,07,10,69,266,44,13,41,241,38,27,42,304,12,3*43
$GBGSV,1,1,01,05,08,255,,0*49
$GNRMC,040135.00,A,3726.8813530,N,12639.1956577,E,0.006,,210622,,,R,V*02
$GNVTG,,T,,M,0.006,N,0.012,K,D*3D
$GNGNS,040135.00,3726.8813530,N,12639.1956577,E,RRRR,28,0.69,13.829,17.837,2.0,4095,V*0E
$GNGGA,040135.00,3726.8813530,N,12639.1956577,E,4,12,0.69,13.829,M,17.837,M,2.0,4095*52
$GNGSA,A,3,04,19,03,17,01,06,14,,,,,,1.61,0.69,1.45,1*03
$GNGSA,A,3,76,87,85,71,,,,,,,,,1.61,0.69,1.45,2*0E
$GNGSA,A,3,21,13,08,03,27,15,,,,,,,1.61,0.69,1.45,3*01
$GNGSA,A,3,02,13,10,37,04,07,33,01,08,27,28,,1.61,0.69,1.45,4*0D
$GPGSV,3,1,10,01,19,060,42,03,47,055,42,04,16,108,36,06,42,274,45,1*67
$GPGSV,3,2,10,09,11,140,36,14,43,192,44,17,74,012,42,19,55,323,45,1*6E
$GPGSV,3,3,10,28,,,45,50,47,179,39,1*5D
$GPGSV,2,1,07,01,19,060,37,03,47,055,42,04,16,108,37,06,42,274,34,6*62
$GPGSV,2,2,07,09,11,140,35,14,43,192,42,17,74,012,36,6*53
$GPGSV,1,1,04,02,04,261,,11,07,255,,12,00,327,,21,00,072,,0*64
$GLGSV,2,1,08,70,38,061,32,71,39,130,44,72,08,170,38,75,09,201,43,1*78
$GLGSV,2,2,08,76,36,253,44,77,26,311,32,85,34,060,47,87,15,291,36,1*7D
$GLGSV,2,1,05,71,39,130,32,75,09,201,37,76,36,253,39,77,26,311,27,3*77
$GLGSV,2,2,05,85,34,060,40,3*47
$GLGSV,1,1,01,86,52,353,,0*44
$GAGSV,2,1,07,03,23,081,39,08,19,134,42,13,62,310,46,15,44,050,43,2*73
$GAGSV,2,2,07,18,49,104,47,21,48,277,44,27,39,200,43,2*44
$GAGSV,2,1,08,03,23,081,36,08,19,134,38,13,62,310,43,15,44,050,44,7*79
$GAGSV,2,2,08,18,49,104,47,21,48,277,42,26,17,267,31,27,39,200,42,7*7A
$GAGSV,1,1,03,01,15,321,,05,04,034,,34,00,073,,0*47
$GBGSV,3,1,12,01,43,152,42,02,27,236,35,03,44,206,41,04,35,132,38,1*7C
$GBGSV,3,2,12,07,73,224,42,08,51,244,42,10,69,266,45,13,41,241,44,1*70
$GBGSV,3,3,12,27,42,304,44,28,66,041,46,33,49,091,42,37,19,226,39,1*7F
$GBGSV,2,1,07,02,27,236,42,04,35,132,42,07,73,224,41,08,51,244,43,3*79
$GBGSV,2,2,07,10,69,266,44,13,41,241,38,27,42,304,12,3*43
$GBGSV,1,1,01,05,08,255,,0*49
$GNRMC,040136.00,A,3726.8813542,N,12639.1956567,E,0.006,,210622,,,R,V*05
$GNVTG,,T,,M,0.006,N,0.011,K,D*3E
$GNGNS,040136.00,3726.8813542,N,12639.1956567,E,RRRR,28,0.71,13.830,17.837,2.0,4095,V*08
$GNGGA,040136.00,3726.8813542,N,12639.1956567,E,4,12,0.71,13.830,M,17.837,M,2.0,4095*54
$GNGSA,A,3,04,19,03,17,01,06,14,,,,,,1.71,0.71,1.56,1*09
$GNGSA,A,3,76,87,85,71,,,,,,,,,1.71,0.71,1.56,2*04
$GNGSA,A,3,21,13,08,03,27,15,,,,,,,1.71,0.71,1.56,3*0B
$GPGSV,3,1,10,01,19,060,42,03,47,055,42,04,16,108,34,06,42,274,45,1*65
$GPGSV,3,2,10,09,11,140,35,14,43,192,44,17,74,012,42,19,55,323,44,1*6C
$GPGSV,3,3,10,28,,,45,50,47,179,39,1*5D
$GPGSV,2,1,07,01,19,060,36,03,47,055,42,04,16,108,37,06,42,274,34,6*63
$GPGSV,2,2,07,09,11,140,34,14,43,192,42,17,74,012,36,6*52
$GPGSV,1,1,04,02,04,261,,11,07,255,,12,00,327,,21,00,072,,0*64
$GLGSV,2,1,08,70,38,061,32,71,39,130,44,72,08,170,38,75,09,201,42,1*79
$GLGSV,2,2,08,76,36,253,44,77,26,311,32,85,34,060,47,87,15,291,36,1*7D
$GLGSV,2,1,05,71,39,130,32,75,09,201,37,76,36,253,39,77,26,311,27,3*77
$GLGSV,2,2,05,85,34,060,40,3*47
$GLGSV,1,1,01,86,52,353,,0*44
$GAGSV,2,1,07,03,23,081,39,08,19,134,42,13,62,310,46,15,44,050,43,2*73
$GNRMC,040137.00,A,3726.8813532,N,12639.1956563,E,0.009,,210622,,,R,V*08
$GNVTG,,T,,M,0.009,N,0.017,K,D*37
$GNGNS,040137.00,3726.8813532,N,12639.1956563,E,RRRR,28,0.71,13.829,17.837,2.0,4095,V*02
$GNGGA,040137.00,3726.8813532,N,12639.1956563,E,4,12,0.71,13.829,M,17.837,M,2.0,4095*5E
$GNGSA,A,3,04,19,03,17,01,06,14,,,,,,1.71,0.71,1.56,1*09
$GNGSA,A,3,76,87,85,71,,,,,,,,,1.71,0.71,1.56,2*04
$GNGSA,A,3,21,13,08,03,27,15,,,,,,,1.71,0.71,1.56,3*0B
$GNGSA,A,3,02,13,10,37,04,07,33,01,08,27,28,,1.71,0.71,1.56,4*07
$GPGSV,3,1,10,01,19,060,40,03,47,055,41,04,16,108,35,06,42,274,44,1*64
$GPGSV,3,2,10,09,11,140,35,14,43,192,43,17,74,012,41,19,55,323,42,1*6E
$GPGSV,3,3,10,28,,,44,50,47,179,38,1*5D
$GPGSV,2,1,07,01,19,060,37,03,47,055,41,04,16,108,37,06,42,274,35,6*60
$GPGSV,2,2,07,09,11,140,34,14,43,192,42,17,74,012,36,6*52
$GPGSV,1,1,04,02,04,261,,11,07,255,,12,00,327,,21,00,072,,0*64
$GLGSV,2,1,08,70,38,061,32,71,39,130,43,72,08,170,38,75,09,201,42,1*7E
$GLGSV,2,2,08,76,36,253,44,77,26,311,32,85,34,060,47,87,15,291,35,1*7E
$GLGSV,2,1,05,71,39,130,32,75,09,201,37,76,36,253,39,77,26,311,28,3*78
$GLGSV,2,2,05,85,34,060,40,3*47
$GLGSV,1,1,01,86,52,353,,0*44
$GAGSV,2,1,07,03,23,081,38,08,19,134,42,13,62,310,45,15,44,050,43,2*71
$GAGSV,2,2,07,18,49,104,47,21,48,277,44,27,39,200,43,2*44
$GAGSV,2,1,08,03,23,081,36,08,19,134,37,13,62,310,42,15,44,050,43,7*70
$GAGSV,2,2,08,18,49,104,46,21,48,277,42,26,17,267,31,27,39,200,41,7*78
$GAGSV,1,1,03,01,15,321,,05,04,034,,34,00,073,,0*47
$GBGSV,3,1,12,01,43,152,42,02,27,236,34,03,44,206,40,04,35,132,38,1*7C
$GBGSV,3,2,12,07,73,224,42,08,51,244,42,10,69,266,45,13,41,241,44,1*70
$GBGSV,3,3,12,27,42,304,44,28,66,041,45,33,49,091,42,37,19,226,39,1*7C
$GBGSV,2,1,07,02,27,236,43,04,35,132,42,07,73,224,41,08,51,244,43,3*78
$GBGSV,2,2,07,10,69,266,44,13,41,241,38,27,42,304,10,3*41
$GBGSV,1,1,01,05,08,255,,0*49
$GNRMC,040138.00,A,3726.8813532,N,12639.1956589,E,0.008,,210622,,,R,V*02
$GNVTG,,T,,M,0.008,N,0.015,K,D*34
$GNGNS,040138.00,3726.8813532,N,12639.1956589,E,RRRR,28,0.71,13.817,17.837,2.0,4095,V*04
$GNGGA,040138.00,3726.8813532,N,12639.1956589,E,4,12,0.71,13.817,M,17.837,M,2.0,4095*58
$GNGSA,A,3,04,19,03,17,01,06,14,,,,,,1.71,0.71,1.56,1*09
$GNGSA,A,3,76,87,85,71,,,,,,,,,1.71,0.71,1.56,2*04
$GNGSA,A,3,21,13,08,03,27,15,,,,,,,1.71,0.71,1.56,3*0B
$GNGSA,A,3,02,13,10,37,04,07,33,01,08,27,28,,1.71,0.71,1.56,4*07
$GPGSV,3,1,10,01,19,060,42,03,47,055,42,04,16,108,38,06,42,274,45,1*69
$GPGSV,3,2,10,09,11,140,36,14,43,192,43,17,74,012,42,19,55,323,44,1*68
$GPGSV,3,3,10,28,,,44,50,47,179,39,1*5C
$GPGSV,2,1,07,01,19,060,36,03,47,055,40,04,16,108,35,06,42,274,35,6*62
$GPGSV,2,2,07,09,11,140,33,14,43,192,39,17,74,012,34,6*5B
$GPGSV,1,1,04,02,04,261,,11,07,255,,12,00,327,,21,00,072,,0*64
$GLGSV,2,1,08,70,38,061,32,71,39,130,43,72,08,170,38,75,09,201,42,1*7E
$GLGSV,2,2,08,76,36,253,42,77,26,311,32,85,34,060,47,87,15,291,30,1*7D
$GLGSV,2,1,05,71,39,130,32,75,09,201,35,76,36,253,37,77,26,311,27,3*7B
$GLGSV,2,2,05,85,34,060,39,3*49
$GLGSV,1,1,01,86,52,353,,0*44
$GAGSV,2,1,07,03,23,081,38,08,19,134,42,13,62,310,45,15,44,050,43,2*71
$GAGSV,2,2,07,18,49,104,47,21,48,277,44,27,39,200,43,2*44
$GAGSV,2,1,08,03,23,081,36,08,19,134,39,13,62,310,42,15,44,050,44,7*79
$GAGSV,2,2,08,18,49,104,47,21,48,277,42,26,17,267,31,27,39,200,41,7*79
$GAGSV,1,1,03,01,15,321,,05,04,034,,34,00,073,,0*47
$GBGSV,3,1,12,01,43,152,42,02,27,236,35,03,44,206,41,04,35,132,39,1*7D
$GBGSV,3,2,12,07,73,224,42,08,51,244,41,10,69,266,45,13,41,241,44,1*73
$GNRMC,040139.00,A,3726.8813523,N,12639.1956597,E,0.006,,210622,,,R,V*02
$GNVTG,,T,,M,0.006,N,0.011,K,D*3E
$GNGNS,040139.00,3726.8813523,N,12639.1956597,E,RRRR,28,0.69,13.825,17.837,2.0,4095,V*02
$GNGGA,040139.00,3726.8813523,N,12639.1956597,E,4,12,0.69,13.825,M,17.837,M,2.0,4095*5E
$GNGSA,A,3,04,19,03,17,01,06,14,,,,,,1.61,0.69,1.45,1*03
$GNGSA,A,3,76,87,85,71,,,,,,,,,1.61,0.69,1.45,2*0E
$GNGSA,A,3,21,13,08,03,27,15,,,,,,,1.61,0.69,1.45,3*01
$GNGSA,A,3,02,13,10,37,04,07,33,01,08,27,28,,1.61,0.69,1.45,4*0D
$GPGSV,3,1,10,01,19,060,42,03,47,055,42,04,16,108,35,06,42,274,44,1*65
$GPGSV,3,2,10,09,11,140,36,14,43,192,43,17,74,012,42,19,55,323,44,1*68
$GPGSV,3,3,10,28,,,44,50,47,179,38,1*5D
$GPGSV,2,1,07,01,19,060,39,03,47,055,43,04,16,108,38,06,42,274,38,6*6E
$GPGSV,2,2,07,09,11,140,37,14,43,192,44,17,74,012,37,6*56
$GPGSV,1,1,04,02,04,261,,11,07,255,,12,00,327,,21,00,072,,0*64
$GLGSV,2,1,08,70,38,061,32,71,39,130,44,72,08,170,38,75,09,201,41,1*7A
$GLGSV,2,2,08,76,36,253,43,77,26,311,32,85,34,060,48,87,15,291,37,1*74
$GLGSV,2,1,05,71,39,130,35,75,09,201,39,76,36,253,41,77,26,311,27,3*71
$GLGSV,2,2,05,85,34,060,42,3*45
$GLGSV,1,1,01,86,52,353,,0*44
$GAGSV,2,1,07,03,23,081,39,08,19,134,42,13,62,310,46,15,44,050,44,2*74
$GAGSV,2,2,07,18,49,104,48,21,48,277,46,27,39,200,44,2*4E
$GAGSV,2,1,08,03,23,081,37,08,19,134,39,13,62,310,43,15,44,050,44,7*79
$GAGSV,2,2,08,18,49,104,47,21,48,277,42,26,17,267,30,27,39,200,41,7*78
$GAGSV,1,1,03,01,15,321,,05,04,034,,34,00,073,,0*47
$GBGSV,3,1,12,01,43,152,42,02,27,236,35,03,44,206,40,04,35,132,39,1*7C
$GBGSV,3,2,12,07,73,224,42,08,51,244,41,10,69,266,45,13,41,241,44,1*73
$GBGSV,3,3,12,27,42,304,44,28,66,041,45,33,49,091,42,37,19,226,40,1*72
$GBGSV,2,1,07,02,27,236,44,04,35,132,44,07,73,224,43,08,51,244,45,3*7D
$GBGSV,2,2,07,10,69,266,46,13,41,241,39,27,42,304,08,3*4B
$GBGSV,1,1,01,05,08,255,,0*49
$GNRMC,040140.00,A,3726.8813525,N,12639.1956580,E,0.005,,210622,,,R,V*0F
$GNVTG,,T,,M,0.005,N,0.009,K,D*34
$GNGNS,040140.00,3726.8813525,N,12639.1956580,E,RRRR,28,0.69,13.826,17.837,3.0,4095,V*0E
$GNGGA,040140.00,3726.8813525,N,12639.1956580,E,4,12,0.69,13.826,M,17.837,M,3.0,4095*52
$GNGSA,A,3,04,19,03,17,01,06,14,,,,,,1.61,0.69,1.45,1*03
$GNGSA,A,3,76,87,85,71,,,,,,,,,1.61,0.69,1.45,2*0E
$GNGSA,A,3,21,13,08,03,27,15,,,,,,,1.61,0.69,1.45,3*01
$GNGSA,A,3,02,13,10,37,04,07,33,01,08,27,28,,1.61,0.69,1.45,4*0D
$GPGSV,3,1,10,01,19,060,42,03,47,055,43,04,16,108,36,06,42,274,45,1*66
$GPGSV,3,2,10,09,11,140,36,14,43,192,44,17,74,012,42,19,55,323,45,1*6E
$GPGSV,3,3,10,28,,,45,50,47,179,39,1*5D
$GPGSV,2,1,07,01,19,060,38,03,47,055,42,04,16,108,39,06,42,274,37,6*60
$GLGSV,2,2,08,76,36,253,44,77,26,310,32,85,34,060,47,87,15,291,38,1*72
$GNRMC,040141.00,A,3726.8813551,N,12639.1956567,E,0.019,,210622,,,R,V*09
$GNVTG,,T,,M,0.019,N,0.035,K,D*36
$GNGNS,040141.00,3726.8813551,N,12639.1956567,E,RRRR,28,0.69,13.816,17.837,2.0,4095,V*07
$GNGGA,040141.00,3726.8813551,N,12639.1956567,E,4,12,0.69,13.816,M,17.837,M,2.0,4095*5B
$GNGSA,A,3,04,19,03,17,01,06,14,,,,,,1.61,0.69,1.45,1*03
$GNGSA,A,3,76,87,85,71,,,,,,,,,1.61,0.69,1.45,2*0E
$GNGSA,A,3,21,13,08,03,27,15,,,,,,,1.61,0.69,1.45,3*01
$GNGSA,A,3,02,13,10,37,04,07,33,01,08,27,28,,1.61,0.69,1.45,4*0D
$GPGSV,3,1,10,01,19,060,42,03,47,055,43,04,16,108,36,06,42,274,45,1*66
$GPGSV,3,2,10,09,11,140,36,14,43,192,44,17,74,012,42,19,55,323,45,1*6E
$GPGSV,3,3,10,28,,,45,50,47,179,39,1*5D
$GPGSV,2,1,07,01,19,060,37,03,47,055,41,04,16,108,36,06,42,274,36,6*62
$GPGSV,2,2,07,09,11,140,36,14,43,192,42,17,74,012,36,6*50
$GPGSV,1,1,04,02,04,261,,11,07,255,,12,00,327,,21,00,072,,0*64
$GLGSV,2,1,08,70,38,060,31,71,39,129,44,72,08,170,38,75,09,201,44,1*75
$GLGSV,2,2,08,76,36,253,44,77,26,310,32,85,34,060,47,87,15,291,37,1*7D
$GLGSV,2,1,05,71,39,129,33,75,09,201,38,76,36,253,41,77,26,310,28,3*70
$GLGSV,2,2,05,85,34,060,41,3*46
$GLGSV,1,1,01,86,52,353,,0*44
$GAGSV,2,1,07,03,23,081,37,08,19,134,43,13,62,310,46,15,44,050,43,2*7C
$GAGSV,2,2,07,18,49,104,47,21,48,277,45,27,39,200,42,2*44
$GAGSV,2,1,08,03,23,081,37,08,19,134,38,13,62,310,43,15,44,050,44,7*78
$GAGSV,2,2,08,18,49,104,47,21,48,277,42,26,17,267,28,27,39,200,41,7*71
$GAGSV,1,1,03,01,16,320,,05,04,034,,34,00,073,,0*45
$GBGSV,3,1,12,01,43,152,41,02,27,236,35,03,44,206,40,04,35,132,40,1*71
$GBGSV,3,2,12,07,73,224,43,08,51,244,42,10,69,266,45,13,41,241,44,1*71
$GBGSV,3,3,12,27,42,304,44,28,66,041,45,33,49,091,42,37,19,226,39,1*7C
$GBGSV,2,1,07,02,27,236,42,04,35,132,42,07,73,224,41,08,51,244,43,3*79
$GBGSV,2,2,07,10,69,266,45,13,41,241,38,27,42,304,09,3*48
$GBGSV,1,1,01,05,08,255,,0*49
$GNRMC,040142.00,A,3726.8813540,N,12639.1956577,E,0.005,,210622,,,R,V*06
$GNVTG,,T,,M,0.005,N,0.008,K,D*35
$GNGNS,040142.00,3726.8813540,N,12639.1956577,E,RRRR,28,0.69,13.810,17.837,2.0,4095,V*03
$GNGGA,040142.00,3726.8813540,N,12639.1956577,E,4,12,0.69,13.810,M,17.837,M,2.0,4095*5F
$GNGSA,A,3,04,19,03,17,01,06,14,,,,,,1.61,0.69,1.45,1*03
$GNGSA,A,3,76,87,85,71,,,,,,,,,1.61,0.69,1.45,2*0E
$GNGSA,A,3,21,13,08,03,27,15,,,,,,,1.61,0.69,1.45,3*01
$GNGSA,A,3,02,13,10,37,04,07,33,01,08,27,28,,1.61,0.69,1.45,4*0D
$GPGSV,3,1,10,01,19,060,42,03,47,055,43,04,16,108,37,06,42,274,45,1*67
$GPGSV,3,2,10,09,11,140,35,14,43,192,44,17,74,012,42,19,55,323,45,1*6D
$GPGSV,3,3,10,28,,,45,50,47,179,39,1*5D
$GPGSV,2,1,07,01,19,060,37,03,47,055,41,04,16,108,36,06,42,274,37,6*63
$GPGSV,2,2,07,09,11,140,36,14,43,192,42,17,74,012,36,6*50
$GPGSV,1,1,04,02,04,261,,11,07,255,,12,00,327,,21,00,072,,0*64
$GLGSV,2,1,08,70,38,060,31,71,39,129,44,72,08,170,37,75,09,201,40,1*7E
$GLGSV,2,2,08,76,36,253,44,77,26,310,31,85,34,060,46,87,15,291,36,1*7E
$GLGSV,2,1,05,71,39,129,34,75,09,201,39,76,36,253,41,77,26,310,27,3*79
$GLGSV,2,2,05,85,34,060,41,3*46
$GLGSV,1,1,01,86,52,353,,0*44
$GAGSV,2,1,07,03,23,081,38,08,19,134,42,13,62,310,46,15,44,050,43,2*72
$GAGSV,2,2,07,18,49,104,47,21,48,277,45,27,39,200,42,2*44
$GAGSV,2,1,08,03,23,081,37,08,19,134,38,13,62,310,43,15,44,050,44,7*78
$GAGSV,2,2,08,18,49,104,47,21,48,277,42,26,17,267,29,27,39,200,41,7*70
$GAGSV,1,1,03,01,16,320,,05,04,034,,34,00,073,,0*45
$GBGSV,3,1,12,01,43,152,41,02,27,236,34,03,44,206,40,04,35,132,38,1*7F
$GBGSV,3,2,12,07,73,224,42,08,51,244,41,10,69,266,45,13,41,241,44,1*73
$GBGSV,3,3,12,27,42,304,44,28,66,041,45,33,49,091,41,37,19,226,39,1*7F
$GBGSV,2,1,07,02,27,236,43,04,35,132,42,07,73,224,41,08,51,244,43,3*78
$GBGSV,2,2,07,10,69,266,45,13,41,241,38,27,42,304,08,3*49
$GBGSV,1,1,01,05,08,255,,0*49
$GNRMC,040143.00,A,3726.8813549,N,12639.1956574,E,0.004,,210622,,,R,V*0C
$GNVTG,,T,,M,0.004,N,0.007,K,D*3B
$GNGNS,040143.00,3726.8813549,N,12639.1956574,E,RRRR,28,0.69,13.812,17.837,1.0,4095,V*09
$GNGSA,A,3,04,19,03,17,01,06,14,,,,,,1.61,0.69,1.45,1*03
$GNGSA,A,3,76,87,85,71,,,,,,,,,1.61,0.69,1.45,2*0E
$GNGSA,A,3,21,13,08,03,27,15,,,,,,,1.61,0.69,1.45,3*01
$GNGSA,A,3,02,13,10,37,04,07,33,01,08,27,28,,1.61,0.69,1.45,4*0D
$GPGSV,3,1,10,01,19,060,42,03,47,055,43,04,16,108,36,06,42,274,45,1*66
$GPGSV,3,2,10,09,11,140,36,14,43,192,43,17,74,012,42,19,55,323,45,1*69
$GPGSV,3,3,10,28,,,44,50,47,179,39,1*5C
$GPGSV,2,1,07,01,19,060,37,03,47,055,41,04,16,108,36,06,42,274,36,6*62
$GPGSV,2,2,07,09,11,140,36,14,43,192,42,17,74,012,36,6*50
$GPGSV,1,1,04,02,04,261,,11,07,255,,12,00,327,,21,00,072,,0*64
$GLGSV,2,1,08,70,38,060,32,71,39,129,44,72,08,170,32,75,09,201,42,1*7A
$GLGSV,2,2,08,76,36,253,42,77,26,310,30,85,34,060,46,87,15,291,35,1*7A
$GLGSV,2,1,05,71,39,129,34,75,09,201,37,76,36,253,40,77,26,310,27,3*76
$GLGSV,2,2,05,85,34,060,41,3*46
$GLGSV,1,1,01,86,52,353,,0*44
$GAGSV,2,1,07,03,23,080,38,08,19,134,42,13,$GAGSV,2,2,07,18,49,104,47,21,48,277,44,27,39,200,43,2*44
$GAGSV,2,1,08,03,23,080,37,08,19,134,39,13,62,310,43,15,44,050,44,7*78
$GAGSV,2,2,08,18,49,104,47,21,48,277,42,26,17,267,30,27,39,200,41,7*78
$GAGSV,1,1,03,01,16,320,,05,04,034,,34,00,073,,0*45
$GBGSV,3,1,12,01,43,152,41,02,27,236,34,03,44,206,40,04,35,132,38,1*7F
$GBGSV,3,2,12,07,73,224,42,08,51,244,41,10,69,266,45,13,41,241,44,1*73
$GBGSV,3,3,12,27,42,304,44,28,66,041,45,33,49,091,41,37,19,226,39,1*7F
$GBGSV,2,1,07,02,27,236,42,04,35,132,43,07,73,224,41,08,51,244,43,3*78
$GBGSV,2,2,07,10,69,266,44,13,41,241,38,27,42,304,08,3*48
$GBGSV,1,1,01,05,08,255,,0*49
$GNRMC,040144.00,A,3726.8813548,N,12639.1956575,E,0.010,,210622,,,R,V*0E
$GNVTG,,T,,M,0.010,N,0.018,K,D*30
$GNGNS,040144.00,3726.8813548,N,12639.1956575,E,RRRR,28,0.69,13.812,17.837,2.0,4095,V*0D
$GNGGA,040144.00,3726.8813548,N,12639.1956575,E,4,12,0.69,13.812,M,17.837,M,2.0,4095*51
$GNGSA,A,3,04,19,03,17,01,06,14,,,,,,1.61,0.69,1.45,1*03
$GNGSA,A,3,76,87,85,71,,,,,,,,,1.61,0.69,1.45,2*0E
$GNGSA,A,3,21,13,08,03,27,15,,,,,,,1.61,0.69,1.45,3*01
$GNGSA,A,3,02,13,10,37,04,07,33,01,08,27,28,,1.61,0.69,1.45,4*0D
$GPGSV,3,1,10,01,19,060,42,03,47,055,43,04,16,108,36,06,42,274,45,1*66
$GPGSV,3,2,10,09,11,140,36,14,43,192,43,17,74,012,42,19,55,323,45,1*69
$GPGSV,3,3,10,28,,,44,50,47,179,39,1*5C
$GPGSV,2,1,07,01,19,060,37,03,47,055,41,04,16,108,36,06,42,274,36,6*62
$GPGSV,2,2,07,09,11,140,36,14,43,192,42,17,74,012,36,6*50
$GPGSV,1,1,04,02,04,261,,11,07,255,,12,00,327,,21,00,072,,0*64
$GLGSV,2,1,08,70,38,060,32,71,39,129,45,72,08,170,37,75,09,201,42,1*7E
$GLGSV,2,2,08,76,36,253,44,77,26,310,30,85,34,060,46,87,15,291,34,1*7D
$GLGSV,2,1,05,71,39,129,34,75,09,201,38,76,36,253,39,77,26,310,27,3*77
$GLGSV,2,2,05,85,34,060,41,3*46
$GLGSV,1,1,01,86,52,353,,0*44
$GAGSV,2,1,07,03,23,080,37,08,19,134,42,13,62,310,45,15,44,050,43,2*7F
$GAGSV,2,2,07,18,49,104,46,21,48,277,44,27,39,200,43,2*45
$GAGSV,2,1,08,03,23,080,37,08,19,134,39,13,62,310,43,15,44,050,44,7*78
$GAGSV,2,2,08,18,49,104,46,21,48,277,42,26,17,267,30,27,39,200,41,7*79
$GAGSV,1,1,03,01,16,320,,05,04,034,,34,00,073,,0*45
$GBGSV,3,1,12,01,43,152,41,02,27,236,34,03,44,206,40,04,35,132,39,1*7E
$GBGSV,3,2,12,07,73,224,42,08,51,244,41,10,69,266,45,13,41,241,44,1*73
$GBGSV,3,3,12,27,42,304,44,28,66,041,45,33,49,091,41,37,19,226,38,1*7E
$GBGSV,2,1,07,02,27,236,42,04,35,132,42,07,73,224,41,08,51,244,43,3*79
$GNRMC,040145.00,A,3726.8813529,N,12639.1956577,E,0.011,,210622,,,R,V*0B
$GNVTG,,T,,M,0.011,N,0.019,K,D*30
$GNGNS,040145.00,3726.8813529,N,12639.1956577,E,RRRR,28,0.69,13.821,17.837,2.0,4095,V*09
$GNGGA,040145.00,3726.8813529,N,12639.1956577,E,4,12,0.69,13.821,M,17.837,M,2.0,4095*55
$GNGSA,A,3,04,19,03,17,01,06,14,,,,,,1.61,0.69,1.45,1*03
$GNGSA,A,3,76,87,85,71,,,,,,,,,1.61,0.69,1.45,2*0E
$GNGSA,A,3,21,13,08,03,27,15,,,,,,,1.61,0.69,1.45,3*01
$GPGSV,3,1,10,01,19,060,42,03,47,055,43,04,16,108,35,06,42,274,45,1*65
$GPGSV,3,2,10,09,11,140,33,14,43,192,43,17,74,012,42,19,55,323,45,1*6C
$GPGSV,3,3,10,28,,,45,50,47,179,39,1*5D
$GPGSV,2,1,07,01,19,060,37,03,47,055,41,04,16,108,37,06,42,274,36,6*63
$GPGSV,2,2,07,09,11,140,30,14,43,192,42,17,74,012,36,6*56
$GPGSV,1,1,04,02,04,261,,11,07,255,,12,00,327,,21,00,072,,0*64
$GLGSV,2,1,08,70,38,060,33,71,39,129,45,72,08,170,39,75,09,201,42,1*71
$GLGSV,2,2,08,76,36,253,44,77,26,310,31,85,34,060,46,87,15,291,36,1*7E
$GLGSV,2,1,05,71,39,129,34,75,09,201,37,76,36,253,39,77,26,310,27,3*78
$GLGSV,2,2,05,85,34,060,40,3*47
$GLGSV,1,1,01,86,52,353,,0*44
$GAGSV,2,1,07,03,23,080,37,08,19,134,40,13,62,310,46,15,44,050,43,2*7E
$GAGSV,2,2,07,18,49,104,47,21,48,277,44,27,39,200,43,2*44
$GAGSV,2,1,08,03,23,080,37,08,19,134,34,13,62,310,43,15,44,050,44,7*75
$GAGSV,2,2,08,18,49,104,47,21,48,277,42,26,17,267,31,27,39,200,41,7*79
$GAGSV,1,1,03,01,16,320$GBGSV,3,1,12,01,43,152,41,02,27,236,34,03,44,206,40,04,35,132,39,1*7E
$GBGSV,3,2,12,07,73,224,42,08,51,244,41,10,69,266,44,13,41,241,44,1*72
$GBGSV,3,3,12,27,42,304,44,28,66,041,46,33,49,091,41,37,19,226,38,1*7D
$GBGSV,2,1,07,02,27,236,42,04,35,132,41,07,73,224,41,08,51,244,43,3*7A
$GBGSV,2,2,07,10,69,266,44,13,41,241,38,27,42,304,08,3*48
$GBGSV,1,1,01,05,08,255,,0*49
$GNRMC,040146.00,A,3726.8813554,N,12639.1956560,E,0.019,,210622,,,R,V*0C
$GNVTG,,T,,M,0.019,N,0.034,K,D*37
$GNGNS,040146.00,3726.8813554,N,12639.1956560,E,RRRR,28,0.69,13.806,17.837,2.0,4095,V*03
$GNGGA,040146.00,3726.8813554,N,12639.1956560,E,4,12,0.69,13.806,M,17.837,M,2.0,4095*5F
$GNGSA,A,3,04,19,03,17,01,06,14,,,,,,1.61,0.69,1.45,1*03
$GNGSA,A,3,76,87,85,71,,,,,,,,,1.61,0.69,1.45,2*0E
$GNGSA,A,3,21,13,08,03,27,15,,,,,,,1.61,0.69,1.45,3*01
$GNGSA,A,3,02,13,10,37,04,07,33,01,08,27,28,,1.61,0.69,1.45,4*0D
$GPGSV,3,1,10,01,19,060,42,03,47,055,43,04,16,108,31,06,42,274,45,1*61
$GPGSV,3,2,10,09,11,140,36,14,43,192,43,17,74,012,42,19,55,323,45,1*69
$GPGSV,3,3,10,28,,,45,50,47,179,39,1*5D
$GPGSV,2,1,07,01,19,060,37,03,47,055,41,04,16,108,32,06,42,274,36,6*66
$GPGSV,2,2,07,09,11,140,34,14,43,192,42,17,74,012,36,6*52
$GPGSV,1,1,04,02,04,261,,11,07,255,,12,00,327,,21,00,072,,0*64
$GLGSV,2,1,08,70,38,060,32,71,39,129,44,72,08,170,39,75,09,201,42,1*71
$GLGSV,2,2,08,76,36,253,44,77,26,310,30,85,34,060,46,87,15,291,35,1*7C
$GLGSV,2,1,05,71,39,129,37,75,09,201,38,76,36,253,39,77,26,310,27,3*74
$GLGSV,2,2,05,85,34,060,40,3*47
$GLGSV,1,1,01,86,52,353,,0*44
$GAGSV,2,1,07,03,23,080,40,08,19,134,44,13,62,310,46,15,44,050,43,2*7A
$GNRMC,040147.00,A,3726.8813541,N,12639.1956543,E,0.013,,210622,,,R,V*02
$GNVTG,,T,,M,0.013,N,0.025,K,D*3D
$GNGNS,040147.00,3726.8813541,N,12639.1956543,E,RRRR,28,0.69,13.818,17.837,2.0,4095,V*08
$GNGGA,040147.00,3726.8813541,N,12639.1956543,E,4,12,0.69,13.818,M,17.837,M,2.0,4095*54
$GNGSA,A,3,04,19,03,17,01,06,14,,,,,,1.61,0.69,1.45,1*03
$GNGSA,A,3,76,87,85,71,,,,,,,,,1.61,0.69,1.45,2*0E
$GNGSA,A,3,21,13,08,03,27,15,,,,,,,1.61,0.69,1.45,3*01
$GNGSA,A,3,02,13,10,37,04,07,33,01,08,27,28,,1.61,0.69,1.45,4*0D
$GPGSV,3,1,10,01,19,060,40,03,47,055,43,04,16,108,37,06,42,274,45,1*65
$GPGSV,3,2,10,09,11,140,35,14,43,192,43,17,74,012,42,19,55,323,45,1*6A
$GPGSV,3,3,10,28,,,45,50,47,179,39,1*5D
$GPGSV,2,1,07,01,19,060,31,03,47,055,41,04,16,108,38,06,42,274,36,6*6A
$GPGSV,2,2,07,09,11,140,36,14,43,192,42,17,74,012,36,6*50
$GPGSV,1,1,04,02,04,261,,11,07,255,,12,00,327,,21,00,072,,0*64
$GLGSV,2,1,08,70,38,060,32,71,39,129,44,72,08,170,39,75,09,201,42,1*71
$GLGSV,2,2,08,76,36,253,44,77,26,310,32,85,34,060,47,87,15,291,34,1*7E
$GLGSV,2,1,05,71,39,129,34,75,09,201,38,76,36,253,39,77,26,310,27,3*77
$GLGSV,2,2,05,85,34,060,41,3*46
$GLGSV,1,1,01,86,52,353,,0*44
$GAGSV,2,1,07,03,23,080,37,08,19,134,42,13,62,310,46,15,44,050,43,2*7C
$GAGSV,2,2,07,18,49,104,47,21,48,277,44,27,39,200,44,2*43
$GAGSV,2,1,08,03,23,080,36,08,19,134,39,13,62,310,43,15,44,050,44,7*79
$GAGSV,2,2,08,18,49,104,46,21,48,277,43,26,17,267,30,27,39,200,42,7*7B
$GAGSV,1,1,03,01,16,320,,05,04,034,,34,00,073,,0*45
$GBGSV,3,1,12,01,43,152,42,02,27,236,34,03,44,206,40,04,35,132,40,1*73
$GBGSV,3,2,12,07,73,224,42,08,51,244,41,10,69,266,44,13,41,241,45,1*73
$GBGSV,3,3,12,27,42,304,45,28,66,041,46,33,49,091,39,37,19,226,39,1*72
$GBGSV,2,1,07,02,27,236,42,04,35,132,42,07,73,224,41,08,51,244,43,3*79
$GBGSV,2,2,07,10,69,266,44,13,41,241,38,27,42,304,08,3*48
$GBGSV,1,1,01,05,08,255,,0*49
$GNRMC,040148.00,A,3726.8813549,N,12639.1956547,E,0.013,,210622,,,R,V*01
$GNVTG,,T,,M,0.013,N,0.024,K,D*3C
$GNGNS,040148.00,3726.8813549,N,12639.1956547,E,RRRR,28,0.69,13.816,17.837,2.0,4095,V*05
$GNGGA,040148.00,3726.8813549,N,12639.1956547,E,4,12,0.69,13.816,M,17.837,M,2.0,4095*59
$GNGSA,A,3,04,19,03,17,01,06,14,,,,,,1.61,0.69,1.45,1*03
$GNGSA,A,3,21,13,08,03,27,15,,,,,,,1.61,0.69,1.45,3*01
$GNGSA,A,3,02,13,10,37,04,07,33,01,08,27,28,,1.61,0.69,1.45,4*0D
$GPGSV,3,1,10,01,19,060,40,03,47,055,43,04,16,108,37,06,42,274,45,1*65
$GPGSV,3,2,10,09,11,140,36,14,43,192,43,17,74,012,42,19,55,323,45,1*69
$GPGSV,3,3,10,28,,,45,50,47,179,39,1*5D
$GPGSV,2,1,07,01,19,060,34,03,47,055,41,04,16,108,37,06,42,274,36,6*60
$GPGSV,2,2,07,09,11,140,36,14,43,192,42,17,74,012,36,6*50
$GPGSV,1,1,04,02,04,261,,11,07,255,,12,00,327,,21,00,072,,0*64
$GLGSV,2,1,08,70,38,060,32,71,39,129,44,72,08,170,39,75,09,201,41,1*72
$GLGSV,2,2,08,76,36,253,44,77,26,310,31,85,34,060,47,87,15,291,35,1*7C
$GLGSV,2,1,05,71,39,129,34,75,09,201,38,76,36,253,39,77,26,310,27,3*77
$GLGSV,2,2,05,85,34,060,40,3*47
$GLGSV,1,1,01,86,52,353,,0*44
$GAGSV,2,1,07,03,23,080,38,08,19,134,43,13,62,310,46,15,44,050,43,2*72
$GAGSV,2,2,07,18,49,104,47,21,48,277,44,27,39,200,44,2$GNRMC,040149.00,A,3726.8813551,N,12639.1956551,E,0.011,,210622,,,R,V*0C
$GNVTG,,T,,M,0.011,N,0.020,K,D*3A
$GNGNS,040149.00,3726.8813551,N,12639.1956551,E,RRRR,28,0.69,13.826,17.837,2.0,4095,V*09
$GNGGA,040149.00,3726.8813551,N,12639.1956551,E,4,12,0.69,13.826,M,17.837,M,2.0,4095*55
$GNGSA,A,3,04,19,03,17,01,06,14,,,,,,1.61,0.69,1.45,1*03
$GNGSA,A,3,76,87,85,71,,,,,,,,,1.61,0.69,1.45,2*0E
$GNGSA,A,3,21,13,08,03,27,15,,,,,,,1.61,0.69,1.45,3*01
$GNGSA,A,3,02,13,10,37,04,07,33,01,08,27,28,,1.61,0.69,1.45,4*0D
$GPGSV,3,1,10,01,19,060,42,03,47,055,43,04,16,108,36,06,42,274,45,1*66
$GPGSV,3,2,10,09,11,140,36,14,43,192,43,17,74,012,43,19,55,323,45,1*68
$GPGSV,3,3,10,28,,,44,50,47,179,39,1*5C
$GPGSV,2,1,07,01,19,060,33,03,47,055,39,04,16,108,35,06,42,274,35,6*69
$GPGSV,2,2,07,09,11,140,34,14,43,192,40,17,74,012,34,6*52
$GPGSV,1,1,04,02,04,261,,11,07,255,,12,00,327,,21,00,072,,0*64
$GLGSV,2,1,08,70,38,060,32,71,39,129,44,72,08,170,39,75,09,201,42,1*71
$GLGSV,2,2,08,76,36,253,44,77,26,310,31,85,34,060,46,87,15,291,35,1*7D
$GLGSV,2,1,05,71,39,129,32,75,09,201,35,76,36,253,37,77,26,310,26,3*73
$GLGSV,2,2,05,85,34,060,39,3*49
$GLGSV,1,1,01,86,52,353,,0*44
$GAGSV,2,1,07,03,23,080,37,08,19,134,42,13,62,310,45,15,44,050,43,2*7F
$GAGSV,2,2,07,18,49,104,47,21,48,277,44,27,39,200,43,2*44
$GAGSV,2,1,08,03,23,080,38,08,19,134,39,13,62,310,43,15,44,050,44,7*77
$GAGSV,2,2,08,18,49,104,46,21,48,277,42,26,17,267,30,27,39,200,42,7*7A
$GAGSV,1,1,03,01,16,320,,05,04,034,,34,00,073,,0*45
$GBGSV,3,1,12,01,43,152,41,02,27,236,34,03,44,206,40,04,35,132,39,1*7E
$GBGSV,3,2,12,07,73,224,42,08,51,244,41,10,69,266,44,13,41,241,44,1*72
$GBGSV,3,3,12,27,42,304,45,28,66,041,46,33,49,091,41,37,19,226,38,1*7C
$GBGSV,2,1,07,02,27,236,41,04,35,132,41,07,73,224,40,08,51,244,41,3*7A
$GBGSV,2,2,07,10,69,266,43,13,41,241,36,27,42,304,08,3*41
$GBGSV,1,1,01,05,08,255,,0*49
$GNRMC,040150.00,A,3726.8813557,N,12639.1956548,E,0.008,,210622,,,R,V*02
$GNVTG,,T,,M,0.008,N,0.016,K,D*37
$GNGNS,040150.00,3726.8813557,N,12639.1956548,E,RRRR,28,0.69,13.829,17.837,2.0,4095,V*00
$GNGGA,040150.00,3726.8813557,N,12639.1956548,E,4,12,0.69,13.829,M,17.837,M,2.0,4095*5C
$GNGSA,A,3,04,19,03,17,01,06,14,,,,,,1.61,0.69,1.45,1*03
$GNGSA,A,3,76,87,85,71,,,,,,,,,1.61,0.69,1.45,2*0E
$GNGSA,A,3,21,13,08,03,27,15,,,,,,,1.61,0.69,1.45,3*01
$GNGSA,A,3,02,13,10,37,04,07,33,01,08,27,28,,1.61,0.69,1.45,4*0D
$GPGSV,3,1,10,01,19,060,42,03,47,055,43,04,16,108,38,06,42,274,45,1*68
$GPGSV,3,2,10,09,11,140,36,14,43,192,43,17,74,012,43,19,55,323,44,1*69
$GPGSV,3,3,10,28,,,44,50,47,179,39,1*5C
$GPGSV,2,1,07,01,19,060,37,03,47,055,40,04,16,108,37,06,42,274,35,6*61
$GPGSV,2,2,07,09,11,140,35,14,43,192,41,17,74,012,35,6*53
$GPGSV,1,1,04,02,04,261,,11,07,255,,12,00,327,,21,00,072,,0*64
$GLGSV,2,1,08,70,38,060,33,71,39,129,44,72,08,170,39,75,09,201,42,1*70
$GLGSV,2,2,08,76,36,253,44,77,26,310,31,85,34,060,45,87,15,291,33,1*78
$GLGSV,2,1,05,71,39,129,33,75,09,201,37,76,36,253,37,77,26,310,27,3*71
$GLGSV,2,2,05,85,34,060,39,3*49
$GLGSV,1,1,01,86,52,353,,0*44
$GAGSV,2,1,08,03,23,080,39,08,19,134,43,13,62,310,46,15,44,050,43,2*7C
$GAGSV,2,2,08,18,49,104,47,21,48,277,44,26,17,267,25,27,39,200,44,2*7A
$GAGSV,2,1,08,03,23,080,37,08,19,134,39,13,62,310,43,15,44,050,44,7*78
$GAGSV,2,2,08,18,49,104,46,21,48,277,42,26,17,267,29,27,39,200,42,7*72
$GAGSV,1,1,03,01,16,320,,05,04,034,,34,00,073,,0*45
$GBGSV,3,1,12,01,43,152,41,02,27,236,34,03,44,206,40,04,35,132,39,1*7E
$GNRMC,040151.00,A,3726.8813563,N,12639.1956538,E,0.006,,210622,,,R,V*0D
$GNVTG,,T,,M,0.006,N,0.011,K,D*3E
$GNGNS,040151.00,3726.8813563,N,12639.1956538,E,RRRR,28,0.69,13.829,17.837,2.0,4095,V*01
$GNGGA,040151.00,3726.8813563,N,12639.1956538,E,4,12,0.69,13.829,M,17.837,M,2.0,4095*5D
$GNGSA,A,3,04,19,03,17,01,06,14,,,,,,1.61,0.69,1.45,1*03
$GNGSA,A,3,76,87,85,71,,,,,,,,,1.61,0.69,1.45,2*0E
$GNGSA,A,3,21,13,08,03,27,15,,,,,,,1.61,0.69,1.45,3*01
$GNGSA,A,3,02,13,10,37,04,07,33,01,08,27,28,,1.61,0.69,1.45,4*0D
$GPGSV,3,1,10,01,19,060,42,03,47,055,43,04,16,108,38,06,42,274,44,1*69
$GPGSV,3,2,10,09,11,140,37,14,43,192,43,17,74,012,42,19,55,323,44,1*69
$GPGSV,3,3,10,28,,,44,50,47,179,39,1*5C
$GPGSV,2,1,07,01,19,060,38,03,47,055,42,04,16,108,37,06,42,274,38,6*61
$GPGSV,2,2,07,09,11,140,38,14,43,192,43,17,74,012,37,6*5E
$GPGSV,1,1,04,02,04,261,,11,07,255,,12,00,327,,21,00,072,,0*64
$GLGSV,2,1,08,70,38,060,33,71,39,129,46,72,08,170,40,75,09,201,43,1*7D
$GLGSV,2,2,08,76,36,253,45,77,26,310,31,85,34,060,45,87,15,291,34,1*7E
$GLGSV,2,1,05,71,39,129,34,75,09,201,38,76,36,253,39,77,26,310,28,3*78
$GLGSV,2,2,05,85,34,060,41,3*46
$GLGSV,1,1,01,86,52,353,,0*44
$GAGSV,2,1,08,03,23,080,38,08,19,134,42,13,62,310,46,15,44,050,43,2*7C
$GAGSV,2,2,08,18,49,104,47,21,48,277,43,26,17,267,22,27,39,200,43,2*7D
$GAGSV,2,1,08,03,23,080,37,08,19,134,39,13,62,310,43,15,44,050,44,7*78
$GAGSV,2,2,08,18,49,104,46,21,48,277,42,26,17,267,27,27,39,200,42,7*7C
$GAGSV,1,1,03,01,16,320,,05,04,034,,34,00,073,,0*45
$GBGSV,3,1,12,01,43,152,42,02,27,236,35,03,44,206,41,04,35,132,40,1*73
$GBGSV,3,2,12,07,73,224,42,08,51,244,41,10,69,266,44,13,41,241,44,1*72
$GBGSV,3,3,12,27,42,304,44,28,66,041,45,33,49,091,41,37,19,226,38,1*7E
$GBGSV,2,1,07,02,27,236,44,04,35,132,42,07,73,224,42,08,51,244,43,3*7C
$GBGSV,2,2,07,10,69,266,45,13,41,241,40,27,42,304,09,3*47
$GBGSV,1,1,01,05,08,255,,0*49
$GNRMC,040152.00,A,3726.8813569,N,12639.1956556,E,0.010,,210622,,,R,V*0B
$GNVTG,,T,,M,0.010,N,0.019,K,D*31
$GNGNS,040152.00,3726.8813569,N,12639.1956556,E,RRRR,28,0.69,13.803,17.837,2.0,4095,V*08
$GNGGA,040152.00,3726.8813569,N,12639.1956556,E,4,12,0.69,13.803,M,17.837,M,2.0,4095*54
$GNGSA,A,3,04,19,03,17,01,06,14,,,,,,1.61,0.69,1.45,1*03
$GNGSA,A,3,76,87,85,71,,,,,,,,,1.61,0.69,1.45,2*0E
$GNGSA,A,3,21,13,08,03,27,15,,,,,,,1.61,0.69,1.45,3*01
$GNGSA,A,3,02,13,10,37,04,07,33,01,08,27,28,,1.61,0.69,1.45,4*0D
$GPGSV,3,1,10,01,19,060,42,03,47,055,43,04,16,108,38,06,42,274,44,1*69
$GPGSV,3,2,10,09,11,140,37,14,43,192,43,17,74,012,42,19,55,323,44,1*69
$GPGSV,3,3,10,28,,,44,50,47,179,40,1*52
$GPGSV,2,1,07,01,19,060,37,03,47,055,41,04,16,108,36,06,42,274,37,6*63
$GPGSV,2,2,07,09,11,140,37,14,43,192,42,17,74,012,36,6*51
$GPGSV,1,1,04,02,04,261,,11,07,255,,12,00,327,,21,00,072,,0*64
$GLGSV,2,1,08,70,38,060,33,71,39,129,45,72,08,170,39,75,09,201,43,1*70
$GLGSV,2,2,08,76,36,253,45,77,26,310,31,85,34,060,45,87,15,291,35,1*7F
$GLGSV,2,1,05,71,39,129,35,75,09,201,38,76,36,253,38,77,26,310,28,3*78
$GLGSV,2,2,05,85,34,060,41,3*46
$GLGSV,1,1,01,86,52,353,,0*44
$GAGSV,2,1,08,03,23,080,38,08,19,134,42,13,62,312,46,15,44,050,43,2*7E
$GAGSV,2,2,08,18,49,104,47,21,48,277,43,26,17,267,21,27,39,200,44,2*79
$GAGSV,2,1,08,03,23,080,37,08,19,134,39,13,62,312,43,15,44,050,44,7*7A
$GAGSV,2,2,08,18,49,104,47,21,48,277,42,26,17,267,26,27,39,200,42,7*7C
$GAGSV,1,1,03,01,16,320,,05,04,034,,34,00,073,,0*45
$GBGSV,3,1,12,01,43,152,42,02,27,236,36,03,44,206,40,04,35,132,40,1*71
$GBGSV,3,2,12,07,73,224,42,08,51,244,41,10,69,266,45,13,41,241,44,1*73
$GBGSV,3,3,12,27,42,304,44,28,66,041,45,33,49,091,40,37,19,226,38,1*7F
