$GPGSV,3,1,12,01,15,063,29,04,18,102,32,06,45,278,44,12,03,324,23,1*6F
$GPGSV,3,2,12,14,37,189,42,17,75,030,33,19,59,326,46,28,00,000,37,1*69
$GPGSV,3,3,12,02,07,264,,03,42,049,,09,14,136,,11,10,257,,1*63
$GLGSV,2,1,08,70,35,052,15,77,26,303,23,76,30,246,47,75,03,198,19,1*7C
$GLGSV,2,2,08,87,17,295,42,85,30,064,42,71,43,123,31,72,13,167,40,1*7B
$GAGSV,3,1,10,01,17,317,42,03,23,075,33,08,22,130,35,13,62,319,44,7*75
$GAGSV,3,2,10,15,40,053,29,21,47,270,44,26,18,270,39,27,33,198,34,7*7B
$GAGSV,3,3,10,05,02,030,,07,00,000,,7*71
$GQGSV,1,1,02,02,30,178,44,03,79,073,34,1*66
$GBGSV,4,1,16,37,14,220,39,33,48,082,31,28,63,050,37,27,45,307,40,1*71
$GBGSV,4,2,16,14,30,053,32,13,41,243,38,10,68,260,32,08,51,247,34,1*7F
$GBGSV,4,3,16,07,70,220,32,04,35,130,33,03,43,205,36,02,27,234,32,1*72
$GBGSV,4,4,16,01,42,150,32,05,07,254,,32,00,000,,36,03,322,,1*76
$GNGSA,A,3,01,03,04,06,11,14,17,19,,,,,0.8,0.5,0.6,1*31
$GNGSA,A,3,71,72,76,77,85,87,,,,,,,0.8,0.5,0.6,2*39
$GNGSA,A,3,01,03,08,13,15,21,26,27,,,,,0.8,0.5,0.6,3*36
$GNGSA,A,3,01,02,03,04,07,08,10,13,14,27,28,33,0.8,0.5,0.6,4*3D
$GNGSA,A,3,02,03,,,,,,,,,,,0.8,0.5,0.6,5*3F
$GNVTG,,T,,M,0.0,N,0.0,K,A*3D
$GNDTM,P90,,0000.000025,S,00000.000001,W,0.982,W84*49
$GNRMC,041309.00,A,3726.873344,N,12639.211555,E,0.0,,210622,6.0,W,A,V*66
$GNGNS,041309.00,3726.873344,N,12639.211555,E,AAAAAN,36,0.5,5.6,18.0,,,V*2F
$GNGGA,041309.00,3726.873344,N,12639.211555,E,1,12,0.5,5.6,M,18.0,M,,*76
$PSMSG,magcal=PASS,bluesky=0*00
$GPGSV,3,1,12,01,15,063,33,03,42,049,33,04,18,102,34,06,45,278,45,1*6F
$GPGSV,3,2,12,12,03,324,23,14,37,189,42,17,75,030,37,19,59,326,46,1*67
$GPGSV,3,3,12,28,00,000,41,02,07,264,,09,14,136,,11,10,257,,1*64
$GLGSV,2,1,08,70,35,052,15,77,26,303,23,76,30,246,47,75,03,198,19,1*7C
$GLGSV,2,2,08,87,17,295,40,85,30,064,41,71,43,123,27,72,13,167,36,1*7C
$GAGSV,3,1,10,01,17,317,43,03,23,075,32,08,22,130,39,13,62,319,45,7*78
$GAGSV,3,2,10,15,40,053,32,21,47,270,45,26,18,270,37,27,33,198,35,7*7F
$GAGSV,3,3,10,05,02,030,,07,00,000,,7*71
$GQGSV,1,1,02,02,30,178,41,03,79,073,35,1*62
$GBGSV,4,1,16,37,14,220,36,33,48,082,29,28,63,050,40,27,45,307,40,1*77
$GBGSV,4,2,16,14,30,053,33,13,41,243,41,10,68,260,34,08,51,247,39,1*7B
$GBGSV,4,3,16,07,70,220,34,04,35,130,35,03,43,205,37,02,27,234,32,1*73
$GBGSV,4,4,16,01,42,150,36,05,07,254,,32,00,000,,36,03,322,,1*72
$GNGSA,A,3,01,03,04,06,11,14,17,19,,,,,0.8,0.5,0.6,1*31
$GNGSA,A,3,71,72,76,77,85,87,,,,,,,0.8,0.5,0.6,2*39
$GNGSA,A,3,01,03,08,13,15,21,26,27,,,,,0.8,0.5,0.6,3*36
$GNGSA,A,3,01,02,03,04,07,08,10,13,14,27,28,33,0.8,0.5,0.6,4*3D
$GNGSA,A,3,02,03,,,,,,,,,,,0.8,0.5,0.6,5*3F
$GNVTG,,T,,M,0.0,N,0.0,K,A*3D
$GNDTM,P90,,0000.000025,S,00000.000001,W,0.982,W84*49
$GNRMC,041310.00,A,3726.873344,N,12639.211555,E,0.0,,210622,6.0,W,A,V*6E
$GNGNS,041310.00,3726.873344,N,12639.211555,E,AAAAAN,36,0.5,5.6,18.0,,,V*27
$GNGGA,041310.00,3726.873344,N,12639.211555,E,1,12,0.5,5.6,M,18.0,M,,*7E
$PSMSG,magcal=PASS,bluesky=0*00
$GPGSV,3,1,12,01,15,063,34,04,18,102,39,06,45,278,43,09,14,136,25,1*64
$GPGSV,3,2,12,12,03,324,23,14,37,189,43,17,75,030,40,19,59,326,46,1*66
$GPGSV,3,3,12,28,00,000,42,02,07,264,,03,42,049,,11,10,257,,1*67
$GLGSV,2,1,08,70,35,052,22,77,26,303,20,76,30,246,47,75,03,198,19,1*7B
$GLGSV,2,2,08,87,17,295,40,85,30,064,42,71,43,123,38,72,13,167,36,1*71
$GAGSV,3,1,10,01,17,317,44,03,23,075,32,08,22,130,39,13,62,319,46,7*7C
$GAGSV,3,2,10,15,40,053,32,21,47,270,45,26,18,270,39,27,33,198,35,7*71
$GAGSV,3,3,10,05,02,030,,07,00,000,,7*71
$GQGSV,1,1,02,02,30,178,42,03,79,073,40,1*63
$GBGSV,4,1,16,37,14,220,38,33,48,082,33,28,63,050,40,27,45,307,41,1*73
$GBGSV,4,2,16,14,30,053,34,13,41,243,41,10,68,260,36,08,51,247,40,1*70
$GBGSV,4,3,16,07,70,220,35,04,35,130,36,03,43,205,36,02,27,234,32,1*70
$GBGSV,4,4,16,01,42,150,38,05,07,254,,32,00,000,,36,03,322,,1*7C
$GNGSA,A,3,01,03,04,06,09,11,14,17,19,,,,0.8,0.5,0.6,1*38
$GNGSA,A,3,71,72,76,77,85,87,,,,,,,0.8,0.5,0.6,2*39
$GNGSA,A,3,01,03,08,13,15,21,26,27,,,,,0.8,0.5,0.6,3*36
$GNGSA,A,3,01,02,03,04,07,08,10,13,14,27,28,33,0.8,0.5,0.6,4*3D
$GNGSA,A,3,02,03,,,,,,,,,,,0.8,0.5,0.6,5*3F
$GNVTG,,T,,M,0.0,N,0.0,K,A*3D
$GNDTM,P90,,0000.000025,S,00000.000001,W,0.982,W84*49
$GNRMC,041311.00,A,3726.873343,N,12639.211555,E,0.0,,210622,6.0,W,A,V*68
$GNGNS,041311.00,3726.873343,N,12639.211555,E,AAAAAN,37,0.5,5.6,18.0,,,V*20
$GNGGA,041311.00,3726.873343,N,12639.211555,E,1,12,0.5,5.6,M,18.0,M,,*78
$PSMSG,magcal=PASS,bluesky=0*00
$GPGSV,3,1,12,01,15,063,33,04,18,102,37,06,45,278,44,09,14,136,25,1*6A
$GPGSV,3,2,12,12,03,324,23,14,37,189,44,17,75,030,39,19,59,326,47,1*6E
$GPGSV,3,3,12,28,00,000,42,02,07,264,,03,42,049,,11,10,257,,1*67
$GLGSV,2,1,08,70,35,052,22,77,26,303,20,76,30,246,46,75,03,198,19,1*7A
$GLGSV,2,2,08,87,17,295,41,85,30,064,41,71,43,123,37,72,13,167,37,1*7D
$GAGSV,3,1,10,01,17,317,44,03,23,075,33,08,22,130,41,13,62,319,46,7*72
$GAGSV,3,2,10,15,40,053,33,21,47,270,45,26,18,270,38,27,33,198,36,7*72
$GAGSV,3,3,10,05,02,030,,07,00,000,,7*71
$GQGSV,1,1,02,02,30,178,42,03,79,073,41,1*62
$GBGSV,4,1,16,37,14,220,38,33,48,082,36,28,63,050,42,27,45,307,39,1*7B
$GBGSV,4,2,16,14,30,053,39,13,41,243,40,10,68,260,36,08,51,247,40,1*7C
$GBGSV,4,3,16,07,70,220,36,04,35,130,37,03,43,205,37,02,27,234,31,1*70
$GBGSV,4,4,16,01,42,150,39,05,07,254,,32,00,000,,36,03,322,,1*7D
$GNGSA,A,3,01,03,04,06,09,11,14,17,19,,,,0.8,0.5,0.6,1*38
$GNGSA,A,3,71,72,76,85,87,,,,,,,,0.8,0.5,0.6,2*39
$GNGSA,A,3,01,03,08,13,15,21,26,27,,,,,0.8,0.5,0.6,3*36
$GNGSA,A,3,01,02,03,04,07,08,10,13,14,27,28,33,0.8,0.5,0.6,4*3D
$GNGSA,A,3,02,03,,,,,,,,,,,0.8,0.5,0.6,5*3F
$GNVTG,,T,,M,0.0,N,0.0,K,A*3D
$GNDTM,P90,,0000.000025,S,00000.000001,W,0.982,W84*49
$GNRMC,041312.00,A,3726.873342,N,12639.211556,E,0.0,,210622,6.0,W,A,V*69
$GNGNS,041312.00,3726.873342,N,12639.211556,E,AAAAAN,36,0.5,5.6,18.0,,,V*20
$GNGGA,041312.00,3726.873342,N,12639.211556,E,1,12,0.5,5.6,M,18.0,M,,*79
$PSMSG,magcal=PASS,bluesky=0*00
$GPGSV,3,1,12,01,15,063,32,03,42,049,32,04,18,102,36,06,45,278,44,1*6C
$GPGSV,3,2,12,09,14,136,25,12,03,324,24,14,37,189,44,17,75,030,40,1*68
$GPGSV,3,3,12,19,59,326,47,28,00,000,43,02,07,264,,11,10,257,,1*6E
$GLGSV,2,1,08,70,35,052,22,77,26,303,20,76,30,246,46,75,03,198,19,1*7A
$GLGSV,2,2,08,87,17,295,41,85,30,064,41,71,43,123,35,72,13,167,39,1*71
$GAGSV,3,1,10,01,17,317,45,03,23,075,36,08,22,130,44,13,62,319,46,7*73
$GAGSV,3,2,10,15,40,053,34,21,47,270,45,26,18,270,38,27,33,198,36,7*75
$GAGSV,3,3,10,05,02,030,,07,00,000,,7*71
$GQGSV,1,1,02,02,30,178,43,03,79,073,41,1*63
$GBGSV,4,1,16,37,14,220,39,33,48,082,37,28,63,050,42,27,45,307,40,1*75
$GBGSV,4,2,16,14,30,053,39,13,41,243,41,10,68,260,37,08,51,247,40,1*7C
$GBGSV,4,3,16,07,70,220,37,04,35,130,37,03,43,205,36,02,27,234,33,1*72
$GBGSV,4,4,16,01,42,150,37,05,07,254,,32,00,000,,36,03,322,,1*73
$GNGSA,A,3,01,03,04,06,09,14,17,19,,,,,0.8,0.5,0.7,1*39
$GNGSA,A,3,71,72,76,85,87,,,,,,,,0.8,0.5,0.7,2*38
$GNGSA,A,3,01,03,08,13,15,21,26,27,,,,,0.8,0.5,0.7,3*37
$GNGSA,A,3,01,02,03,04,07,08,10,13,14,27,28,33,0.8,0.5,0.7,4*3C
$GNGSA,A,3,02,03,,,,,,,,,,,0.8,0.5,0.7,5*3E
$GNVTG,,T,,M,0.0,N,0.0,K,A*3D
$GNDTM,P90,,0000.000025,S,00000.000001,W,0.982,W84*49
$GNRMC,041313.00,A,3726.873341,N,12639.211558,E,0.0,,210622,6.0,W,A,V*65
$GNGNS,041313.00,3726.873341,N,12639.211558,E,AAAAAN,35,0.5,5.6,18.0,,,V*2F
$GNGGA,041313.00,3726.873341,N,12639.211558,E,1,12,0.5,5.6,M,18.0,M,,*75
$PSMSG,magcal=PASS,bluesky=0*00
$GPGSV,3,1,12,01,15,063,35,03,42,049,34,04,18,102,42,06,45,278,45,1*6F
$GPGSV,3,2,12,11,10,257,30,12,03,324,25,14,37,189,44,17,75,030,42,1*66
$GPGSV,3,3,12,19,59,326,48,28,00,000,43,02,07,264,,09,14,136,,1*68
$GLGSV,2,1,08,70,35,052,22,77,26,303,21,76,30,246,46,75,03,198,19,1*7B
$GLGSV,2,2,08,87,17,295,43,85,30,064,43,71,43,123,37,72,13,167,40,1*7D
$GAGSV,3,1,10,01,17,317,46,03,23,075,36,08,22,130,44,13,62,319,47,7*71
$GAGSV,3,2,10,15,40,053,34,21,47,270,46,26,18,270,38,27,33,198,37,7*77
$GAGSV,3,3,10,05,02,030,,07,00,000,,7*71
$GQGSV,1,1,02,02,30,178,45,03,79,073,41,1*65
$GBGSV,4,1,16,37,14,220,39,33,48,082,38,28,63,050,42,27,45,307,40,1*7A
$GBGSV,4,2,16,14,30,053,39,13,41,243,41,10,68,260,37,08,51,247,41,1*7D
$GBGSV,4,3,16,07,70,220,37,04,35,130,36,03,43,205,37,02,27,234,33,1*72
$GBGSV,4,4,16,01,42,150,37,05,07,254,,32,00,000,,36,03,322,,1*73
$GNGSA,A,3,01,03,04,06,09,11,14,17,19,,,,0.8,0.5,0.6,1*38
$GNGSA,A,3,71,72,76,85,87,,,,,,,,0.8,0.5,0.6,2*39
$GNGSA,A,3,01,03,08,13,15,21,26,27,,,,,0.8,0.5,0.6,3*36
$GNGSA,A,3,01,02,03,04,07,08,10,13,14,27,28,33,0.8,0.5,0.6,4*3D
$GNGSA,A,3,02,03,,,,,,,,,,,0.8,0.5,0.6,5*3F
$GNVTG,,T,,M,0.0,N,0.0,K,A*3D
$GNDTM,P90,,0000.000025,S,00000.000001,W,0.982,W84*49
$GNRMC,041314.00,A,3726.873338,N,12639.211557,E,0.0,,210622,6.0,W,A,V*63
$GNGNS,041314.00,3726.873338,N,12639.211557,E,AAAAAN,36,0.5,5.6,18.0,,,V*2A
$GNGGA,041314.00,3726.873338,N,12639.211557,E,1,12,0.5,5.6,M,18.0,M,,*73
$PSMSG,magcal=PASS,bluesky=0*00
$GPGSV,3,1,12,01,15,063,34,04,18,102,43,06,45,278,46,11,10,257,30,1*61
$GPGSV,3,2,12,12,03,324,26,14,37,189,44,17,75,030,41,19,59,326,48,1*6B
$GPGSV,3,3,12,28,00,000,43,02,07,264,,03,42,049,,09,14,136,,1*6F
$GLGSV,2,1,08,70,35,052,20,77,26,303,21,76,30,246,47,75,03,198,18,1*79
$GLGSV,2,2,08,87,17,295,42,85,30,064,43,71,43,123,33,72,13,167,38,1*77
$GAGSV,3,1,10,01,17,317,46,03,23,075,36,08,22,130,42,13,62,319,47,7*77
$GAGSV,3,2,10,15,40,053,35,21,47,270,46,26,18,270,39,27,33,198,36,7*76
$GAGSV,3,3,10,05,02,030,,07,00,000,,7*71
$GQGSV,1,1,02,02,30,178,44,03,79,073,42,1*67
$GBGSV,4,1,16,37,15,222,39,33,48,082,38,28,63,050,42,27,45,307,39,1*77
$GBGSV,4,2,16,14,30,053,38,13,41,243,42,10,68,260,38,08,51,247,41,1*70
$GBGSV,4,3,16,07,70,220,36,04,35,130,36,03,43,205,37,02,27,234,32,1*72
$GBGSV,4,4,16,01,42,150,39,05,07,254,,32,00,000,,36,03,322,,1*7D
$GNGSA,A,3,01,03,04,06,09,11,14,17,19,,,,0.8,0.5,0.6,1*38
$GNGSA,A,3,71,72,76,85,87,,,,,,,,0.8,0.5,0.6,2*39
$GNGSA,A,3,01,03,08,13,15,21,26,27,,,,,0.8,0.5,0.6,3*36
$GNGSA,A,3,01,02,03,04,07,08,10,13,14,27,28,33,0.8,0.5,0.6,4*3D
$GNGSA,A,3,02,03,,,,,,,,,,,0.8,0.5,0.6,5*3F
$GNVTG,,T,,M,0.0,N,0.0,K,A*3D
$GNDTM,P90,,0000.000025,S,00000.000001,W,0.982,W84*49
$GNRMC,041315.00,A,3726.873347,N,12639.211570,E,0.0,,210622,6.0,W,A,V*6F
$GNGNS,041315.00,3726.873347,N,12639.211570,E,AAAAAN,37,0.5,5.7,18.0,,,V*26
$GNGGA,041315.00,3726.873347,N,12639.211570,E,1,12,0.5,5.7,M,18.0,M,,*7E
$PSMSG,magcal=PASS,bluesky=0*00
$GPGSV,3,1,12,01,15,063,33,03,42,049,36,04,18,102,43,06,45,278,46,1*69
$GPGSV,3,2,12,12,03,324,26,14,37,189,45,17,75,030,42,19,59,326,48,1*69
$GPGSV,3,3,12,28,00,000,44,02,07,264,,09,14,136,,11,10,257,,1*61
$GLGSV,2,1,08,70,35,052,20,77,26,303,23,76,30,246,47,75,03,198,24,1*74
$GLGSV,2,2,08,87,17,295,42,85,30,064,43,71,43,123,36,72,13,167,39,1*73
$GAGSV,3,1,10,01,17,317,46,03,23,075,35,08,22,130,43,13,62,319,47,7*75
$GAGSV,3,2,10,15,40,053,34,21,47,270,46,26,18,270,38,27,33,198,37,7*77
$GAGSV,3,3,10,05,02,030,,07,00,000,,7*71
$GQGSV,1,1,02,02,30,178,42,03,79,073,42,1*61
$GBGSV,4,1,16,37,15,222,40,33,48,082,37,28,63,050,42,27,45,307,39,1*76
$GBGSV,4,2,16,14,30,053,39,13,41,243,42,10,68,260,38,08,51,247,41,1*71
$GBGSV,4,3,16,07,70,220,36,04,35,130,37,03,43,205,37,02,27,234,33,1*72
$GBGSV,4,4,16,01,42,150,41,05,07,254,,32,00,000,,36,03,322,,1*72
$GNGSA,A,3,01,03,04,06,09,11,14,17,19,,,,0.8,0.5,0.6,1*38
$GNGSA,A,3,71,72,76,85,87,,,,,,,,0.8,0.5,0.6,2*39
$GNGSA,A,3,01,03,08,13,15,21,26,27,,,,,0.8,0.5,0.6,3*36
$GNGSA,A,3,01,02,03,04,07,08,10,13,14,27,28,33,0.8,0.5,0.6,4*3D
$GNGSA,A,3,02,03,,,,,,,,,,,0.8,0.5,0.6,5*3F
$GNVTG,,T,,M,0.0,N,0.0,K,A*3D
$GNDTM,P90,,0000.000025,S,00000.000001,W,0.982,W84*49
$GNRMC,041316.00,A,3726.873351,N,12639.211575,E,0.0,,210622,6.0,W,A,V*6E
$GNGNS,041316.00,3726.873351,N,12639.211575,E,AAAAAN,37,0.5,5.7,18.0,,,V*27
$GNGGA,041316.00,3726.873351,N,12639.211575,E,1,12,0.5,5.7,M,18.0,M,,*7F
$PSMSG,magcal=PASS,bluesky=0*00
$GPGSV,3,1,12,01,15,063,33,03,42,049,34,04,18,102,42,06,45,278,46,1*6A
$GPGSV,3,2,12,12,03,324,26,14,37,189,44,17,75,030,41,19,59,326,48,1*6B
$GPGSV,3,3,12,28,00,000,44,02,07,264,,09,14,136,,11,10,257,,1*61
$GLGSV,2,1,08,70,35,052,20,77,26,303,23,76,30,246,47,75,03,198,24,1*74
$GLGSV,2,2,08,87,17,295,42,85,30,064,43,71,43,123,33,72,13,167,37,1*78
$GAGSV,3,1,10,01,17,317,46,03,23,075,35,08,22,130,44,13,62,319,47,7*72
$GAGSV,3,2,10,15,40,053,33,21,47,270,46,26,18,270,38,27,33,198,35,7*72
$GAGSV,3,3,10,05,02,030,,07,00,000,,7*71
$GQGSV,1,1,02,02,30,178,44,03,79,073,42,1*67
$GBGSV,4,1,16,37,15,222,39,33,48,082,38,28,63,050,42,27,45,307,40,1*79
$GBGSV,4,2,16,14,30,053,39,13,41,243,41,10,68,260,37,08,51,247,41,1*7D
$GBGSV,4,3,16,07,70,220,36,04,35,130,36,03,43,205,37,02,27,234,33,1*73
$GBGSV,4,4,16,01,42,150,40,05,07,254,,32,00,000,,36,03,322,,1*73
$GNGSA,A,3,01,03,04,06,09,11,14,17,19,,,,0.8,0.5,0.6,1*38
$GNGSA,A,3,71,72,76,85,87,,,,,,,,0.8,0.5,0.6,2*39
$GNGSA,A,3,01,03,08,13,15,21,26,27,,,,,0.8,0.5,0.6,3*36
$GNGSA,A,3,01,02,03,04,07,08,10,13,14,27,28,33,0.8,0.5,0.6,4*3D
$GNGSA,A,3,02,03,,,,,,,,,,,0.8,0.5,0.6,5*3F
$GNVTG,,T,,M,0.0,N,0.0,K,A*3D
$GNDTM,P90,,0000.000025,S,00000.000001,W,0.982,W84*49
$GNRMC,041317.00,A,3726.873353,N,12639.211579,E,0.0,,210622,6.0,W,A,V*61
$GNGNS,041317.00,3726.873353,N,12639.211579,E,AAAAAN,37,0.5,5.7,18.0,,,V*28
$GNGGA,041317.00,3726.873353,N,12639.211579,E,1,12,0.5,5.7,M,18.0,M,,*70
$PSMSG,magcal=PASS,bluesky=0*00
$GPGSV,3,1,12,01,15,063,32,03,42,049,35,04,18,102,43,06,45,278,46,1*6B
$GPGSV,3,2,12,12,03,324,27,14,37,189,45,17,75,030,41,19,59,326,48,1*6B
$GPGSV,3,3,12,28,00,000,43,02,07,264,,09,14,136,,11,10,257,,1*66
$GLGSV,2,1,08,70,35,052,20,77,26,303,23,76,30,246,47,75,03,198,24,1*74
$GLGSV,2,2,08,87,17,295,41,85,30,064,42,71,43,123,35,72,13,167,41,1*7D
$GAGSV,3,1,10,01,17,317,46,03,23,075,34,08,22,130,42,13,62,319,46,7*74
$GAGSV,3,2,10,15,40,053,32,21,47,270,46,26,18,270,37,27,33,198,36,7*7F
$GAGSV,3,3,10,05,02,030,,07,00,000,,7*71
$GQGSV,1,1,02,02,30,178,42,03,79,073,41,1*62
$GBGSV,4,1,16,37,15,222,39,33,48,082,38,28,63,050,42,27,45,307,39,1*77
$GBGSV,4,2,16,14,30,053,39,13,41,243,41,10,68,260,37,08,51,247,41,1*7D
$GBGSV,4,3,16,07,70,220,36,04,35,130,34,03,43,205,37,02,27,234,32,1*70
$GBGSV,4,4,16,01,42,150,39,05,07,254,,32,00,000,,36,03,322,,1*7D
$GNGSA,A,3,01,03,04,06,11,14,17,19,,,,,0.8,0.5,0.6,1*31
$GNGSA,A,3,71,72,76,85,87,,,,,,,,0.8,0.5,0.6,2*39
$GNGSA,A,3,01,03,08,13,15,21,26,27,,,,,0.8,0.5,0.6,3*36
$GNGSA,A,3,01,02,03,04,07,08,10,13,14,27,28,33,0.8,0.5,0.6,4*3D
$GNGSA,A,3,02,03,,,,,,,,,,,0.8,0.5,0.6,5*3F
$GNVTG,,T,,M,0.0,N,0.0,K,A*3D
$GNDTM,P90,,0000.000025,S,00000.000001,W,0.982,W84*49
$GNRMC,041318.00,A,3726.873354,N,12639.211582,E,0.0,,210622,6.0,W,A,V*6D
$GNGNS,041318.00,3726.873354,N,12639.211582,E,AAAAAN,36,0.5,5.7,18.0,,,V*25
$GNGGA,041318.00,3726.873354,N,12639.211582,E,1,12,0.5,5.7,M,18.0,M,,*7C
$PSMSG,magcal=PASS,bluesky=0*00
$GPGSV,3,1,12,01,15,063,32,03,42,049,34,04,18,102,43,06,45,278,45,1*69
$GPGSV,3,2,12,12,03,324,27,14,37,189,44,17,75,030,40,19,59,326,48,1*6B
$GPGSV,3,3,12,28,00,000,42,02,07,264,,09,14,136,,11,10,257,,1*67
$GLGSV,2,1,08,70,35,052,20,77,26,303,21,76,30,246,46,75,03,198,22,1*71
$GLGSV,2,2,08,87,17,295,40,85,30,064,42,71,43,123,38,72,13,167,39,1*7E
$GAGSV,3,1,10,01,17,317,45,03,23,075,34,08,22,130,40,13,62,319,46,7*75
$GAGSV,3,2,10,15,40,053,32,21,47,270,46,26,18,270,37,27,33,198,36,7*7F
$GAGSV,3,3,10,05,02,030,,07,00,000,,7*71
$GQGSV,1,1,02,02,30,178,42,03,79,073,40,1*63
$GBGSV,4,1,16,37,15,222,39,33,48,082,36,28,63,050,41,27,45,307,39,1*7A
$GBGSV,4,2,16,14,30,053,37,13,41,243,41,10,68,260,37,08,51,247,40,1*72
$GBGSV,4,3,16,07,70,220,35,04,35,130,34,03,43,205,37,02,27,234,33,1*72
$GBGSV,4,4,16,01,42,150,39,05,07,254,,32,00,000,,36,03,322,,1*7D
$GNGSA,A,3,01,03,04,06,11,14,17,19,,,,,0.8,0.5,0.6,1*31
$GNGSA,A,3,71,72,76,85,87,,,,,,,,0.8,0.5,0.6,2*39
$GNGSA,A,3,01,03,08,13,15,21,26,27,,,,,0.8,0.5,0.6,3*36
$GNGSA,A,3,01,02,03,04,07,08,10,13,14,27,28,33,0.8,0.5,0.6,4*3D
$GNGSA,A,3,02,03,,,,,,,,,,,0.8,0.5,0.6,5*3F
$GNVTG,,T,,M,0.0,N,0.0,K,A*3D
$GNDTM,P90,,0000.000025,S,00000.000001,W,0.982,W84*49
$GNRMC,041319.00,A,3726.873356,N,12639.211586,E,0.0,,210622,6.0,W,A,V*6A
$GNGNS,041319.00,3726.873356,N,12639.211586,E,AAAAAN,36,0.5,5.8,18.0,,,V*2D
$GNGGA,041319.00,3726.873356,N,12639.211586,E,1,12,0.5,5.8,M,18.0,M,,*74
$PSMSG,magcal=PASS,bluesky=0*00
$GPGSV,3,1,12,01,15,063,32,03,42,049,34,04,18,102,43,06,45,278,46,1*6A
$GPGSV,3,2,12,12,03,324,25,14,37,189,43,17,75,030,40,19,59,326,47,1*61
$GPGSV,3,3,12,28,00,000,42,02,07,264,,09,14,136,,11,10,257,,1*67
$GLGSV,2,1,08,70,35,052,20,77,26,303,21,76,30,246,46,75,03,198,22,1*71
$GLGSV,2,2,08,87,17,295,40,85,30,064,41,71,43,123,33,72,13,167,39,1*76
$GAGSV,3,1,10,01,17,317,45,03,23,075,35,08,22,130,40,13,62,319,46,7*74
$GAGSV,3,2,10,15,40,053,33,21,47,270,45,26,18,270,37,27,33,198,35,7*7E
$GAGSV,3,3,10,05,02,030,,07,00,000,,7*71
$GQGSV,1,1,02,02,30,178,42,03,79,073,40,1*63
$GBGSV,4,1,16,37,15,222,38,33,48,082,39,28,63,050,41,27,45,307,39,1*74
$GBGSV,4,2,16,14,30,053,38,13,41,243,41,10,68,260,37,08,51,247,40,1*7D
$GBGSV,4,3,16,07,70,220,36,04,35,130,35,03,43,205,37,02,27,234,33,1*70
$GBGSV,4,4,16,01,42,150,39,05,07,254,,32,00,000,,36,03,322,,1*7D
$GNGSA,A,3,01,03,04,06,11,14,17,19,,,,,0.8,0.5,0.6,1*31
$GNGSA,A,3,71,72,76,85,87,,,,,,,,0.8,0.5,0.6,2*39
$GNGSA,A,3,01,03,08,13,15,21,26,27,,,,,0.8,0.5,0.6,3*36
$GNGSA,A,3,01,02,03,04,07,08,10,13,14,27,28,33,0.8,0.5,0.6,4*3D
$GNGSA,A,3,02,03,,,,,,,,,,,0.8,0.5,0.6,5*3F
$GNVTG,,T,,M,0.0,N,0.0,K,A*3D
$GNDTM,P90,,0000.000025,S,00000.000001,W,0.982,W84*49
$GNRMC,041320.00,A,3726.873357,N,12639.211590,E,0.0,,210622,6.0,W,A,V*66
$GNGNS,041320.00,3726.873357,N,12639.211590,E,AAAAAN,36,0.5,5.8,18.0,,,V*21
$GNGGA,041320.00,3726.873357,N,12639.211590,E,1,12,0.5,5.8,M,18.0,M,,*78
$PSMSG,magcal=PASS,bluesky=0*00
$GPGSV,3,1,12,01,15,063,33,03,42,049,35,04,18,102,40,06,45,278,46,1*69
$GPGSV,3,2,12,12,03,324,26,14,37,189,44,17,75,030,39,19,59,326,48,1*64
$GPGSV,3,3,12,28,00,000,42,02,07,264,,09,14,136,,11,10,257,,1*67
$GLGSV,2,1,08,70,35,052,18,77,26,303,21,76,30,246,46,75,03,198,23,1*7B
$GLGSV,2,2,08,87,17,295,40,85,30,064,43,71,43,123,33,72,13,167,39,1*74
$GAGSV,3,1,10,01,17,317,45,03,23,075,35,08,22,130,41,13,62,319,46,7*75
$GAGSV,3,2,10,15,40,053,33,21,47,270,46,26,18,270,38,27,33,198,36,7*71
$GAGSV,3,3,10,05,02,030,,07,00,000,,7*71
$GQGSV,1,1,02,02,30,178,41,03,79,073,40,1*60
$GBGSV,4,1,16,37,15,222,38,33,48,082,39,28,63,050,41,27,45,307,38,1*75
$GBGSV,4,2,16,14,30,053,40,13,41,243,41,10,68,260,37,08,51,247,41,1*73
$GBGSV,4,3,16,07,70,220,36,04,35,130,35,03,43,205,36,02,27,234,33,1*71
$GBGSV,4,4,16,01,42,150,39,05,07,254,,32,00,000,,36,03,322,,1*7D
$GNGSA,A,3,01,03,04,06,14,17,19,,,,,,0.8,0.5,0.6,1*31
$GNGSA,A,3,71,72,76,85,87,,,,,,,,0.8,0.5,0.6,2*39
$GNGSA,A,3,01,03,08,13,15,21,26,27,,,,,0.8,0.5,0.6,3*36
$GNGSA,A,3,01,02,03,04,07,08,10,13,14,27,28,33,0.8,0.5,0.6,4*3D
$GNGSA,A,3,02,03,,,,,,,,,,,0.8,0.5,0.6,5*3F
$GNVTG,,T,,M,0.0,N,0.0,K,A*3D
$GNDTM,P90,,0000.000025,S,00000.000001,W,0.982,W84*49
$GNRMC,041321.00,A,3726.873359,N,12639.211593,E,0.0,,210622,6.0,W,A,V*6A
$GNGNS,041321.00,3726.873359,N,12639.211593,E,AAAAAN,35,0.5,5.8,18.0,,,V*2E
$GNGGA,041321.00,3726.873359,N,12639.211593,E,1,12,0.5,5.8,M,18.0,M,,*74
$PSMSG,magcal=PASS,bluesky=0*00
$GPGSV,3,1,12,01,15,063,33,03,42,049,35,04,18,102,40,06,45,278,46,1*69
$GPGSV,3,2,12,12,03,324,24,14,37,189,44,17,75,030,40,19,59,326,48,1*68
$GPGSV,3,3,12,28,00,000,42,02,07,264,,09,14,136,,11,10,257,,1*67
$GLGSV,2,1,08,70,35,052,23,77,26,303,21,76,30,246,47,75,03,198,23,1*72
$GLGSV,2,2,08,87,17,295,41,85,30,064,42,71,43,123,33,72,13,167,39,1*74
$GAGSV,3,1,10,01,17,317,45,03,23,075,35,08,22,130,42,13,62,319,46,7*76
$GAGSV,3,2,10,15,40,053,31,21,47,270,46,26,18,270,38,27,33,198,37,7*72
$GAGSV,3,3,10,05,02,030,,07,00,000,,7*71
$GQGSV,1,1,02,02,30,178,43,03,79,073,40,1*62
$GBGSV,4,1,16,37,15,222,39,33,48,082,39,28,63,050,40,27,45,307,39,1*74
$GBGSV,4,2,16,14,30,053,39,13,41,243,41,10,68,260,37,08,51,247,41,1*7D
$GBGSV,4,3,16,07,70,220,36,04,35,130,34,03,43,205,36,02,27,234,34,1*77
$GBGSV,4,4,16,01,42,150,40,05,07,254,,32,00,000,,36,03,322,,1*73
$GNGSA,A,3,01,03,04,06,14,17,19,,,,,,0.8,0.5,0.6,1*31
$GNGSA,A,3,71,72,76,85,87,,,,,,,,0.8,0.5,0.6,2*39
$GNGSA,A,3,01,03,08,13,15,21,26,27,,,,,0.8,0.5,0.6,3*36
$GNGSA,A,3,01,02,03,04,07,08,10,13,14,27,28,33,0.8,0.5,0.6,4*3D
$GNGSA,A,3,02,03,,,,,,,,,,,0.8,0.5,0.6,5*3F
$GNVTG,,T,,M,0.0,N,0.0,K,A*3D
$GNDTM,P90,,0000.000025,S,00000.000001,W,0.982,W84*49
$GNRMC,041322.00,A,3726.873363,N,12639.211598,E,0.0,,210622,6.0,W,A,V*6B
$GNGNS,041322.00,3726.873363,N,12639.211598,E,AAAAAN,35,0.5,5.8,18.0,,,V*2F
$GNGGA,041322.00,3726.873363,N,12639.211598,E,1,12,0.5,5.8,M,18.0,M,,*75
$PSMSG,magcal=PASS,bluesky=0*00
$GPGSV,3,1,12,01,15,063,33,03,42,049,32,04,18,102,40,06,45,278,46,1*6E
$GPGSV,3,2,12,12,03,324,24,14,37,189,45,17,75,030,40,19,59,326,48,1*69
$GPGSV,3,3,12,28,00,000,44,02,07,264,,09,14,136,,11,10,257,,1*61
$GLGSV,2,1,08,70,35,052,23,77,26,303,21,76,30,246,47,75,03,198,23,1*72
$GLGSV,2,2,08,87,17,295,42,85,30,064,41,71,43,123,37,72,13,167,42,1*7C
$GAGSV,3,1,10,01,17,317,46,03,23,075,36,08,22,130,40,13,62,319,47,7*75
$GAGSV,3,2,10,15,40,053,32,21,47,270,46,26,18,270,39,27,33,198,38,7*7F
$GAGSV,3,3,10,05,02,030,,07,00,000,,7*71
$GQGSV,1,1,02,02,30,178,43,03,79,073,40,1*62
$GBGSV,4,1,16,37,15,222,39,33,48,082,39,28,63,050,40,27,45,307,41,1*7B
$GBGSV,4,2,16,14,30,053,39,13,41,243,41,10,68,260,38,08,51,247,41,1*72
$GBGSV,4,3,16,07,70,220,37,04,35,130,34,03,43,205,37,02,27,234,34,1*77
$GBGSV,4,4,16,01,42,150,39,05,07,254,,32,00,000,,36,03,322,,1*7D
$GNGSA,A,3,01,03,04,06,14,17,19,,,,,,0.8,0.5,0.6,1*31
$GNGSA,A,3,71,72,76,85,87,,,,,,,,0.8,0.5,0.6,2*39
$GNGSA,A,3,01,03,08,13,15,21,26,27,,,,,0.8,0.5,0.6,3*36
$GNGSA,A,3,01,02,03,04,07,08,10,13,14,27,28,33,0.8,0.5,0.6,4*3D
$GNGSA,A,3,02,03,,,,,,,,,,,0.8,0.5,0.6,5*3F
$GNVTG,,T,,M,0.0,N,0.0,K,A*3D
$GNDTM,P90,,0000.000025,S,00000.000001,W,0.982,W84*49
$GNRMC,041323.00,A,3726.873364,N,12639.211600,E,0.0,,210622,6.0,W,A,V*6F
$GNGNS,041323.00,3726.873364,N,12639.211600,E,AAAAAN,35,0.5,5.8,18.0,,,V*2B
$GNGGA,041323.00,3726.873364,N,12639.211600,E,1,12,0.5,5.8,M,18.0,M,,*71
$PSMSG,magcal=PASS,bluesky=0*00
$GPGSV,3,1,12,01,15,063,33,03,42,049,33,04,18,102,42,06,45,278,46,1*6D
$GPGSV,3,2,12,12,03,324,24,14,37,189,44,17,75,030,40,19,59,326,48,1*68
$GPGSV,3,3,12,28,00,000,43,02,07,264,,09,14,136,,11,10,257,,1*66
$GLGSV,2,1,08,70,35,052,23,77,26,303,21,76,30,246,47,75,03,198,26,1*77
$GLGSV,2,2,08,87,17,295,41,85,30,064,42,71,43,123,39,72,13,167,42,1*72
$GAGSV,3,1,10,01,17,317,46,03,23,075,36,08,22,130,39,13,62,319,46,7*7A
$GAGSV,3,2,10,15,40,053,33,21,47,270,45,26,18,270,38,27,33,198,37,7*73
$GAGSV,3,3,10,05,02,030,,07,00,000,,7*71
$GQGSV,1,1,02,02,30,178,42,03,79,073,41,1*62
$GBGSV,4,1,16,37,15,222,39,33,48,082,39,28,63,050,40,27,45,307,39,1*74
$GBGSV,4,2,16,14,30,053,38,13,41,243,41,10,68,260,38,08,51,247,41,1*73
$GBGSV,4,3,16,07,70,220,36,04,35,130,33,03,43,205,37,02,27,234,34,1*71
$GBGSV,4,4,16,01,42,150,39,05,07,254,,32,00,000,,36,03,322,,1*7D
$GNGSA,A,3,01,03,04,06,14,17,19,,,,,,0.8,0.5,0.6,1*31
$GNGSA,A,3,71,72,76,85,87,,,,,,,,0.8,0.5,0.6,2*39
$GNGSA,A,3,01,03,08,13,15,21,26,27,,,,,0.8,0.5,0.6,3*36
$GNGSA,A,3,01,02,03,04,07,08,10,13,14,27,28,33,0.8,0.5,0.6,4*3D
$GNGSA,A,3,02,03,,,,,,,,,,,0.8,0.5,0.6,5*3F
$GNVTG,,T,,M,0.0,N,0.0,K,A*3D
$GNDTM,P90,,0000.000025,S,00000.000001,W,0.982,W84*49
$GNRMC,041324.00,A,3726.873364,N,12639.211601,E,0.0,,210622,6.0,W,A,V*69
$GNGNS,041324.00,3726.873364,N,12639.211601,E,AAAAAN,35,0.5,5.8,18.0,,,V*2D
$GNGGA,041324.00,3726.873364,N,12639.211601,E,1,12,0.5,5.8,M,18.0,M,,*77
$PSMSG,magcal=PASS,bluesky=0*00
$GPGSV,3,1,12,01,15,063,32,03,42,049,32,04,18,102,33,06,45,278,46,1*6B
$GPGSV,3,2,12,12,03,324,24,14,37,189,45,17,75,030,40,19,59,326,48,1*69
$GPGSV,3,3,12,28,00,000,43,02,07,264,,09,14,136,,11,10,257,,1*66
$GLGSV,2,1,08,70,35,052,23,77,26,303,21,76,30,246,46,75,03,198,26,1*76
$GLGSV,2,2,08,87,17,295,40,85,30,064,40,71,43,123,38,72,13,167,41,1*73
$GAGSV,3,1,10,01,17,317,45,03,23,075,36,08,22,130,42,13,62,319,46,7*75
$GAGSV,3,2,10,15,40,053,33,21,47,270,45,26,18,270,38,27,33,198,37,7*73
$GAGSV,3,3,10,05,02,030,,07,00,000,,7*71
$GQGSV,1,1,02,02,30,178,42,03,79,073,40,1*63
$GBGSV,4,1,16,37,15,222,39,33,48,082,40,28,63,050,40,27,45,307,40,1*74
$GBGSV,4,2,16,14,30,053,38,13,41,243,41,10,68,260,38,08,51,247,41,1*73
$GBGSV,4,3,16,07,70,220,36,04,35,130,35,03,43,205,37,02,27,234,33,1*70
$GBGSV,4,4,16,01,42,150,39,05,07,254,,32,00,000,,36,03,322,,1*7D
$GNGSA,A,3,01,03,04,06,14,17,19,,,,,,0.8,0.5,0.6,1*31
$GNGSA,A,3,71,72,76,85,87,,,,,,,,0.8,0.5,0.6,2*39
$GNGSA,A,3,01,03,08,13,15,21,26,27,,,,,0.8,0.5,0.6,3*36
$GNGSA,A,3,01,02,03,04,07,08,10,13,14,27,28,33,0.8,0.5,0.6,4*3D
$GNGSA,A,3,02,03,,,,,,,,,,,0.8,0.5,0.6,5*3F
$GNVTG,,T,,M,0.0,N,0.0,K,A*3D
$GNDTM,P90,,0000.000025,S,00000.000001,W,0.982,W84*49
$GNRMC,041325.00,A,3726.873364,N,12639.211604,E,0.0,,210622,6.0,W,A,V*6D
$GNGNS,041325.00,3726.873364,N,12639.211604,E,AAAAAN,35,0.5,5.8,18.0,,,V*29
$GNGGA,041325.00,3726.873364,N,12639.211604,E,1,12,0.5,5.8,M,18.0,M,,*73
$PSMSG,magcal=PASS,bluesky=0*00
$GPGSV,3,1,12,01,15,063,33,04,18,102,35,06,45,278,46,12,03,324,24,1*66
$GPGSV,3,2,12,14,37,189,45,17,75,030,40,19,59,326,48,28,00,000,43,1*67
$GPGSV,3,3,12,02,07,264,,03,42,049,,09,14,136,,11,10,257,,1*63
$GLGSV,2,1,08,70,35,052,23,77,26,303,21,76,30,246,47,75,03,198,28,1*79
$GLGSV,2,2,08,87,17,295,40,85,30,064,40,71,43,123,38,72,13,167,41,1*73
$GAGSV,3,1,10,01,17,317,45,03,23,075,36,08,22,130,42,13,62,319,46,7*75
$GAGSV,3,2,10,15,40,053,33,21,47,270,46,26,18,270,38,27,33,198,37,7*70
$GAGSV,3,3,10,05,02,030,,07,00,000,,7*71
$GQGSV,1,1,02,02,30,178,43,03,79,073,40,1*62
$GBGSV,4,1,16,37,15,222,39,33,48,082,39,28,63,050,40,27,45,307,40,1*7A
$GBGSV,4,2,16,14,30,053,39,13,41,243,41,10,68,260,38,08,51,247,41,1*72
$GBGSV,4,3,16,07,70,220,36,04,35,130,35,03,43,205,37,02,27,234,34,1*77
$GBGSV,4,4,16,01,42,150,40,05,07,254,,32,00,000,,36,03,322,,1*73
$GNGSA,A,3,01,03,04,06,14,17,19,,,,,,0.8,0.5,0.6,1*31
$GNGSA,A,3,71,72,76,85,87,,,,,,,,0.8,0.5,0.6,2*39
$GNGSA,A,3,01,03,08,13,15,21,26,27,,,,,0.8,0.5,0.6,3*36
$GNGSA,A,3,01,02,03,04,07,08,10,13,14,27,28,33,0.8,0.5,0.6,4*3D
$GNGSA,A,3,02,03,,,,,,,,,,,0.8,0.5,0.6,5*3F
$GNVTG,,T,,M,0.0,N,0.0,K,A*3D
$GNDTM,P90,,0000.000025,S,00000.000001,W,0.982,W84*49
$GNRMC,041326.00,A,3726.873365,N,12639.211608,E,0.0,,210622,6.0,W,A,V*63
$GNGNS,041326.00,3726.873365,N,12639.211608,E,AAAAAN,35,0.5,5.9,18.0,,,V*26
$GNGGA,041326.00,3726.873365,N,12639.211608,E,1,12,0.5,5.9,M,18.0,M,,*7C
$PSMSG,magcal=PASS,bluesky=0*00
$GPGSV,3,1,12,01,15,063,32,03,42,049,33,04,18,102,40,06,45,278,46,1*6E
$GPGSV,3,2,12,09,14,136,26,12,03,324,24,14,37,189,45,17,75,030,40,1*6A
$GPGSV,3,3,12,19,59,326,48,28,00,000,43,02,07,264,,11,10,257,,1*61
$GLGSV,2,1,08,70,35,052,19,77,26,303,23,76,30,246,47,75,03,198,28,1*72
$GLGSV,2,2,08,87,17,295,41,85,30,064,40,71,43,123,38,72,13,167,42,1*71
$GAGSV,3,1,10,01,17,317,45,03,23,075,37,08,22,130,42,13,62,319,46,7*74
$GAGSV,3,2,10,15,40,053,32,21,47,270,46,26,18,270,39,27,33,198,38,7*7F
$GAGSV,3,3,10,05,02,030,,07,00,000,,7*71
$GQGSV,1,1,02,02,30,178,43,03,79,073,41,1*63
$GBGSV,4,1,16,37,15,222,39,33,48,082,39,28,63,050,40,27,45,307,41,1*7B
$GBGSV,4,2,16,14,30,053,38,13,41,243,41,10,68,260,38,08,51,247,41,1*73
$GBGSV,4,3,16,07,70,220,37,04,35,130,35,03,43,205,37,02,27,234,33,1*71
$GBGSV,4,4,16,01,42,150,40,05,07,254,,32,00,000,,36,03,322,,1*73
$GNGSA,A,3,01,03,04,06,09,14,17,19,,,,,0.8,0.5,0.6,1*38
$GNGSA,A,3,71,72,76,85,87,,,,,,,,0.8,0.5,0.6,2*39
$GNGSA,A,3,01,03,08,13,15,21,26,27,,,,,0.8,0.5,0.6,3*36
$GNGSA,A,3,01,02,03,04,07,08,10,13,14,27,28,33,0.8,0.5,0.6,4*3D
$GNGSA,A,3,02,03,,,,,,,,,,,0.8,0.5,0.6,5*3F
$GNVTG,,T,,M,0.0,N,0.0,K,A*3D
$GNDTM,P90,,0000.000025,S,00000.000001,W,0.982,W84*49
$GNRMC,041327.00,A,3726.873366,N,12639.211612,E,0.0,,210622,6.0,W,A,V*6A
$GNGNS,041327.00,3726.873366,N,12639.211612,E,AAAAAN,36,0.5,5.9,18.0,,,V*2C
$GNGGA,041327.00,3726.873366,N,12639.211612,E,1,12,0.5,5.9,M,18.0,M,,*75
$PSMSG,magcal=PASS,bluesky=0*00
$GPGSV,3,1,12,01,15,063,30,04,18,102,40,06,45,278,46,12,03,324,24,1*67
$GPGSV,3,2,12,14,37,189,44,17,75,030,39,19,59,326,48,28,00,000,43,1*68
$GPGSV,3,3,12,02,07,264,,03,42,049,,09,14,136,,11,10,257,,1*63
$GLGSV,2,1,08,70,35,052,19,77,26,303,23,76,30,246,47,75,03,198,26,1*7C
$GLGSV,2,2,08,87,17,295,40,85,30,064,38,71,43,123,38,72,13,167,42,1*7F
$GAGSV,3,1,10,01,17,317,45,03,23,075,35,08,22,130,40,13,62,319,46,7*74
$GAGSV,3,2,10,15,40,053,33,21,47,270,46,26,18,270,37,27,33,198,38,7*70
$GAGSV,3,3,10,05,02,030,,07,00,000,,7*71
$GQGSV,1,1,02,02,30,178,43,03,79,073,40,1*62
$GBGSV,4,1,16,37,15,222,39,33,48,082,38,28,63,050,40,27,45,307,40,1*7B
$GBGSV,4,2,16,14,30,053,37,13,41,243,41,10,68,260,37,08,51,247,41,1*73
$GBGSV,4,3,16,07,70,220,36,04,35,130,34,03,43,205,37,02,27,234,33,1*71
$GBGSV,4,4,16,01,42,150,40,05,07,254,,32,00,000,,36,03,322,,1*73
$GNGSA,A,3,01,03,04,06,09,14,17,19,,,,,0.8,0.5,0.6,1*38
$GNGSA,A,3,71,72,76,85,87,,,,,,,,0.8,0.5,0.6,2*39
$GNGSA,A,3,01,03,08,13,15,21,26,27,,,,,0.8,0.5,0.6,3*36
$GNGSA,A,3,01,02,03,04,07,08,10,13,14,27,28,33,0.8,0.5,0.6,4*3D
$GNGSA,A,3,02,03,,,,,,,,,,,0.8,0.5,0.6,5*3F
$GNVTG,,T,,M,0.0,N,0.0,K,A*3D
$GNDTM,P90,,0000.000025,S,00000.000001,W,0.982,W84*49
$GNRMC,041328.00,A,3726.873368,N,12639.211616,E,0.0,,210622,6.0,W,A,V*6F
$GNGNS,041328.00,3726.873368,N,12639.211616,E,AAAAAN,36,0.5,5.9,18.0,,,V*29
$GNGGA,041328.00,3726.873368,N,12639.211616,E,1,12,0.5,5.9,M,18.0,M,,*70
$PSMSG,magcal=PASS,bluesky=0*00
$GPGSV,3,1,12,01,15,063,31,04,18,102,43,06,45,278,46,12,03,324,24,1*65
$GPGSV,3,2,12,14,37,189,44,17,75,030,38,19,59,326,48,28,00,000,43,1*69
$GPGSV,3,3,12,02,07,264,,03,42,049,,09,14,136,,11,10,257,,1*63
$GLGSV,2,1,08,70,35,052,19,77,26,303,23,76,30,246,47,75,03,198,23,1*79
$GLGSV,2,2,08,87,17,295,39,85,30,064,41,71,43,123,38,72,13,167,42,1*7F
$GAGSV,3,1,10,01,17,317,45,03,23,075,35,08,22,130,40,13,62,319,46,7*74
$GAGSV,3,2,10,15,40,053,32,21,47,270,46,26,18,270,38,27,33,198,37,7*71
$GAGSV,3,3,10,05,02,030,,07,00,000,,7*71
$GQGSV,1,1,02,02,30,178,43,03,79,073,40,1*62
$GBGSV,4,1,16,37,15,222,37,33,48,082,39,28,63,050,41,27,45,307,40,1*75
$GBGSV,4,2,16,14,30,053,38,13,41,243,41,10,68,260,37,08,51,247,41,1*7C
$GBGSV,4,3,16,07,70,220,36,04,35,130,35,03,43,205,37,02,27,234,32,1*71
$GBGSV,4,4,16,01,42,150,40,05,07,254,,32,00,000,,36,03,322,,1*73
$GNGSA,A,3,01,03,04,06,09,14,17,19,,,,,0.8,0.5,0.6,1*38
$GNGSA,A,3,71,72,76,85,87,,,,,,,,0.8,0.5,0.6,2*39
$GNGSA,A,3,01,03,08,13,15,21,26,27,,,,,0.8,0.5,0.6,3*36
$GNGSA,A,3,01,02,03,04,07,08,10,13,14,27,28,33,0.8,0.5,0.6,4*3D
$GNGSA,A,3,02,03,,,,,,,,,,,0.8,0.5,0.6,5*3F
$GNVTG,,T,,M,0.0,N,0.0,K,A*3D
$GNDTM,P90,,0000.000025,S,00000.000001,W,0.982,W84*49
$GNRMC,041329.00,A,3726.873370,N,12639.211618,E,0.0,,210622,6.0,W,A,V*69
$GNGNS,041329.00,3726.873370,N,12639.211618,E,AAAAAN,36,0.5,5.9,18.0,,,V*2F
$GNGGA,041329.00,3726.873370,N,12639.211618,E,1,12,0.5,5.9,M,18.0,M,,*76
$PSMSG,magcal=PASS,bluesky=0*00
$GPGSV,3,1,12,01,15,063,31,04,18,102,43,06,45,278,46,12,03,324,24,1*65
$GPGSV,3,2,12,14,37,189,44,17,75,030,39,19,59,326,48,28,00,000,43,1*68
$GPGSV,3,3,12,02,07,264,,03,42,049,,09,14,136,,11,10,257,,1*63
$GLGSV,2,1,08,70,35,052,19,77,26,303,22,76,30,246,47,75,03,198,23,1*78
$GLGSV,2,2,08,87,17,295,40,85,30,064,41,71,43,123,38,72,13,167,42,1*71
$GAGSV,3,1,10,01,17,317,45,03,23,075,34,08,22,130,40,13,62,319,46,7*75
$GAGSV,3,2,10,15,40,053,33,21,47,270,46,26,18,270,38,27,33,198,37,7*70
$GAGSV,3,3,10,05,02,030,,07,00,000,,7*71
$GQGSV,1,1,02,02,30,178,43,03,79,073,40,1*62
$GBGSV,4,1,16,37,15,222,38,33,48,082,39,28,63,050,41,27,45,307,39,1*74
$GBGSV,4,2,16,14,30,053,38,13,41,243,41,10,68,260,36,08,51,247,41,1*7D
$GBGSV,4,3,16,07,70,220,36,04,35,130,35,03,43,205,37,02,27,234,33,1*70
$GBGSV,4,4,16,01,42,150,41,05,07,254,,32,00,000,,36,03,322,,1*72
$GNGSA,A,3,01,03,04,06,09,14,17,19,,,,,0.8,0.5,0.6,1*38
$GNGSA,A,3,71,72,76,85,87,,,,,,,,0.8,0.5,0.6,2*39
$GNGSA,A,3,01,03,08,13,15,21,26,27,,,,,0.8,0.5,0.6,3*36
$GNGSA,A,3,01,02,03,04,07,08,10,13,14,27,28,33,0.8,0.5,0.6,4*3D
$GNGSA,A,3,02,03,,,,,,,,,,,0.8,0.5,0.6,5*3F
$GNVTG,,T,,M,0.0,N,0.0,K,A*3D
$GNDTM,P90,,0000.000025,S,00000.000001,W,0.982,W84*49
$GNRMC,041330.00,A,3726.873371,N,12639.211619,E,0.0,,210622,6.0,W,A,V*61
$GNGNS,041330.00,3726.873371,N,12639.211619,E,AAAAAN,36,0.5,5.9,18.0,,,V*27
$GNGGA,041330.00,3726.873371,N,12639.211619,E,1,12,0.5,5.9,M,18.0,M,,*7E
$PSMSG,magcal=PASS,bluesky=0*00
$GPGSV,3,1,12,01,15,063,33,04,18,102,42,06,45,278,47,12,03,324,24,1*67
$GPGSV,3,2,12,14,37,189,45,17,75,030,40,19,59,326,49,28,00,000,44,1*61
$GPGSV,3,3,12,02,07,264,,03,42,050,,09,14,136,,11,10,257,,1*6B
$GLGSV,2,1,08,70,35,052,19,77,26,303,22,76,30,246,47,75,03,198,24,1*7F
$GLGSV,2,2,08,87,17,295,40,85,30,064,41,71,43,123,40,72,13,167,42,1*7E
$GAGSV,3,1,10,01,17,317,45,03,23,075,33,08,22,130,41,13,62,319,47,7*72
$GAGSV,3,2,10,15,40,053,33,21,47,270,46,26,18,270,38,27,33,198,38,7*7F
$GAGSV,3,3,10,05,02,030,,07,00,000,,7*71
$GQGSV,1,1,02,02,30,178,43,03,79,073,41,1*63
$GBGSV,4,1,16,37,15,222,38,33,48,082,37,28,63,050,41,27,45,307,39,1*7A
$GBGSV,4,2,16,14,30,053,38,13,41,243,41,10,68,260,36,08,51,247,41,1*7D
$GBGSV,4,3,16,07,70,220,37,04,35,130,35,03,43,205,37,02,27,234,33,1*71
$GBGSV,4,4,16,01,42,150,40,05,07,254,,32,00,000,,36,03,322,,1*73
$GNGSA,A,3,01,03,04,06,09,14,17,19,,,,,0.8,0.5,0.6,1*38
$GNGSA,A,3,71,72,76,85,87,,,,,,,,0.8,0.5,0.6,2*39
$GNGSA,A,3,01,03,08,13,15,21,26,27,,,,,0.8,0.5,0.6,3*36
$GNGSA,A,3,01,02,03,04,07,08,10,13,14,27,28,33,0.8,0.5,0.6,4*3D
$GNGSA,A,3,02,03,,,,,,,,,,,0.8,0.5,0.6,5*3F
$GNVTG,,T,,M,0.0,N,0.0,K,A*3D
$GNDTM,P90,,0000.000025,S,00000.000001,W,0.982,W84*49
$GNRMC,041331.00,A,3726.873371,N,12639.211619,E,0.0,,210622,6.0,W,A,V*60
$GNGNS,041331.00,3726.873371,N,12639.211619,E,AAAAAN,36,0.5,5.9,18.0,,,V*26
$GNGGA,041331.00,3726.873371,N,12639.211619,E,1,12,0.5,5.9,M,18.0,M,,*7F
$PSMSG,magcal=PASS,bluesky=0*00
$GPGSV,3,1,12,01,15,063,34,04,18,102,42,06,45,278,46,12,03,324,24,1*61
$GPGSV,3,2,12,14,37,189,44,17,75,030,38,19,59,326,48,28,00,000,43,1*69
$GPGSV,3,3,12,02,07,264,,03,42,050,,09,14,136,,11,10,257,,1*6B
$GLGSV,2,1,08,70,35,052,19,77,26,303,23,76,30,246,47,75,03,198,26,1*7C
$GLGSV,2,2,08,87,17,295,38,85,30,064,41,71,43,123,40,72,13,167,40,1*73
$GAGSV,3,1,10,01,17,317,44,03,23,075,32,08,22,130,41,13,62,319,46,7*73
$GAGSV,3,2,10,15,40,053,35,21,47,270,46,26,18,270,37,27,33,198,38,7*76
$GAGSV,3,3,10,05,02,030,,07,00,000,,7*71
$GQGSV,1,1,02,02,30,178,43,03,79,073,41,1*63
$GBGSV,4,1,16,37,15,222,37,33,48,082,37,28,63,050,41,27,45,307,40,1*7B
$GBGSV,4,2,16,14,30,053,37,13,41,243,41,10,68,260,36,08,51,247,41,1*72
$GBGSV,4,3,16,07,70,220,36,04,35,130,35,03,43,205,37,02,27,234,33,1*70
$GBGSV,4,4,16,01,42,150,41,05,07,254,,32,00,000,,36,03,322,,1*72
$GNGSA,A,3,01,03,04,06,09,14,17,19,,,,,0.8,0.5,0.6,1*38
$GNGSA,A,3,71,72,76,85,87,,,,,,,,0.8,0.5,0.6,2*39
$GNGSA,A,3,01,03,08,13,15,21,26,27,,,,,0.8,0.5,0.6,3*36
$GNGSA,A,3,01,02,03,04,07,08,10,13,14,27,28,33,0.8,0.5,0.6,4*3D
$GNGSA,A,3,02,03,,,,,,,,,,,0.8,0.5,0.6,5*3F
$GNVTG,,T,,M,0.0,N,0.0,K,A*3D
$GNDTM,P90,,0000.000025,S,00000.000001,W,0.982,W84*49
$GNRMC,041332.00,A,3726.873371,N,12639.211619,E,0.0,,210622,6.0,W,A,V*63
$GNGNS,041332.00,3726.873371,N,12639.211619,E,AAAAAN,36,0.5,5.9,18.0,,,V*25
$GNGGA,041332.00,3726.873371,N,12639.211619,E,1,12,0.5,5.9,M,18.0,M,,*7C
$PSMSG,magcal=PASS,bluesky=0*00
$GPGSV,3,1,12,01,15,063,34,04,18,102,42,06,45,278,47,12,03,324,24,1*60
$GPGSV,3,2,12,14,37,189,44,17,75,030,38,19,59,326,48,28,00,000,43,1*69
$GPGSV,3,3,12,02,07,264,,03,42,050,,09,14,136,,11,10,257,,1*6B
$GLGSV,2,1,08,70,35,052,19,77,26,303,23,76,30,246,47,75,03,198,28,1*72
$GLGSV,2,2,08,87,17,295,39,85,30,064,40,71,43,123,39,72,13,167,40,1*7D
$GAGSV,3,1,10,01,17,317,44,03,23,075,34,08,22,130,41,13,62,319,46,7*75
$GAGSV,3,2,10,15,40,053,33,21,47,270,46,26,18,270,37,27,33,198,37,7*7F
$GAGSV,3,3,10,05,02,030,,07,00,000,,7*71
$GQGSV,1,1,02,02,30,178,44,03,79,073,41,1*64
$GBGSV,4,1,16,37,15,222,38,33,48,082,35,28,63,050,41,27,45,307,40,1*76
$GBGSV,4,2,16,14,30,053,38,13,41,243,41,10,68,260,36,08,51,247,41,1*7D
$GBGSV,4,3,16,07,70,220,36,04,35,130,34,03,43,205,37,02,27,234,34,1*76
$GBGSV,4,4,16,01,42,150,40,05,07,254,,32,00,000,,36,03,322,,1*73
$GNGSA,A,3,01,04,06,14,17,19,,,,,,,0.8,0.5,0.6,1*32
$GNGSA,A,3,71,72,76,85,87,,,,,,,,0.8,0.5,0.6,2*39
$GNGSA,A,3,01,03,08,13,15,21,26,27,,,,,0.8,0.5,0.6,3*36
$GNGSA,A,3,01,02,03,04,07,08,10,13,14,27,28,33,0.8,0.5,0.6,4*3D
$GNGSA,A,3,02,03,,,,,,,,,,,0.8,0.5,0.6,5*3F
$GNVTG,,T,,M,0.0,N,0.0,K,A*3D
$GNDTM,P90,,0000.000025,S,00000.000001,W,0.982,W84*49
$GNRMC,041333.00,A,3726.873371,N,12639.211619,E,0.0,,210622,6.0,W,A,V*62
$GNGNS,041333.00,3726.873371,N,12639.211619,E,AAAAAN,34,0.5,5.9,18.0,,,V*26
$GNGGA,041333.00,3726.873371,N,12639.211619,E,1,12,0.5,5.9,M,18.0,M,,*7D
$PSMSG,magcal=PASS,bluesky=0*00
$GPGSV,3,1,12,01,15,063,36,03,42,050,33,04,18,102,41,06,45,278,46,1*63
$GPGSV,3,2,12,12,03,324,24,14,37,189,44,17,75,030,38,19,59,326,48,1*67
$GPGSV,3,3,12,28,00,000,43,02,07,264,,09,14,136,,11,10,257,,1*66
$GLGSV,2,1,08,70,35,052,19,77,26,303,23,76,30,246,47,75,03,198,28,1*72
$GLGSV,2,2,08,87,17,295,39,85,30,064,41,71,43,123,35,72,13,167,41,1*71
$GAGSV,3,1,10,01,17,317,45,03,23,075,35,08,22,130,41,13,62,319,46,7*75
$GAGSV,3,2,10,15,40,053,33,21,47,270,45,26,18,270,37,27,33,198,37,7*7C
$GAGSV,3,3,10,05,02,030,,07,00,000,,7*71
$GQGSV,1,1,02,02,30,178,44,03,79,073,41,1*64
$GBGSV,4,1,16,37,15,222,39,33,48,082,36,28,63,050,40,27,45,307,40,1*75
$GBGSV,4,2,16,14,30,053,38,13,41,243,41,10,68,260,37,08,51,247,41,1*7C
$GBGSV,4,3,16,07,70,220,37,04,35,130,35,03,43,205,37,02,27,234,34,1*76
$GBGSV,4,4,16,01,42,150,40,05,07,254,,32,00,000,,36,03,322,,1*73
$GNGSA,A,3,01,03,04,06,14,17,19,,,,,,0.8,0.5,0.6,1*31
$GNGSA,A,3,71,72,76,85,87,,,,,,,,0.8,0.5,0.6,2*39
$GNGSA,A,3,01,03,08,13,15,21,26,27,,,,,0.8,0.5,0.6,3*36
$GNGSA,A,3,01,02,03,04,07,08,10,13,14,27,28,33,0.8,0.5,0.6,4*3D
$GNGSA,A,3,02,03,,,,,,,,,,,0.8,0.5,0.6,5*3F
$GNVTG,,T,,M,0.0,N,0.0,K,A*3D
$GNDTM,P90,,0000.000025,S,00000.000001,W,0.982,W84*49
$GNRMC,041334.00,A,3726.873369,N,12639.211619,E,0.0,,210622,6.0,W,A,V*6C
$GNGNS,041334.00,3726.873369,N,12639.211619,E,AAAAAN,35,0.5,5.9,18.0,,,V*29
$GNGGA,041334.00,3726.873369,N,12639.211619,E,1,12,0.5,5.9,M,18.0,M,,*73
$PSMSG,magcal=PASS,bluesky=0*00
$GPGSV,3,1,12,01,15,063,37,03,42,050,34,04,18,102,41,06,45,278,47,1*64
$GPGSV,3,2,12,12,03,324,24,14,37,189,45,17,75,030,38,19,59,326,49,1*67
$GPGSV,3,3,12,28,00,000,44,02,07,264,,09,14,136,,11,10,257,,1*61
$GLGSV,2,1,08,70,35,052,19,77,26,303,20,76,30,246,47,75,03,198,27,1*7E
$GLGSV,2,2,08,87,17,295,40,85,30,064,41,71,43,123,33,72,13,167,42,1*7A
$GAGSV,3,1,10,01,17,317,45,03,23,075,36,08,22,130,43,13,62,319,46,7*74
$GAGSV,3,2,10,15,40,053,33,21,47,270,46,26,18,270,38,27,33,198,37,7*70
$GAGSV,3,3,10,05,02,030,,07,00,000,,7*71
$GQGSV,1,1,02,02,30,178,44,03,79,073,42,1*67
$GBGSV,4,1,16,37,15,222,39,33,48,082,37,28,63,050,41,27,45,307,41,1*74
$GBGSV,4,2,16,14,30,053,38,13,41,243,41,10,68,260,37,08,51,247,42,1*7F
$GBGSV,4,3,16,07,70,220,36,04,35,130,36,03,43,205,37,02,27,234,33,1*73
$GBGSV,4,4,16,01,42,150,38,05,07,254,,32,00,000,,36,03,322,,1*7C
$GNGSA,A,3,01,03,04,06,14,17,19,,,,,,0.8,0.5,0.6,1*31
$GNGSA,A,3,71,72,76,85,87,,,,,,,,0.8,0.5,0.6,2*39
$GNGSA,A,3,01,03,08,13,15,21,26,27,,,,,0.8,0.5,0.6,3*36
$GNGSA,A,3,01,02,03,04,07,08,10,13,14,27,28,33,0.8,0.5,0.6,4*3D
$GNGSA,A,3,02,03,,,,,,,,,,,0.8,0.5,0.6,5*3F
$GNVTG,,T,,M,0.0,N,0.0,K,A*3D
$GNDTM,P90,,0000.000025,S,00000.000001,W,0.982,W84*49
$GNRMC,041335.00,A,3726.873366,N,12639.211619,E,0.0,,210622,6.0,W,A,V*62
$GNGNS,041335.00,3726.873366,N,12639.211619,E,AAAAAN,35,0.5,5.9,18.0,,,V*27
$GNGGA,041335.00,3726.873366,N,12639.211619,E,1,12,0.5,5.9,M,18.0,M,,*7D
$PSMSG,magcal=PASS,bluesky=0*00
$GPGSV,3,1,12,01,15,063,37,03,42,050,33,04,18,102,40,06,45,278,47,1*62
$GPGSV,3,2,12,12,03,324,24,14,37,189,44,17,75,030,37,19,59,326,48,1*68
$GPGSV,3,3,12,28,00,000,44,02,07,264,,09,14,136,,11,10,257,,1*61
$GLGSV,2,1,08,70,35,052,19,77,26,303,20,76,30,246,47,75,03,198,28,1*71
$GLGSV,2,2,08,87,17,295,40,85,30,064,42,71,43,123,34,72,13,167,39,1*72
$GAGSV,3,1,10,01,17,317,45,03,23,075,36,08,22,130,43,13,62,319,47,7*75
$GAGSV,3,2,10,15,40,053,32,21,47,270,46,26,18,270,38,27,33,198,37,7*71
$GAGSV,3,3,10,05,02,030,,07,00,000,,7*71
$GQGSV,1,1,02,02,30,178,43,03,79,073,41,1*63
$GBGSV,4,1,16,37,15,222,39,33,48,082,37,28,63,050,41,27,45,307,41,1*74
$GBGSV,4,2,16,14,30,053,38,13,41,243,41,10,68,260,36,08,51,247,41,1*7D
$GBGSV,4,3,16,07,70,220,36,04,35,130,36,03,43,205,37,02,27,234,33,1*73
$GBGSV,4,4,16,01,42,150,39,05,07,254,,32,00,000,,36,03,322,,1*7D
$GNGSA,A,3,01,03,04,06,14,17,19,,,,,,0.8,0.5,0.6,1*31
$GNGSA,A,3,71,72,76,85,87,,,,,,,,0.8,0.5,0.6,2*39
$GNGSA,A,3,01,03,08,13,15,21,26,27,,,,,0.8,0.5,0.6,3*36
$GNGSA,A,3,01,02,03,04,07,08,10,13,14,27,28,33,0.8,0.5,0.6,4*3D
$GNGSA,A,3,02,03,,,,,,,,,,,0.8,0.5,0.6,5*3F
$GNVTG,,T,,M,0.0,N,0.0,K,A*3D
$GNDTM,P90,,0000.000025,S,00000.000001,W,0.982,W84*49
$GNRMC,041336.00,A,3726.873365,N,12639.211621,E,0.0,,210622,6.0,W,A,V*69
$GNGNS,041336.00,3726.873365,N,12639.211621,E,AAAAAN,35,0.5,5.9,18.0,,,V*2C
$GNGGA,041336.00,3726.873365,N,12639.211621,E,1,12,0.5,5.9,M,18.0,M,,*76
$PSMSG,magcal=PASS,bluesky=0*00
$GPGSV,3,1,12,01,15,063,37,03,42,050,34,04,18,102,41,06,45,278,47,1*64
$GPGSV,3,2,12,12,03,324,24,14,37,189,44,17,75,030,37,19,59,326,48,1*68
$GPGSV,3,3,12,28,00,000,44,02,07,264,,09,14,136,,11,10,257,,1*61
$GLGSV,2,1,08,70,35,052,19,77,26,303,20,76,30,246,47,75,03,198,27,1*7E
$GLGSV,2,2,08,87,17,295,40,85,30,064,42,71,43,123,33,72,13,167,39,1*75
$GAGSV,3,1,10,01,17,317,45,03,23,075,36,08,22,130,43,13,62,319,46,7*74
$GAGSV,3,2,10,15,40,053,32,21,47,270,46,26,18,270,38,27,33,198,37,7*71
$GAGSV,3,3,10,05,02,030,,07,00,000,,7*71
$GQGSV,1,1,02,02,30,178,42,03,79,073,41,1*62
$GBGSV,4,1,16,37,15,222,38,33,48,082,37,28,63,050,41,27,45,307,40,1*74
$GBGSV,4,2,16,14,30,053,38,13,41,243,41,10,68,260,36,08,51,247,41,1*7D
$GBGSV,4,3,16,07,70,220,36,04,35,130,35,03,43,205,37,02,27,234,33,1*70
$GBGSV,4,4,16,01,42,150,39,05,07,254,,32,00,000,,36,03,322,,1*7D
$GNGSA,A,3,01,03,04,06,14,17,19,,,,,,0.8,0.5,0.6,1*31
$GNGSA,A,3,71,72,76,85,87,,,,,,,,0.8,0.5,0.6,2*39
$GNGSA,A,3,01,03,08,13,15,21,26,27,,,,,0.8,0.5,0.6,3*36
$GNGSA,A,3,01,02,03,04,07,08,10,13,14,27,28,33,0.8,0.5,0.6,4*3D
$GNGSA,A,3,02,03,,,,,,,,,,,0.8,0.5,0.6,5*3F
$GNVTG,,T,,M,0.0,N,0.0,K,A*3D
$GNDTM,P90,,0000.000025,S,00000.000001,W,0.982,W84*49
$GNRMC,041337.00,A,3726.873363,N,12639.211621,E,0.0,,210622,6.0,W,A,V*6E
$GNGNS,041337.00,3726.873363,N,12639.211621,E,AAAAAN,35,0.5,5.9,18.0,,,V*2B
$GNGGA,041337.00,3726.873363,N,12639.211621,E,1,12,0.5,5.9,M,18.0,M,,*71
$PSMSG,magcal=PASS,bluesky=0*00
$GPGSV,3,1,12,01,15,063,36,03,42,050,34,04,18,102,40,06,45,278,47,1*64
$GPGSV,3,2,12,12,03,324,24,14,37,189,44,17,75,030,38,19,59,326,48,1*67
$GPGSV,3,3,12,28,00,000,44,02,07,264,,09,14,136,,11,10,257,,1*61
$GLGSV,2,1,08,70,35,052,19,77,26,303,20,76,30,246,46,75,03,198,27,1*7F
$GLGSV,2,2,08,87,17,295,40,85,30,064,42,71,43,123,35,72,13,167,41,1*7C
$GAGSV,3,1,10,01,17,317,45,03,23,075,36,08,22,130,43,13,62,319,46,7*74
$GAGSV,3,2,10,15,40,053,31,21,47,270,46,26,18,270,38,27,33,198,38,7*7D
$GAGSV,3,3,10,05,02,030,,07,00,000,,7*71
$GQGSV,1,1,02,02,30,178,43,03,79,073,41,1*63
$GBGSV,4,1,16,37,15,222,38,33,48,082,37,28,63,050,40,27,45,307,40,1*75
$GBGSV,4,2,16,14,30,053,38,13,41,243,41,10,68,260,36,08,51,247,41,1*7D
$GBGSV,4,3,16,07,70,220,37,04,35,130,36,03,43,205,36,02,27,234,33,1*73
$GBGSV,4,4,16,01,42,150,39,05,07,254,,32,00,000,,36,03,322,,1*7D
$GNGSA,A,3,01,03,04,06,14,17,19,,,,,,0.8,0.5,0.6,1*31
$GNGSA,A,3,71,72,76,85,87,,,,,,,,0.8,0.5,0.6,2*39
$GNGSA,A,3,01,03,08,13,15,21,26,27,,,,,0.8,0.5,0.6,3*36
$GNGSA,A,3,01,02,03,04,07,08,10,13,14,27,28,33,0.8,0.5,0.6,4*3D
$GNGSA,A,3,02,03,,,,,,,,,,,0.8,0.5,0.6,5*3F
$GNVTG,,T,,M,0.0,N,0.0,K,A*3D
$GNDTM,P90,,0000.000025,S,00000.000001,W,0.982,W84*49
$GNRMC,041338.00,A,3726.873362,N,12639.211621,E,0.0,,210622,6.0,W,A,V*60
$GNGNS,041338.00,3726.873362,N,12639.211621,E,AAAAAN,35,0.5,5.9,18.0,,,V*25
$GNGGA,041338.00,3726.873362,N,12639.211621,E,1,12,0.5,5.9,M,18.0,M,,*7F
$PSMSG,magcal=PASS,bluesky=0*00
$GPGSV,3,1,12,01,15,063,35,03,42,050,33,04,18,102,41,06,45,278,47,1*61
$GPGSV,3,2,12,12,03,324,24,14,37,189,44,17,75,030,39,19,59,326,48,1*66
$GPGSV,3,3,12,28,00,000,43,02,07,264,,09,14,136,,11,10,257,,1*66
$GLGSV,2,1,08,70,35,052,19,77,26,303,20,76,30,246,47,75,03,198,26,1*7F
$GLGSV,2,2,08,87,17,295,40,85,30,064,41,71,43,123,35,72,13,167,42,1*7C
$GAGSV,3,1,10,01,17,317,45,03,23,075,35,08,22,130,43,13,62,319,46,7*77
$GAGSV,3,2,10,15,40,053,32,21,47,270,46,26,18,270,39,27,33,198,38,7*7F
$GAGSV,3,3,10,05,02,030,,07,00,000,,7*71
$GQGSV,1,1,02,02,30,178,43,03,79,073,41,1*63
$GBGSV,4,1,16,37,15,222,38,33,48,082,37,28,63,050,41,27,45,307,40,1*74
$GBGSV,4,2,16,14,30,053,38,13,41,243,41,10,68,260,36,08,51,247,41,1*7D
$GBGSV,4,3,16,07,70,220,37,04,35,130,36,03,43,205,37,02,27,234,33,1*72
$GBGSV,4,4,16,01,42,150,40,05,07,254,,32,00,000,,36,03,322,,1*73
$GNGSA,A,3,01,03,04,06,14,17,19,,,,,,0.8,0.5,0.6,1*31
$GNGSA,A,3,71,72,76,85,87,,,,,,,,0.8,0.5,0.6,2*39
$GNGSA,A,3,01,03,08,13,15,21,26,27,,,,,0.8,0.5,0.6,3*36
$GNGSA,A,3,01,02,03,04,07,08,10,13,14,27,28,33,0.8,0.5,0.6,4*3D
$GNGSA,A,3,02,03,,,,,,,,,,,0.8,0.5,0.6,5*3F
$GNVTG,,T,,M,0.0,N,0.0,K,A*3D
$GNDTM,P90,,0000.000025,S,00000.000001,W,0.982,W84*49
$GNRMC,041339.00,A,3726.873361,N,12639.211622,E,0.0,,210622,6.0,W,A,V*61
$GNGNS,041339.00,3726.873361,N,12639.211622,E,AAAAAN,35,0.5,5.9,18.0,,,V*24
$GNGGA,041339.00,3726.873361,N,12639.211622,E,1,12,0.5,5.9,M,18.0,M,,*7E
$PSMSG,magcal=PASS,bluesky=0*00
$GPGSV,3,1,12,01,15,063,36,03,42,050,34,04,18,102,41,06,45,278,47,1*65
$GPGSV,3,2,12,12,03,324,23,14,37,189,44,17,75,030,39,19,59,326,48,1*61
$GPGSV,3,3,12,28,00,000,44,02,07,264,,09,14,136,,11,10,257,,1*61
$GLGSV,2,1,08,70,35,052,19,77,26,303,20,76,30,246,47,75,03,198,26,1*7F
$GLGSV,2,2,08,87,17,295,40,85,30,064,41,71,43,123,35,72,13,167,42,1*7C
$GAGSV,3,1,10,01,17,317,45,03,23,075,34,08,22,130,43,13,62,319,46,7*76
$GAGSV,3,2,10,15,40,053,31,21,47,270,46,26,18,270,39,27,33,198,39,7*7D
$GAGSV,3,3,10,05,02,030,,07,00,000,,7*71
$GQGSV,1,1,02,02,30,178,43,03,79,073,42,1*60
$GBGSV,4,1,16,37,15,222,39,33,48,082,37,28,63,050,41,27,45,307,40,1*75
$GBGSV,4,2,16,14,30,053,38,13,41,243,41,10,68,260,37,08,51,247,41,1*7C
$GBGSV,4,3,16,07,70,220,37,04,35,130,36,03,43,205,37,02,27,234,34,1*75
$GBGSV,4,4,16,01,42,150,40,05,07,254,,32,00,000,,36,03,322,,1*73
$GNGSA,A,3,01,03,04,06,14,17,19,,,,,,0.8,0.5,0.6,1*31
$GNGSA,A,3,71,72,76,85,87,,,,,,,,0.8,0.5,0.6,2*39
$GNGSA,A,3,01,03,08,13,15,21,26,27,,,,,0.8,0.5,0.6,3*36
$GNGSA,A,3,01,02,03,04,07,08,10,13,14,27,28,33,0.8,0.5,0.6,4*3D
$GNGSA,A,3,02,03,,,,,,,,,,,0.8,0.5,0.6,5*3F
$GNVTG,,T,,M,0.0,N,0.0,K,A*3D
$GNDTM,P90,,0000.000025,S,00000.000001,W,0.982,W84*49
$GNRMC,041340.00,A,3726.873360,N,12639.211623,E,0.0,,210622,6.0,W,A,V*6F
$GNGNS,041340.00,3726.873360,N,12639.211623,E,AAAAAN,35,0.5,5.9,18.0,,,V*2A
$GNGGA,041340.00,3726.873360,N,12639.211623,E,1,12,0.5,5.9,M,18.0,M,,*70
$PSMSG,magcal=PASS,bluesky=0*00
$GPGSV,3,1,12,01,15,063,36,03,42,050,34,04,18,102,41,06,45,278,47,1*65
$GPGSV,3,2,12,12,03,324,26,14,37,189,45,17,75,030,39,19,59,326,49,1*64
$GPGSV,3,3,12,28,00,000,43,02,07,264,,09,14,136,,11,10,257,,1*66
$GLGSV,2,1,07,70,35,052,19,77,26,302,20,76,30,246,47,87,18,295,40,1*78
$GLGSV,2,2,07,85,30,066,41,71,44,122,34,72,14,167,42,1*42
$GAGSV,3,1,10,01,17,317,45,03,23,075,34,08,22,130,43,13,62,319,46,7*76
$GAGSV,3,2,10,15,40,053,33,21,47,270,46,26,18,270,39,27,33,198,38,7*7E
$GAGSV,3,3,10,05,02,030,,07,00,000,,7*71
$GQGSV,1,1,02,02,30,178,42,03,79,073,41,1*62
$GBGSV,4,1,16,37,15,222,39,33,48,082,36,28,63,050,41,27,45,307,40,1*74
$GBGSV,4,2,16,14,30,053,38,13,41,243,41,10,68,260,36,08,51,247,41,1*7D
$GBGSV,4,3,16,07,70,220,37,04,35,130,35,03,43,205,37,02,27,234,33,1*71
$GBGSV,4,4,16,01,42,150,40,05,07,254,,32,00,000,,36,03,322,,1*73
$GNGSA,A,3,01,03,04,06,14,17,19,,,,,,0.8,0.5,0.6,1*31
$GNGSA,A,3,71,72,76,85,87,,,,,,,,0.8,0.5,0.6,2*39
$GNGSA,A,3,01,03,08,13,15,21,26,27,,,,,0.8,0.5,0.6,3*36
$GNGSA,A,3,01,02,03,04,07,08,10,13,14,27,28,33,0.8,0.5,0.6,4*3D
$GNGSA,A,3,02,03,,,,,,,,,,,0.8,0.5,0.6,5*3F
$GNVTG,,T,,M,0.0,N,0.0,K,A*3D
$GNDTM,P90,,0000.000025,S,00000.000001,W,0.982,W84*49
$GNRMC,041341.00,A,3726.873360,N,12639.211625,E,0.0,,210622,6.0,W,A,V*68
$GNGNS,041341.00,3726.873360,N,12639.211625,E,AAAAAN,35,0.5,5.9,18.0,,,V*2D
$GNGGA,041341.00,3726.873360,N,12639.211625,E,1,12,0.5,5.9,M,18.0,M,,*77
$PSMSG,magcal=PASS,bluesky=0*00
$GPGSV,3,1,12,01,15,063,37,04,18,102,41,06,45,278,47,12,03,324,26,1*62
$GPGSV,3,2,12,14,37,189,44,17,75,030,40,19,59,326,49,28,00,000,43,1*67
$GPGSV,3,3,12,02,07,264,,03,42,050,,09,14,136,,11,10,257,,1*6B
$GLGSV,2,1,07,70,35,052,16,77,26,302,20,76,30,246,48,87,18,295,40,1*78
$GLGSV,2,2,07,85,30,066,42,71,44,122,36,72,14,167,41,1*40
$GAGSV,3,1,10,01,17,317,45,03,23,075,35,08,22,130,44,13,62,319,46,7*70
$GAGSV,3,2,10,15,40,053,33,21,47,270,46,26,18,270,39,27,33,198,39,7*7F
$GAGSV,3,3,10,05,02,030,,07,00,000,,7*71
$GQGSV,1,1,02,02,30,178,41,03,79,073,41,1*61
$GBGSV,4,1,16,37,15,222,39,33,48,082,36,28,63,050,41,27,45,307,39,1*7A
$GBGSV,4,2,16,14,30,053,38,13,41,243,41,10,68,260,37,08,51,247,41,1*7C
$GBGSV,4,3,16,07,70,220,37,04,35,130,37,03,43,205,37,02,27,234,33,1*73
$GBGSV,4,4,16,01,42,150,40,05,07,254,,32,00,000,,36,03,322,,1*73
$GNGSA,A,3,01,03,04,06,14,17,19,,,,,,0.8,0.5,0.6,1*31
$GNGSA,A,3,71,72,76,85,87,,,,,,,,0.8,0.5,0.6,2*39
$GNGSA,A,3,01,03,08,13,15,21,26,27,,,,,0.8,0.5,0.6,3*36
$GNGSA,A,3,01,02,03,04,07,08,10,13,14,27,28,33,0.8,0.5,0.6,4*3D
$GNGSA,A,3,02,03,,,,,,,,,,,0.8,0.5,0.6,5*3F
$GNVTG,,T,,M,0.0,N,0.0,K,A*3D
$GNDTM,P90,,0000.000025,S,00000.000001,W,0.982,W84*49
$GNRMC,041342.00,A,3726.873359,N,12639.211625,E,0.0,,210622,6.0,W,A,V*61
$GNGNS,041342.00,3726.873359,N,12639.211625,E,AAAAAN,35,0.5,5.9,18.0,,,V*24
$GNGGA,041342.00,3726.873359,N,12639.211625,E,1,12,0.5,5.9,M,18.0,M,,*7E
$PSMSG,magcal=PASS,bluesky=0*00
$GPGSV,3,1,12,01,15,063,37,04,18,102,41,06,45,278,48,12,03,324,26,1*6D
$GPGSV,3,2,12,14,37,189,44,17,75,030,40,19,59,326,49,28,00,000,43,1*67
$GPGSV,3,3,12,02,07,264,,03,42,050,,09,14,136,,11,10,257,,1*6B
$GLGSV,2,1,07,70,35,052,16,77,26,302,20,76,30,246,48,87,18,295,41,1*79
$GLGSV,2,2,07,85,30,066,41,71,44,122,38,72,14,167,42,1*4E
$GAGSV,3,1,10,01,17,317,46,03,23,075,36,08,22,130,44,13,62,319,46,7*70
$GAGSV,3,2,10,15,40,053,34,21,47,270,46,26,18,270,39,27,33,198,39,7*78
$GAGSV,3,3,10,05,02,030,,07,00,000,,7*71
$GQGSV,1,1,02,02,30,178,42,03,79,073,42,1*61
$GBGSV,4,1,16,37,15,222,39,33,48,082,36,28,63,050,42,27,45,307,40,1*77
$GBGSV,4,2,16,14,30,053,38,13,41,243,41,10,68,260,37,08,51,247,41,1*7C
$GBGSV,4,3,16,07,70,220,37,04,35,130,36,03,43,205,37,02,27,234,34,1*75
$GBGSV,4,4,16,01,42,150,41,05,07,254,,32,00,000,,36,03,322,,1*72
$GNGSA,A,3,01,03,04,06,14,17,19,,,,,,0.8,0.5,0.6,1*31
$GNGSA,A,3,71,72,76,85,87,,,,,,,,0.8,0.5,0.6,2*39
$GNGSA,A,3,01,03,08,13,15,21,26,27,,,,,0.8,0.5,0.6,3*36
$GNGSA,A,3,01,02,03,04,07,08,10,13,14,27,28,33,0.8,0.5,0.6,4*3D
$GNGSA,A,3,02,03,,,,,,,,,,,0.8,0.5,0.6,5*3F
$GNVTG,,T,,M,0.0,N,0.0,K,A*3D
$GNDTM,P90,,0000.000025,S,00000.000001,W,0.982,W84*49
$GNRMC,041343.00,A,3726.873357,N,12639.211625,E,0.0,,210622,6.0,W,A,V*6E
$GNGNS,041343.00,3726.873357,N,12639.211625,E,AAAAAN,35,0.5,5.9,18.0,,,V*2B
$GNGGA,041343.00,3726.873357,N,12639.211625,E,1,12,0.5,5.9,M,18.0,M,,*71
$PSMSG,magcal=PASS,bluesky=0*00
$GPGSV,3,1,12,01,15,063,38,04,18,102,41,06,45,278,48,12,03,324,27,1*63
$GPGSV,3,2,12,14,37,189,44,17,75,030,40,19,59,326,49,28,00,000,43,1*67
$GPGSV,3,3,12,02,07,264,,03,42,050,,09,14,136,,11,10,257,,1*6B
$GLGSV,2,1,07,70,35,052,16,77,26,302,20,76,30,246,48,87,18,295,40,1*78
$GLGSV,2,2,07,85,30,066,42,71,44,122,38,72,14,167,40,1*4F
$GAGSV,3,1,10,01,17,317,45,03,23,075,37,08,22,130,43,13,62,319,46,7*75
$GAGSV,3,2,10,15,40,053,34,21,47,270,46,26,18,270,40,27,33,198,39,7*76
$GAGSV,3,3,10,05,02,030,,07,00,000,,7*71
$GQGSV,1,1,02,02,30,178,43,03,79,073,42,1*60
$GBGSV,4,1,16,37,15,222,39,33,48,082,36,28,63,050,43,27,45,307,40,1*76
$GBGSV,4,2,16,14,30,053,38,13,41,243,40,10,68,260,37,08,51,247,41,1*7D
$GBGSV,4,3,16,07,70,220,37,04,35,130,36,03,43,205,37,02,27,234,34,1*75
$GBGSV,4,4,16,01,42,150,40,05,07,254,,32,00,000,,36,03,322,,1*73
$GNGSA,A,3,01,03,04,06,14,17,19,,,,,,0.8,0.5,0.6,1*31
$GNGSA,A,3,71,72,76,85,87,,,,,,,,0.8,0.5,0.6,2*39
$GNGSA,A,3,01,03,08,13,15,21,26,27,,,,,0.8,0.5,0.6,3*36
$GNGSA,A,3,01,02,03,04,07,08,10,13,14,27,28,33,0.8,0.5,0.6,4*3D
$GNGSA,A,3,02,03,,,,,,,,,,,0.8,0.5,0.6,5*3F
$GNVTG,,T,,M,0.0,N,0.0,K,A*3D
$GNDTM,P90,,0000.000025,S,00000.000001,W,0.982,W84*49
$GNRMC,041344.00,A,3726.873356,N,12639.211623,E,0.0,,210622,6.0,W,A,V*6E
$GNGNS,041344.00,3726.873356,N,12639.211623,E,AAAAAN,35,0.5,5.9,18.0,,,V*2B
$GNGGA,041344.00,3726.873356,N,12639.211623,E,1,12,0.5,5.9,M,18.0,M,,*71
$PSMSG,magcal=PASS,bluesky=0*00
$GPGSV,3,1,12,01,15,063,39,04,18,102,41,06,45,278,48,12,03,324,27,1*62
$GPGSV,3,2,12,14,37,189,45,17,75,030,40,19,59,326,49,28,00,000,44,1*61
$GPGSV,3,3,12,02,07,264,,03,42,050,,09,14,136,,11,10,257,,1*6B
$GLGSV,2,1,07,70,35,052,16,77,26,302,20,76,30,246,48,87,18,295,40,1*78
$GLGSV,2,2,07,85,30,066,42,71,44,122,37,72,14,167,40,1*40
$GAGSV,3,1,10,01,17,317,46,03,23,075,37,08,22,130,44,13,62,319,47,7*70
$GAGSV,3,2,10,15,40,053,33,21,47,270,46,26,18,270,39,27,33,198,39,7*7F
$GAGSV,3,3,10,05,02,030,,07,00,000,,7*71
$GQGSV,1,1,02,02,30,178,42,03,79,073,42,1*61
$GBGSV,4,1,16,37,15,222,39,33,48,082,36,28,63,050,42,27,45,307,39,1*79
$GBGSV,4,2,16,14,30,053,38,13,41,243,41,10,68,260,37,08,51,247,41,1*7C
$GBGSV,4,3,16,07,70,220,37,04,35,130,36,03,43,205,37,02,27,234,34,1*75
$GBGSV,4,4,16,01,42,150,40,05,07,254,,32,00,000,,36,03,322,,1*73
$GNGSA,A,3,01,03,04,06,14,17,19,,,,,,0.8,0.5,0.6,1*31
$GNGSA,A,3,71,72,76,85,87,,,,,,,,0.8,0.5,0.6,2*39
$GNGSA,A,3,01,03,08,13,15,21,26,27,,,,,0.8,0.5,0.6,3*36
$GNGSA,A,3,01,02,03,04,07,08,10,13,14,27,28,33,0.8,0.5,0.6,4*3D
$GNGSA,A,3,02,03,,,,,,,,,,,0.8,0.5,0.6,5*3F
$GNVTG,,T,,M,0.0,N,0.0,K,A*3D
$GNDTM,P90,,0000.000025,S,00000.000001,W,0.982,W84*49
$GNRMC,041345.00,A,3726.873354,N,12639.211621,E,0.0,,210622,6.0,W,A,V*6F
$GNGNS,041345.00,3726.873354,N,12639.211621,E,AAAAAN,35,0.5,6.0,18.0,,,V*20
$GNGGA,041345.00,3726.873354,N,12639.211621,E,1,12,0.5,6.0,M,18.0,M,,*7A
$PSMSG,magcal=PASS,bluesky=0*00
$GPGSV,3,1,12,01,15,063,39,04,18,102,41,06,45,278,48,12,03,324,27,1*62
$GPGSV,3,2,12,14,37,189,44,17,75,030,40,19,59,326,49,28,00,000,44,1*60
$GPGSV,3,3,12,02,07,264,,03,42,050,,09,14,136,,11,10,257,,1*6B
$GLGSV,2,1,07,70,35,052,16,77,26,302,20,76,30,246,48,87,18,295,40,1*78
$GLGSV,2,2,07,85,30,066,41,71,44,122,36,72,14,167,41,1*43
$GAGSV,3,1,10,01,17,317,45,03,23,075,38,08,22,130,44,13,62,319,46,7*7D
$GAGSV,3,2,10,15,40,053,33,21,47,270,46,26,18,270,39,27,33,198,40,7*71
$GAGSV,3,3,10,05,02,030,,07,00,000,,7*71
$GQGSV,1,1,02,02,30,178,42,03,79,073,42,1*61
$GBGSV,4,1,16,37,15,222,39,33,48,082,37,28,63,050,42,27,45,307,39,1*78
$GBGSV,4,2,16,14,30,053,39,13,41,243,41,10,68,260,36,08,51,247,41,1*7C
$GBGSV,4,3,16,07,70,220,37,04,35,130,36,03,43,205,37,02,27,234,34,1*75
$GBGSV,4,4,16,01,42,150,40,05,07,254,,32,00,000,,36,03,322,,1*73
$GNGSA,A,3,01,03,04,06,14,17,19,,,,,,0.8,0.5,0.6,1*31
$GNGSA,A,3,71,72,76,85,87,,,,,,,,0.8,0.5,0.6,2*39
$GNGSA,A,3,01,03,08,13,15,21,26,27,,,,,0.8,0.5,0.6,3*36
$GNGSA,A,3,01,02,03,04,07,08,10,13,14,27,28,33,0.8,0.5,0.6,4*3D
$GNGSA,A,3,02,03,,,,,,,,,,,0.8,0.5,0.6,5*3F
$GNVTG,,T,,M,0.0,N,0.0,K,A*3D
$GNDTM,P90,,0000.000025,S,00000.000001,W,0.982,W84*49
$GNRMC,041346.00,A,3726.873353,N,12639.211619,E,0.0,,210622,6.0,W,A,V*60
$GNGNS,041346.00,3726.873353,N,12639.211619,E,AAAAAN,35,0.5,6.0,18.0,,,V*2F
$GNGGA,041346.00,3726.873353,N,12639.211619,E,1,12,0.5,6.0,M,18.0,M,,*75
$PSMSG,magcal=PASS,bluesky=0*00
$GPGSV,3,1,12,01,15,063,39,04,18,102,41,06,45,278,48,12,03,324,27,1*62
$GPGSV,3,2,12,14,37,189,44,17,75,030,39,19,59,326,49,28,00,000,43,1*69
$GPGSV,3,3,12,02,07,264,,03,42,050,,09,14,136,,11,10,257,,1*6B
$GLGSV,2,1,07,70,35,052,16,77,26,302,20,76,30,246,48,87,18,295,40,1*78
$GLGSV,2,2,07,85,30,066,41,71,44,122,37,72,14,167,42,1*41
$GAGSV,3,1,10,01,17,317,45,03,23,075,37,08,22,130,44,13,62,319,46,7*72
$GAGSV,3,2,10,15,40,053,33,21,47,270,46,26,18,270,40,27,33,198,39,7*71
$GAGSV,3,3,10,05,02,030,,07,00,000,,7*71
$GQGSV,1,1,02,02,30,178,43,03,79,073,41,1*63
$GBGSV,4,1,16,37,15,222,39,33,48,082,37,28,63,050,42,27,45,307,39,1*78
$GBGSV,4,2,16,14,30,053,38,13,41,243,41,10,68,260,36,08,51,247,41,1*7D
$GBGSV,4,3,16,07,70,220,37,04,35,130,36,03,43,205,38,02,27,234,34,1*7A
$GBGSV,4,4,16,01,42,150,40,05,07,254,,32,00,000,,36,03,322,,1*73
$GNGSA,A,3,01,04,06,14,17,19,,,,,,,0.8,0.5,0.6,1*32
$GNGSA,A,3,71,72,76,85,87,,,,,,,,0.8,0.5,0.6,2*39
$GNGSA,A,3,01,03,08,13,15,21,26,27,,,,,0.8,0.5,0.6,3*36
$GNGSA,A,3,01,02,03,04,07,08,10,13,14,27,28,33,0.8,0.5,0.6,4*3D
$GNGSA,A,3,02,03,,,,,,,,,,,0.8,0.5,0.6,5*3F
$GNVTG,,T,,M,0.0,N,0.0,K,A*3D
$GNDTM,P90,,0000.000025,S,00000.000001,W,0.982,W84*49
$GNRMC,041347.00,A,3726.873351,N,12639.211618,E,0.0,,210622,6.0,W,A,V*62
$GNGNS,041347.00,3726.873351,N,12639.211618,E,AAAAAN,34,0.5,6.0,18.0,,,V*2C
$GNGGA,041347.00,3726.873351,N,12639.211618,E,1,12,0.5,6.0,M,18.0,M,,*77
$PSMSG,magcal=PASS,bluesky=0*00
$GPGSV,3,1,12,01,15,063,38,04,18,102,41,06,45,278,48,12,03,324,27,1*63
$GPGSV,3,2,12,14,37,189,44,17,75,030,40,19,59,326,49,28,00,000,43,1*67
$GPGSV,3,3,12,02,07,264,,03,42,050,,09,14,136,,11,10,257,,1*6B
$GLGSV,2,1,07,70,35,052,16,77,26,302,20,76,30,246,48,87,18,295,39,1*76
$GLGSV,2,2,07,85,30,066,41,71,44,122,35,72,14,167,41,1*40
$GAGSV,3,1,10,01,17,317,45,03,23,075,36,08,22,130,44,13,62,319,46,7*73
$GAGSV,3,2,10,15,40,053,34,21,47,270,46,26,18,270,40,27,33,198,39,7*76
$GAGSV,3,3,10,05,02,030,,07,00,000,,7*71
$GQGSV,1,1,02,02,30,178,43,03,79,073,42,1*60
$GBGSV,4,1,16,37,15,222,38,33,48,082,38,28,63,050,41,27,45,307,39,1*75
$GBGSV,4,2,16,14,30,053,38,13,41,243,40,10,68,260,36,08,51,247,41,1*7C
$GBGSV,4,3,16,07,70,220,37,04,35,130,36,03,43,205,38,02,27,234,34,1*7A
$GBGSV,4,4,16,01,42,150,41,05,07,254,,32,00,000,,36,03,322,,1*72
$GNGSA,A,3,01,04,06,14,17,19,,,,,,,0.8,0.5,0.6,1*32
$GNGSA,A,3,71,72,76,85,87,,,,,,,,0.8,0.5,0.6,2*39
$GNGSA,A,3,01,03,08,13,15,21,26,27,,,,,0.8,0.5,0.6,3*36
$GNGSA,A,3,01,02,03,04,07,08,10,13,14,27,28,33,0.8,0.5,0.6,4*3D
$GNGSA,A,3,02,03,,,,,,,,,,,0.8,0.5,0.6,5*3F
$GNVTG,,T,,M,0.0,N,0.0,K,A*3D
$GNDTM,P90,,0000.000025,S,00000.000001,W,0.982,W84*49
$GNRMC,041348.00,A,3726.873350,N,12639.211616,E,0.0,,210622,6.0,W,A,V*62
$GNGNS,041348.00,3726.873350,N,12639.211616,E,AAAAAN,34,0.5,6.0,18.0,,,V*2C
$GNGGA,041348.00,3726.873350,N,12639.211616,E,1,12,0.5,6.0,M,18.0,M,,*77
$PSMSG,magcal=PASS,bluesky=0*00
$GPGSV,3,1,12,01,15,063,38,04,18,102,41,06,45,278,48,12,03,324,27,1*63
$GPGSV,3,2,12,14,37,189,43,17,75,030,39,19,59,326,49,28,00,000,43,1*6E
$GPGSV,3,3,12,02,07,264,,03,42,050,,09,14,136,,11,10,257,,1*6B
$GLGSV,2,1,07,70,35,052,16,77,26,302,20,76,30,246,48,87,18,295,41,1*79
$GLGSV,2,2,07,85,30,066,40,71,44,122,35,72,14,167,39,1*4E
$GAGSV,3,1,10,01,17,317,44,03,23,075,37,08,22,130,43,13,62,319,46,7*74
$GAGSV,3,2,10,15,40,053,33,21,47,270,47,26,18,270,39,27,33,198,39,7*7E
$GAGSV,3,3,10,05,02,030,,07,00,000,,7*71
$GQGSV,1,1,02,02,30,178,43,03,79,073,42,1*60
$GBGSV,4,1,16,37,15,222,39,33,48,082,38,28,63,050,42,27,45,307,38,1*76
$GBGSV,4,2,16,14,30,053,39,13,41,243,41,10,68,260,37,08,51,247,41,1*7D
$GBGSV,4,3,16,07,70,220,37,04,35,130,36,03,43,205,37,02,27,234,34,1*75
$GBGSV,4,4,16,01,42,150,40,05,07,254,,32,00,000,,36,03,322,,1*73
$GNGSA,A,3,01,04,06,14,17,19,,,,,,,0.8,0.5,0.6,1*32
$GNGSA,A,3,71,72,76,85,87,,,,,,,,0.8,0.5,0.6,2*39
$GNGSA,A,3,01,03,08,13,15,21,26,27,,,,,0.8,0.5,0.6,3*36
$GNGSA,A,3,01,02,03,04,07,08,10,13,14,27,28,33,0.8,0.5,0.6,4*3D
$GNGSA,A,3,02,03,,,,,,,,,,,0.8,0.5,0.6,5*3F
$GNVTG,,T,,M,0.0,N,0.0,K,A*3D
$GNDTM,P90,,0000.000025,S,00000.000001,W,0.982,W84*49
$GNRMC,041349.00,A,3726.873349,N,12639.211614,E,0.0,,210622,6.0,W,A,V*69
$GNGNS,041349.00,3726.873349,N,12639.211614,E,AAAAAN,34,0.5,6.0,18.0,,,V*27
$GNGGA,041349.00,3726.873349,N,12639.211614,E,1,12,0.5,6.0,M,18.0,M,,*7C
$PSMSG,magcal=PASS,bluesky=0*00
$GPGSV,3,1,12,01,15,063,37,04,18,102,42,06,45,278,48,12,03,324,27,1*6F
$GPGSV,3,2,12,14,37,189,43,17,75,030,39,19,59,326,49,28,00,000,44,1*69
