$GPGSV,4,1,13,01,08,068,27,02,13,271,42,03,33,045,47,04,22,094,40,1*6F
$GPGSV,4,2,13,06,51,292,39,09,21,129,48,11,16,265,32,12,11,320,29,1*63
$GPGSV,4,3,13,14,27,187,41,17,75,075,41,19,68,337,37,28,00,000,38,1*6D
$GPGSV,4,4,13,20,04,220,,1*50
$GLGSV,2,1,08,78,02,340,22,70,30,040,24,77,26,291,27,76,22,236,35,1*74
$GLGSV,2,2,08,87,23,305,28,85,25,077,50,71,52,108,48,72,24,165,45,1*79
$GAGSV,3,1,09,01,21,310,33,03,24,067,43,07,05,171,26,08,29,125,40,7*7B
$GAGSV,3,2,09,13,63,337,39,15,35,061,40,21,43,257,34,26,23,277,37,7*70
$GAGSV,3,3,09,27,25,195,37,7*41
$GQGSV,1,1,03,02,26,180,37,03,79,080,37,04,00,000,44,1*58
$GBGSV,5,1,17,37,08,216,31,33,47,068,44,32,07,194,30,30,05,295,23,1*72
$GBGSV,5,2,17,28,59,068,37,27,52,316,36,14,25,046,30,13,42,251,32,1*78
$GBGSV,5,3,17,10,65,251,34,07,65,216,37,04,35,130,34,03,43,205,27,1*71
$GBGSV,5,4,17,02,27,234,30,01,42,150,41,05,07,254,,08,52,257,,1*78
$GBGSV,5,5,17,36,04,314,,1*47
$GNGSA,A,3,01,02,03,04,06,09,11,12,14,17,19,,0.7,0.4,0.6,1*37
$GNGSA,A,3,70,71,72,76,77,85,87,,,,,,0.7,0.4,0.6,2*30
$GNGSA,A,3,01,03,07,08,13,15,21,26,27,,,,0.7,0.4,0.6,3*3F
$GNGSA,A,3,01,03,04,07,10,13,14,27,28,33,37,,0.7,0.4,0.6,4*3D
$GNGSA,A,3,02,03,,,,,,,,,,,0.7,0.4,0.6,5*31
$GNVTG,,T,,M,0.0,N,0.0,K,A*3D
$GNDTM,P90,,0000.000025,S,00000.000001,W,0.982,W84*49
$GNRMC,043508.00,A,3726.937623,N,12639.233455,E,0.0,,210622,6.0,W,A,V*67
$GNGNS,043508.00,3726.937623,N,12639.233455,E,AAAAAN,40,0.4,10.9,18.0,,,V*15
$GNGGA,043508.00,3726.937623,N,12639.233455,E,1,12,0.4,10.9,M,18.0,M,,*4D
$PSMSG,magcal=PASS,bluesky=0*00
$GPGSV,4,1,13,01,08,068,26,02,13,271,41,03,33,045,47,04,22,094,40,1*6D
$GPGSV,4,2,13,06,51,292,39,09,21,129,49,11,16,265,37,12,11,320,27,1*69
$GPGSV,4,3,13,14,27,187,40,17,75,075,40,19,68,337,39,28,00,000,30,1*6B
$GPGSV,4,4,13,20,04,220,,1*50
$GLGSV,2,1,08,78,02,340,22,70,30,040,24,77,26,291,24,76,22,236,34,1*76
$GLGSV,2,2,08,87,23,305,30,85,25,077,50,71,52,108,48,72,24,165,47,1*72
$GAGSV,3,1,09,01,21,310,34,03,24,067,42,07,05,171,28,08,29,125,42,7*71
$GAGSV,3,2,09,13,63,337,41,15,35,061,39,21,43,257,37,26,23,277,38,7*7D
$GAGSV,3,3,09,27,25,195,40,7*41
$GQGSV,1,1,03,02,26,180,39,03,79,080,39,04,00,000,43,1*5F
$GBGSV,5,1,17,37,08,216,29,33,47,068,44,32,07,194,30,30,05,295,23,1*7B
$GBGSV,5,2,17,28,59,068,38,27,52,316,32,14,25,046,29,13,42,251,34,1*7D
$GBGSV,5,3,17,10,65,251,35,07,65,216,37,04,35,130,36,03,43,205,27,1*72
$GBGSV,5,4,17,02,27,234,30,01,42,150,43,05,07,254,,08,52,257,,1*7A
$GBGSV,5,5,17,36,04,314,,1*47
$GNGSA,A,3,01,02,03,04,06,09,11,12,14,17,19,,0.7,0.4,0.6,1*37
$GNGSA,A,3,70,71,72,76,77,85,87,,,,,,0.7,0.4,0.6,2*30
$GNGSA,A,3,01,03,07,08,13,15,21,26,27,,,,0.7,0.4,0.6,3*3F
$GNGSA,A,3,01,03,04,07,10,13,14,27,28,33,37,,0.7,0.4,0.6,4*3D
$GNGSA,A,3,02,03,,,,,,,,,,,0.7,0.4,0.6,5*31
$GNVTG,,T,,M,0.0,N,0.0,K,A*3D
$GNDTM,P90,,0000.000025,S,00000.000001,W,0.982,W84*49
$GNRMC,043509.00,A,3726.937623,N,12639.233459,E,0.0,,210622,6.0,W,A,V*6A
$GNGNS,043509.00,3726.937623,N,12639.233459,E,AAAAAN,40,0.4,11.0,18.0,,,V*10
$GNGGA,043509.00,3726.937623,N,12639.233459,E,1,12,0.4,11.0,M,18.0,M,,*48
$PSMSG,magcal=PASS,bluesky=0*00
$GPGSV,4,1,13,01,08,068,25,02,13,271,41,03,33,045,47,04,22,094,42,1*6C
$GPGSV,4,2,13,06,51,292,46,09,21,129,47,11,16,265,36,12,11,320,27,1*6E
$GPGSV,4,3,13,14,27,187,38,17,75,075,42,19,68,337,43,28,00,000,31,1*6A
$GPGSV,4,4,13,20,04,220,,1*50
$GLGSV,2,1,08,78,02,340,19,70,30,040,27,77,26,291,32,76,22,236,35,1*7B
$GLGSV,2,2,08,87,23,305,39,85,25,077,50,71,52,108,49,72,24,165,47,1*7A
$GAGSV,3,1,09,01,21,310,37,03,24,067,42,07,05,171,29,08,29,125,40,7*71
$GAGSV,3,2,09,13,63,337,41,15,35,061,39,21,43,257,36,26,23,277,38,7*7C
$GAGSV,3,3,09,27,25,195,37,7*41
$GQGSV,1,1,03,02,26,180,40,03,79,080,40,04,00,000,43,1*5F
$GBGSV,5,1,17,37,08,216,30,33,47,068,44,32,07,194,30,28,59,068,41,1*77
$GBGSV,5,2,17,27,52,316,39,14,25,046,31,13,42,251,34,10,65,251,36,1*7D
$GBGSV,5,3,17,08,52,257,28,07,65,216,38,04,35,130,39,03,43,205,27,1*75
$GBGSV,5,4,17,02,27,234,30,01,42,150,44,05,07,254,,30,05,295,,1*7A
$GBGSV,5,5,17,36,04,314,,1*47
$GNGSA,A,3,01,02,03,04,06,09,11,12,14,17,19,,0.7,0.4,0.6,1*37
$GNGSA,A,3,70,71,72,76,77,85,87,,,,,,0.7,0.4,0.6,2*30
$GNGSA,A,3,01,03,07,08,13,15,21,26,27,,,,0.7,0.4,0.6,3*3F
$GNGSA,A,3,01,03,04,07,08,10,13,14,27,28,33,37,0.7,0.4,0.6,4*35
$GNGSA,A,3,02,03,,,,,,,,,,,0.7,0.4,0.6,5*31
$GNVTG,,T,,M,0.0,N,0.0,K,A*3D
$GNDTM,P90,,0000.000025,S,00000.000001,W,0.982,W84*49
$GNRMC,043510.00,A,3726.937621,N,12639.233465,E,0.0,,210622,6.0,W,A,V*6F
$GNGNS,043510.00,3726.937621,N,12639.233465,E,AAAAAN,41,0.4,11.0,18.0,,,V*14
$GNGGA,043510.00,3726.937621,N,12639.233465,E,1,12,0.4,11.0,M,18.0,M,,*4D
$PSMSG,magcal=PASS,bluesky=0*00
$GPGSV,4,1,13,01,08,068,26,02,13,271,40,03,33,045,44,04,22,094,40,1*6F
$GPGSV,4,2,13,06,51,292,48,09,21,129,45,11,16,265,35,12,11,320,30,1*67
$GPGSV,4,3,13,14,27,187,38,17,75,075,42,19,68,337,44,28,00,000,28,1*65
$GPGSV,4,4,13,20,04,220,,1*50
$GLGSV,2,1,08,78,02,340,19,70,30,040,26,77,26,291,35,76,22,236,35,1*7D
$GLGSV,2,2,08,87,23,305,41,85,25,077,49,71,52,108,48,72,24,165,46,1*7D
$GAGSV,3,1,09,01,21,310,41,03,24,067,41,07,05,171,30,08,29,125,43,7*78
$GAGSV,3,2,09,13,63,337,43,15,35,061,40,21,43,257,37,26,23,277,39,7*70
$GAGSV,3,3,09,27,25,195,36,7*40
$GQGSV,1,1,03,02,26,180,40,03,79,080,41,04,00,000,43,1*5E
$GBGSV,5,1,17,37,08,216,30,33,47,068,43,32,07,194,38,28,59,068,43,1*7A
$GBGSV,5,2,17,27,52,316,43,14,25,046,29,13,42,251,33,10,65,251,38,1*70
$GBGSV,5,3,17,08,52,257,35,07,65,216,39,04,35,130,39,03,43,205,27,1*78
$GBGSV,5,4,17,02,27,234,30,01,42,150,43,05,07,254,,30,05,295,,1*7D
$GBGSV,5,5,17,36,04,314,,1*47
$GNGSA,A,3,01,02,03,04,06,09,11,12,14,17,19,,0.7,0.4,0.6,1*37
$GNGSA,A,3,70,71,72,76,77,85,87,,,,,,0.7,0.4,0.6,2*30
$GNGSA,A,3,01,03,07,08,13,15,21,26,27,,,,0.7,0.4,0.6,3*3F
$GNGSA,A,3,01,03,04,07,08,10,13,14,27,28,33,37,0.7,0.4,0.6,4*35
$GNGSA,A,3,02,03,,,,,,,,,,,0.7,0.4,0.6,5*31
$GNVTG,,T,,M,0.0,N,0.0,K,A*3D
$GNDTM,P90,,0000.000025,S,00000.000001,W,0.982,W84*49
$GNRMC,043511.00,A,3726.937619,N,12639.233469,E,0.0,,210622,6.0,W,A,V*69
$GNGNS,043511.00,3726.937619,N,12639.233469,E,AAAAAN,41,0.4,11.0,18.0,,,V*12
$GNGGA,043511.00,3726.937619,N,12639.233469,E,1,12,0.4,11.0,M,18.0,M,,*4B
$PSMSG,magcal=PASS,bluesky=0*00
$GPGSV,4,1,13,01,08,068,26,02,13,271,40,03,33,045,47,04,22,094,39,1*62
$GPGSV,4,2,13,06,51,292,48,09,21,129,46,11,16,265,34,12,11,320,28,1*6C
$GPGSV,4,3,13,14,27,187,37,17,75,075,42,19,68,337,44,28,00,000,28,1*6A
$GPGSV,4,4,13,20,04,220,,1*50
$GLGSV,2,1,08,78,02,340,21,70,30,040,26,77,26,291,35,76,22,236,35,1*76
$GLGSV,2,2,08,87,23,305,42,85,25,077,46,71,52,108,48,72,24,165,46,1*71
$GAGSV,3,1,09,01,21,310,40,03,24,067,38,07,05,171,29,08,29,125,41,7*7D
$GAGSV,3,2,09,13,63,337,43,15,35,061,40,21,43,257,37,26,23,277,39,7*70
$GAGSV,3,3,09,27,25,195,37,7*41
$GQGSV,1,1,03,02,26,180,40,03,79,080,40,04,00,000,43,1*5F
$GBGSV,5,1,17,37,08,216,31,33,47,068,42,32,07,194,38,30,05,295,23,1*7C
$GBGSV,5,2,17,28,59,068,42,27,52,316,44,14,25,046,28,13,42,251,32,1*76
$GBGSV,5,3,17,10,65,251,38,08,52,257,34,07,65,216,39,04,35,130,40,1*7E
$GBGSV,5,4,17,03,43,205,27,02,27,234,30,01,42,150,42,05,07,254,,1*72
$GBGSV,5,5,17,36,04,314,,1*47
$GNGSA,A,3,01,02,03,04,06,09,11,12,14,17,19,,0.7,0.4,0.6,1*37
$GNGSA,A,3,70,71,72,76,77,85,87,,,,,,0.7,0.4,0.6,2*30
$GNGSA,A,3,01,03,07,08,13,15,21,26,27,,,,0.7,0.4,0.6,3*3F
$GNGSA,A,3,01,03,04,07,08,10,13,14,27,28,33,37,0.7,0.4,0.6,4*35
$GNGSA,A,3,02,03,,,,,,,,,,,0.7,0.4,0.6,5*31
$GNVTG,,T,,M,0.0,N,0.0,K,A*3D
$GNDTM,P90,,0000.000025,S,00000.000001,W,0.982,W84*49
$GNRMC,043512.00,A,3726.937615,N,12639.233474,E,0.0,,210622,6.0,W,A,V*6A
$GNGNS,043512.00,3726.937615,N,12639.233474,E,AAAAAN,41,0.4,11.0,18.0,,,V*11
$GNGGA,043512.00,3726.937615,N,12639.233474,E,1,12,0.4,11.0,M,18.0,M,,*48
$PSMSG,magcal=PASS,bluesky=0*00
$GPGSV,4,1,13,01,08,068,28,02,13,271,40,03,33,045,48,04,22,094,39,1*63
$GPGSV,4,2,13,06,51,292,48,09,21,129,48,11,16,265,31,12,11,320,31,1*6F
$GPGSV,4,3,13,14,27,187,38,17,75,075,41,19,68,337,44,28,00,000,30,1*6F
$GPGSV,4,4,13,20,04,220,,1*50
$GLGSV,2,1,08,78,02,340,21,70,30,040,26,77,26,291,35,76,22,236,36,1*75
$GLGSV,2,2,08,87,23,305,41,85,25,077,47,71,52,108,48,72,24,165,45,1*70
$GAGSV,3,1,09,01,21,310,39,03,24,067,43,07,05,171,27,08,29,125,41,7*71
$GAGSV,3,2,09,13,63,337,44,15,35,061,42,21,43,257,38,26,23,277,39,7*7A
$GAGSV,3,3,09,27,25,195,36,7*40
$GQGSV,1,1,03,02,26,180,39,03,79,080,39,04,00,000,43,1*5F
$GBGSV,5,1,17,37,08,216,33,33,47,068,45,32,07,194,38,30,05,295,21,1*7B
$GBGSV,5,2,17,28,59,068,41,27,52,316,44,14,25,046,29,13,42,251,31,1*77
$GBGSV,5,3,17,10,65,251,38,08,52,257,31,07,65,216,39,04,35,130,39,1*75
$GBGSV,5,4,17,03,43,205,29,02,27,234,30,01,42,150,42,05,07,254,,1*7C
$GBGSV,5,5,17,36,04,314,,1*47
$GNGSA,A,3,01,02,03,04,06,09,11,12,14,17,19,,0.7,0.4,0.6,1*37
$GNGSA,A,3,70,71,72,76,77,85,87,,,,,,0.7,0.4,0.6,2*30
$GNGSA,A,3,01,03,07,08,13,15,21,26,27,,,,0.7,0.4,0.6,3*3F
$GNGSA,A,3,01,03,04,07,08,10,13,14,27,28,33,37,0.7,0.4,0.6,4*35
$GNGSA,A,3,02,03,,,,,,,,,,,0.7,0.4,0.6,5*31
$GNVTG,,T,,M,0.0,N,0.0,K,A*3D
$GNDTM,P90,,0000.000025,S,00000.000001,W,0.982,W84*49
$GNRMC,043513.00,A,3726.937613,N,12639.233477,E,0.0,,210622,6.0,W,A,V*6E
$GNGNS,043513.00,3726.937613,N,12639.233477,E,AAAAAN,41,0.4,11.0,18.0,,,V*15
$GNGGA,043513.00,3726.937613,N,12639.233477,E,1,12,0.4,11.0,M,18.0,M,,*4C
$PSMSG,magcal=PASS,bluesky=0*00
$GPGSV,4,1,13,01,08,068,26,02,13,271,40,03,33,045,48,04,22,094,40,1*63
$GPGSV,4,2,13,06,51,292,48,09,21,129,47,11,16,265,34,12,11,320,31,1*65
$GPGSV,4,3,13,14,27,187,39,17,75,075,40,19,68,337,44,28,00,000,30,1*6F
$GPGSV,4,4,13,20,04,220,,1*50
$GLGSV,2,1,08,78,02,340,21,70,30,040,22,77,26,291,35,76,22,236,39,1*7E
$GLGSV,2,2,08,87,23,305,39,85,25,077,49,71,52,108,48,72,24,165,43,1*77
$GAGSV,3,1,09,01,21,310,40,03,24,067,42,07,05,171,27,08,29,125,42,7*7D
$GAGSV,3,2,09,13,63,337,44,15,35,061,40,21,43,257,37,26,23,277,39,7*77
$GAGSV,3,3,09,27,25,195,41,7*40
$GQGSV,1,1,03,02,26,180,37,03,79,080,41,04,00,000,43,1*5E
$GBGSV,5,1,17,37,08,216,33,33,47,068,44,32,07,194,39,30,05,295,22,1*78
$GBGSV,5,2,17,28,59,068,41,27,52,316,44,14,25,046,28,13,42,251,31,1*76
$GBGSV,5,3,17,10,65,251,37,08,52,257,32,07,65,216,39,04,35,130,37,1*77
$GBGSV,5,4,17,03,43,205,29,02,27,234,30,01,42,150,42,05,07,254,,1*7C
$GBGSV,5,5,17,36,04,314,,1*47
$GNGSA,A,3,01,02,03,04,06,09,11,12,14,17,19,,0.7,0.4,0.6,1*37
$GNGSA,A,3,70,71,72,76,77,85,87,,,,,,0.7,0.4,0.6,2*30
$GNGSA,A,3,01,03,07,08,13,15,21,26,27,,,,0.7,0.4,0.6,3*3F
$GNGSA,A,3,01,03,04,07,08,10,13,14,27,28,33,37,0.7,0.4,0.6,4*35
$GNGSA,A,3,02,03,,,,,,,,,,,0.7,0.4,0.6,5*31
$GNVTG,,T,,M,0.0,N,0.0,K,A*3D
$GNDTM,P90,,0000.000025,S,00000.000001,W,0.982,W84*49
$GNRMC,043514.00,A,3726.937611,N,12639.233480,E,0.0,,210622,6.0,W,A,V*63
$GNGNS,043514.00,3726.937611,N,12639.233480,E,AAAAAN,41,0.4,11.0,18.0,,,V*18
$GNGGA,043514.00,3726.937611,N,12639.233480,E,1,12,0.4,11.0,M,18.0,M,,*41
$PSMSG,magcal=PASS,bluesky=0*00
$GPGSV,4,1,13,01,08,068,26,02,13,271,40,03,33,045,48,04,22,094,43,1*60
$GPGSV,4,2,13,06,51,292,48,09,21,129,48,11,16,265,34,12,11,320,31,1*6A
$GPGSV,4,3,13,14,27,187,40,17,75,075,41,19,68,337,44,28,00,000,30,1*60
$GPGSV,4,4,13,20,04,220,,1*50
$GLGSV,2,1,08,78,02,340,21,70,30,040,24,77,26,291,36,76,22,236,38,1*7A
$GLGSV,2,2,08,87,23,305,41,85,25,077,50,71,52,108,49,72,24,165,46,1*74
$GAGSV,3,1,09,01,21,310,39,03,24,067,43,07,05,171,34,08,29,125,43,7*71
$GAGSV,3,2,09,13,63,337,44,15,35,061,41,21,43,257,38,26,23,277,39,7*79
$GAGSV,3,3,09,27,25,195,37,7*41
$GQGSV,1,1,03,02,26,180,40,03,79,080,40,04,00,000,43,1*5F
$GBGSV,5,1,17,37,08,216,33,33,47,068,44,32,07,194,39,30,05,295,22,1*78
$GBGSV,5,2,17,28,59,068,40,27,52,316,44,14,25,046,29,13,42,251,31,1*76
$GBGSV,5,3,17,10,65,251,38,08,52,257,32,07,65,216,40,04,35,130,38,1*79
$GBGSV,5,4,17,03,43,205,29,02,27,234,30,01,42,150,40,05,07,254,,1*7E
$GBGSV,5,5,17,36,04,314,,1*47
$GNGSA,A,3,01,02,03,04,06,09,11,12,14,17,19,,0.7,0.4,0.6,1*37
$GNGSA,A,3,70,71,72,76,77,85,87,,,,,,0.7,0.4,0.6,2*30
$GNGSA,A,3,01,03,07,08,13,15,21,26,27,,,,0.7,0.4,0.6,3*3F
$GNGSA,A,3,01,03,04,07,08,10,13,14,27,28,33,37,0.7,0.4,0.6,4*35
$GNGSA,A,3,02,03,,,,,,,,,,,0.7,0.4,0.6,5*31
$GNVTG,,T,,M,0.0,N,0.0,K,A*3D
$GNDTM,P90,,0000.000025,S,00000.000001,W,0.982,W84*49
$GNRMC,043515.00,A,3726.937610,N,12639.233482,E,0.0,,210622,6.0,W,A,V*61
$GNGNS,043515.00,3726.937610,N,12639.233482,E,AAAAAN,41,0.4,11.1,18.0,,,V*1B
$GNGGA,043515.00,3726.937610,N,12639.233482,E,1,12,0.4,11.1,M,18.0,M,,*42
$PSMSG,magcal=PASS,bluesky=0*00
$GPGSV,4,1,13,01,08,068,26,02,13,271,39,03,33,045,47,04,22,094,42,1*60
$GPGSV,4,2,13,06,51,292,48,09,21,129,47,11,16,265,31,12,11,320,30,1*61
$GPGSV,4,3,13,14,27,187,40,17,75,075,41,19,68,337,44,28,00,000,26,1*67
$GPGSV,4,4,13,20,04,220,,1*50
$GLGSV,2,1,08,78,02,340,21,70,30,040,24,77,26,291,36,76,22,236,37,1*75
$GLGSV,2,2,08,87,23,305,40,85,25,077,50,71,52,108,49,72,24,165,48,1*7B
$GAGSV,3,1,09,01,21,310,40,03,24,067,42,07,05,171,32,08,29,125,39,7*75
$GAGSV,3,2,09,13,63,337,44,15,35,061,41,21,43,257,37,26,23,277,39,7*76
$GAGSV,3,3,09,27,25,195,39,7*4F
$GQGSV,1,1,03,02,26,180,40,03,79,080,40,04,00,000,43,1*5F
$GBGSV,5,1,17,37,08,216,32,33,47,068,44,32,07,194,39,30,05,295,23,1*78
$GBGSV,5,2,17,28,59,068,40,27,52,316,44,14,25,046,28,13,42,251,31,1*77
$GBGSV,5,3,17,10,65,251,38,08,52,257,32,07,65,216,40,04,35,130,39,1*78
$GBGSV,5,4,17,03,43,205,30,02,27,234,30,01,42,150,41,05,07,254,,1*77
$GBGSV,5,5,17,36,04,314,,1*47
$GNGSA,A,3,01,02,03,04,06,09,11,12,14,17,19,,0.7,0.4,0.6,1*37
$GNGSA,A,3,70,71,72,76,77,85,87,,,,,,0.7,0.4,0.6,2*30
$GNGSA,A,3,01,03,07,08,13,15,21,26,27,,,,0.7,0.4,0.6,3*3F
$GNGSA,A,3,01,03,04,07,08,10,13,14,27,28,33,37,0.7,0.4,0.6,4*35
$GNGSA,A,3,02,03,,,,,,,,,,,0.7,0.4,0.6,5*31
$GNVTG,,T,,M,0.0,N,0.0,K,A*3D
$GNDTM,P90,,0000.000025,S,00000.000001,W,0.982,W84*49
$GNRMC,043516.00,A,3726.937608,N,12639.233483,E,0.0,,210622,6.0,W,A,V*6A
$GNGNS,043516.00,3726.937608,N,12639.233483,E,AAAAAN,41,0.4,11.1,18.0,,,V*10
$GNGGA,043516.00,3726.937608,N,12639.233483,E,1,12,0.4,11.1,M,18.0,M,,*49
$PSMSG,magcal=PASS,bluesky=0*00
$GPGSV,4,1,13,01,08,068,24,02,13,271,38,03,33,045,47,04,22,094,41,1*60
$GPGSV,4,2,13,06,51,292,48,09,21,129,48,11,16,265,32,12,11,320,29,1*65
$GPGSV,4,3,13,14,27,187,39,17,75,075,43,19,68,337,44,28,00,000,27,1*6A
$GPGSV,4,4,13,20,04,220,,1*50
$GLGSV,2,1,08,78,02,340,21,70,30,040,23,77,26,291,35,76,22,236,36,1*70
$GLGSV,2,2,08,87,23,305,39,85,25,077,50,71,52,108,49,72,24,165,45,1*78
$GAGSV,3,1,09,01,21,310,40,03,24,067,43,07,05,171,31,08,29,125,41,7*78
$GAGSV,3,2,09,13,63,337,44,15,35,061,40,21,43,257,37,26,23,277,38,7*76
$GAGSV,3,3,09,27,25,195,39,7*4F
$GQGSV,1,1,03,02,26,180,39,03,79,080,41,04,00,000,43,1*50
$GBGSV,5,1,17,37,08,216,32,33,47,068,43,32,07,194,39,30,05,295,23,1*7F
$GBGSV,5,2,17,28,59,068,40,27,52,316,44,14,25,046,28,13,42,251,31,1*77
$GBGSV,5,3,17,10,65,251,37,08,52,257,32,07,65,216,39,04,35,130,40,1*77
$GBGSV,5,4,17,03,43,205,30,02,27,234,30,01,42,150,42,05,07,254,,1*74
$GBGSV,5,5,17,36,04,314,,1*47
$GNGSA,A,3,01,02,03,04,06,09,11,12,14,17,19,,0.7,0.4,0.6,1*37
$GNGSA,A,3,70,71,72,76,77,85,87,,,,,,0.7,0.4,0.6,2*30
$GNGSA,A,3,01,03,07,08,13,15,21,26,27,,,,0.7,0.4,0.6,3*3F
$GNGSA,A,3,01,03,04,07,08,10,13,14,27,28,33,37,0.7,0.4,0.6,4*35
$GNGSA,A,3,02,03,,,,,,,,,,,0.7,0.4,0.6,5*31
$GNVTG,,T,,M,0.0,N,0.0,K,A*3D
$GNDTM,P90,,0000.000025,S,00000.000001,W,0.982,W84*49
$GNRMC,043517.00,A,3726.937605,N,12639.233486,E,0.0,,210622,6.0,W,A,V*63
$GNGNS,043517.00,3726.937605,N,12639.233486,E,AAAAAN,41,0.4,11.1,18.0,,,V*19
$GNGGA,043517.00,3726.937605,N,12639.233486,E,1,12,0.4,11.1,M,18.0,M,,*40
$PSMSG,magcal=PASS,bluesky=0*00
$GPGSV,4,1,13,01,08,068,24,02,13,271,37,03,33,045,47,04,22,094,40,1*6E
$GPGSV,4,2,13,06,51,292,48,09,21,129,47,11,16,265,32,12,11,320,28,1*6B
$GPGSV,4,3,13,14,27,187,39,17,75,075,41,19,68,337,43,28,00,000,28,1*60
$GPGSV,4,4,13,20,04,220,,1*50
$GLGSV,2,1,08,78,02,340,22,70,30,040,23,77,26,291,35,76,22,236,36,1*73
$GLGSV,2,2,08,87,23,305,40,85,25,077,50,71,52,108,49,72,24,165,46,1*75
$GAGSV,3,1,09,01,21,310,40,03,24,067,42,07,05,171,32,08,29,125,40,7*7B
$GAGSV,3,2,09,13,63,337,43,15,35,061,41,21,43,257,37,26,23,277,38,7*70
$GAGSV,3,3,09,27,25,195,38,7*4E
$GQGSV,1,1,03,02,26,180,39,03,79,080,40,04,00,000,43,1*51
$GBGSV,5,1,17,37,08,216,34,33,47,068,44,32,07,194,39,30,05,295,23,1*7E
$GBGSV,5,2,17,28,59,068,39,27,52,316,43,14,25,046,28,13,42,251,29,1*77
$GBGSV,5,3,17,10,65,251,36,08,52,257,32,07,65,216,39,04,35,130,38,1*79
$GBGSV,5,4,17,03,43,205,30,02,27,234,30,01,42,150,41,05,07,254,,1*77
$GBGSV,5,5,17,36,04,314,,1*47
$GNGSA,A,3,01,02,03,04,06,09,11,12,14,17,19,,0.7,0.4,0.6,1*37
$GNGSA,A,3,71,72,76,77,85,87,,,,,,,0.7,0.4,0.6,2*37
$GNGSA,A,3,01,03,07,08,13,15,21,26,27,,,,0.7,0.4,0.6,3*3F
$GNGSA,A,3,01,03,04,07,08,10,13,14,27,28,33,37,0.7,0.4,0.6,4*35
$GNGSA,A,3,02,03,,,,,,,,,,,0.7,0.4,0.6,5*31
$GNVTG,,T,,M,0.0,N,0.0,K,A*3D
$GNDTM,P90,,0000.000025,S,00000.000001,W,0.982,W84*49
$GNRMC,043518.00,A,3726.937605,N,12639.233488,E,0.0,,210622,6.0,W,A,V*62
$GNGNS,043518.00,3726.937605,N,12639.233488,E,AAAAAN,40,0.4,11.1,18.0,,,V*19
$GNGGA,043518.00,3726.937605,N,12639.233488,E,1,12,0.4,11.1,M,18.0,M,,*41
$PSMSG,magcal=PASS,bluesky=0*00
$GPGSV,4,1,13,01,08,068,26,02,13,271,37,03,33,045,48,04,22,094,40,1*63
$GPGSV,4,2,13,06,51,292,48,09,21,129,47,11,16,265,34,12,11,320,31,1*65
$GPGSV,4,3,13,14,27,187,38,17,75,075,42,19,68,337,43,28,00,000,25,1*6F
$GPGSV,4,4,13,20,04,220,,1*50
$GLGSV,2,1,08,78,02,340,22,70,30,040,24,77,26,291,35,76,22,236,38,1*7A
$GLGSV,2,2,08,87,23,305,40,85,25,077,50,71,52,108,49,72,24,165,46,1*75
$GAGSV,3,1,09,01,21,310,39,03,24,067,42,07,05,171,32,08,29,125,42,7*77
$GAGSV,3,2,09,13,63,337,44,15,35,061,42,21,43,257,38,26,23,277,39,7*7A
$GAGSV,3,3,09,27,25,195,38,7*4E
$GQGSV,1,1,03,02,26,180,39,03,79,080,40,04,00,000,43,1*51
$GBGSV,5,1,17,37,08,216,32,33,47,068,43,32,07,194,39,30,05,295,23,1*7F
$GBGSV,5,2,17,28,59,068,39,27,52,316,43,14,25,046,30,13,42,251,29,1*7E
$GBGSV,5,3,17,10,65,251,37,08,52,257,31,07,65,216,39,04,35,130,38,1*7B
$GBGSV,5,4,17,03,43,205,28,02,27,234,30,01,42,150,42,05,07,254,,1*7D
$GBGSV,5,5,17,36,04,314,,1*47
$GNGSA,A,3,01,02,03,04,06,09,11,12,14,17,19,,0.7,0.4,0.6,1*37
$GNGSA,A,3,71,72,76,77,85,87,,,,,,,0.7,0.4,0.6,2*37
$GNGSA,A,3,01,03,07,08,13,15,21,26,27,,,,0.7,0.4,0.6,3*3F
$GNGSA,A,3,01,03,04,07,08,10,13,14,27,28,33,37,0.7,0.4,0.6,4*35
$GNGSA,A,3,02,03,,,,,,,,,,,0.7,0.4,0.6,5*31
$GNVTG,,T,,M,0.0,N,0.0,K,A*3D
$GNDTM,P90,,0000.000025,S,00000.000001,W,0.982,W84*49
$GNRMC,043519.00,A,3726.937604,N,12639.233491,E,0.0,,210622,6.0,W,A,V*6A
$GNGNS,043519.00,3726.937604,N,12639.233491,E,AAAAAN,40,0.4,11.1,18.0,,,V*11
$GNGGA,043519.00,3726.937604,N,12639.233491,E,1,12,0.4,11.1,M,18.0,M,,*49
$PSMSG,magcal=PASS,bluesky=0*00
$GPGSV,4,1,13,01,08,068,26,02,13,271,38,03,33,045,48,04,22,094,40,1*6C
$GPGSV,4,2,13,06,51,292,48,09,21,129,47,11,16,265,32,12,11,320,32,1*60
$GPGSV,4,3,13,14,27,187,38,17,75,075,42,19,68,337,43,28,00,000,25,1*6F
$GPGSV,4,4,13,20,04,220,,1*50
$GLGSV,2,1,08,78,02,340,22,70,30,040,25,77,26,291,35,76,22,236,36,1*75
$GLGSV,2,2,08,87,23,305,40,85,25,077,50,71,52,108,49,72,24,165,46,1*75
$GAGSV,3,1,09,01,21,310,40,03,24,067,43,07,05,171,32,08,29,125,39,7*74
$GAGSV,3,2,09,13,63,337,43,15,35,061,42,21,43,257,37,26,23,277,39,7*72
$GAGSV,3,3,09,27,25,195,39,7*4F
$GQGSV,1,1,03,02,26,180,39,03,79,080,40,04,00,000,42,1*50
$GBGSV,5,1,17,37,08,216,30,33,47,068,44,32,07,194,39,30,05,295,22,1*7B
$GBGSV,5,2,17,28,59,068,39,27,52,316,44,14,25,046,29,13,42,251,30,1*79
$GBGSV,5,3,17,10,65,251,38,08,52,257,32,07,65,216,40,04,35,130,39,1*78
$GBGSV,5,4,17,03,43,205,28,02,27,234,30,01,42,150,42,05,07,254,,1*7D
$GBGSV,5,5,17,36,04,314,,1*47
$GNGSA,A,3,01,02,03,04,06,09,11,12,14,17,19,,0.7,0.4,0.6,1*37
$GNGSA,A,3,71,72,76,77,85,87,,,,,,,0.7,0.4,0.6,2*37
$GNGSA,A,3,01,03,07,08,13,15,21,26,27,,,,0.7,0.4,0.6,3*3F
$GNGSA,A,3,01,03,04,07,08,10,13,14,27,28,33,37,0.7,0.4,0.6,4*35
$GNGSA,A,3,02,03,,,,,,,,,,,0.7,0.4,0.6,5*31
$GNVTG,,T,,M,0.0,N,0.0,K,A*3D
$GNDTM,P90,,0000.000025,S,00000.000001,W,0.982,W84*49
$GNRMC,043520.00,A,3726.937604,N,12639.233491,E,0.0,,210622,6.0,W,A,V*60
$GNGNS,043520.00,3726.937604,N,12639.233491,E,AAAAAN,40,0.4,11.1,18.0,,,V*1B
$GNGGA,043520.00,3726.937604,N,12639.233491,E,1,12,0.4,11.1,M,18.0,M,,*43
$PSMSG,magcal=PASS,bluesky=0*00
$GPGSV,4,1,13,01,08,068,24,02,13,271,38,03,33,045,48,04,22,094,39,1*60
$GPGSV,4,2,13,06,51,292,47,09,21,129,49,11,16,265,31,12,11,320,28,1*69
$GPGSV,4,3,13,14,27,187,38,17,75,075,42,19,68,337,43,28,00,000,23,1*69
$GPGSV,4,4,13,20,04,220,,1*50
$GLGSV,2,1,08,78,02,340,19,70,30,040,23,77,26,291,35,76,22,236,39,1*74
$GLGSV,2,2,08,87,23,305,39,85,25,077,50,71,52,108,49,72,24,165,45,1*78
$GAGSV,3,1,09,01,21,310,40,03,24,067,42,07,05,171,33,08,29,125,40,7*7A
$GAGSV,3,2,09,13,63,337,43,15,35,061,42,21,43,257,37,26,23,277,39,7*72
$GAGSV,3,3,09,27,25,195,39,7*4F
$GQGSV,1,1,03,02,26,180,40,03,79,080,40,04,00,000,42,1*5E
$GBGSV,5,1,17,37,08,216,30,33,47,068,44,32,07,194,39,30,05,295,23,1*7A
$GBGSV,5,2,17,28,59,068,41,27,52,316,44,14,25,046,29,13,42,251,30,1*76
$GBGSV,5,3,17,10,65,251,38,08,52,257,32,07,65,216,39,04,35,130,39,1*76
$GBGSV,5,4,17,03,43,205,28,02,27,234,30,01,42,150,42,05,07,254,,1*7D
$GBGSV,5,5,17,36,04,314,,1*47
$GNGSA,A,3,01,02,03,04,06,09,11,12,14,17,19,,0.7,0.4,0.6,1*37
$GNGSA,A,3,71,72,76,77,85,87,,,,,,,0.7,0.4,0.6,2*37
$GNGSA,A,3,01,03,07,08,13,15,21,26,27,,,,0.7,0.4,0.6,3*3F
$GNGSA,A,3,01,03,04,07,08,10,13,14,27,28,33,37,0.7,0.4,0.6,4*35
$GNGSA,A,3,02,03,,,,,,,,,,,0.7,0.4,0.6,5*31
$GNVTG,,T,,M,0.0,N,0.0,K,A*3D
$GNDTM,P90,,0000.000025,S,00000.000001,W,0.982,W84*49
$GNRMC,043521.00,A,3726.937602,N,12639.233492,E,0.0,,210622,6.0,W,A,V*64
$GNGNS,043521.00,3726.937602,N,12639.233492,E,AAAAAN,40,0.4,11.1,18.0,,,V*1F
$GNGGA,043521.00,3726.937602,N,12639.233492,E,1,12,0.4,11.1,M,18.0,M,,*47
$PSMSG,magcal=PASS,bluesky=0*00
$GPGSV,4,1,13,01,08,068,24,02,13,271,37,03,33,045,48,04,22,094,39,1*6F
$GPGSV,4,2,13,06,51,292,47,09,21,129,47,11,16,265,31,12,11,320,29,1*66
$GPGSV,4,3,13,14,27,187,38,17,75,075,43,19,68,337,43,28,00,000,24,1*6F
$GPGSV,4,4,13,20,04,220,,1*50
$GLGSV,2,1,08,78,02,340,19,70,30,040,24,77,26,291,35,76,22,236,39,1*73
$GLGSV,2,2,08,87,23,305,40,85,25,077,50,71,52,108,50,72,24,165,45,1*7E
$GAGSV,3,1,09,01,21,310,39,03,24,067,42,07,05,171,33,08,29,125,42,7*76
$GAGSV,3,2,09,13,63,337,43,15,35,061,42,21,43,257,37,26,23,277,40,7*7C
$GAGSV,3,3,09,27,25,195,40,7*41
$GQGSV,1,1,03,02,26,180,40,03,79,080,39,04,00,000,43,1*51
$GBGSV,5,1,17,37,08,216,34,33,47,068,44,32,07,194,39,30,05,295,31,1*7D
$GBGSV,5,2,17,28,59,068,39,27,52,316,44,14,25,046,29,13,42,251,28,1*70
$GBGSV,5,3,17,10,65,251,38,08,52,257,33,07,65,216,39,04,35,130,39,1*77
$GBGSV,5,4,17,03,43,205,28,01,42,150,42,02,27,234,,05,07,254,,1*7E
$GBGSV,5,5,17,36,04,314,,1*47
$GNGSA,A,3,01,02,03,04,06,09,11,12,14,17,19,,0.7,0.4,0.6,1*37
$GNGSA,A,3,71,72,76,77,85,87,,,,,,,0.7,0.4,0.6,2*37
$GNGSA,A,3,01,03,07,08,13,15,21,26,27,,,,0.7,0.4,0.6,3*3F
$GNGSA,A,3,01,03,04,07,08,10,13,14,27,28,33,37,0.7,0.4,0.6,4*35
$GNGSA,A,3,02,03,,,,,,,,,,,0.7,0.4,0.6,5*31
$GNVTG,,T,,M,0.0,N,0.0,K,A*3D
$GNDTM,P90,,0000.000025,S,00000.000001,W,0.982,W84*49
$GNRMC,043522.00,A,3726.937601,N,12639.233494,E,0.0,,210622,6.0,W,A,V*62
$GNGNS,043522.00,3726.937601,N,12639.233494,E,AAAAAN,40,0.4,11.1,18.0,,,V*19
$GNGGA,043522.00,3726.937601,N,12639.233494,E,1,12,0.4,11.1,M,18.0,M,,*41
$PSMSG,magcal=PASS,bluesky=0*00
$GPGSV,4,1,13,01,08,068,24,02,13,271,36,03,33,045,47,04,22,094,39,1*61
$GPGSV,4,2,13,06,51,292,47,09,21,129,48,11,16,265,35,12,11,320,31,1*64
$GPGSV,4,3,13,14,27,187,38,17,75,075,43,19,68,337,43,28,00,000,26,1*6D
$GPGSV,4,4,13,20,04,220,,1*50
$GLGSV,2,1,08,78,02,340,19,70,30,040,24,77,26,291,35,76,22,236,37,1*7D
$GLGSV,2,2,08,87,23,305,40,85,25,077,50,71,52,108,50,72,24,165,45,1*7E
$GAGSV,3,1,09,01,21,310,40,03,24,067,43,07,05,171,34,08,29,125,40,7*7C
$GAGSV,3,2,09,13,63,337,44,15,35,061,42,21,43,257,38,26,23,277,39,7*7A
$GAGSV,3,3,09,27,25,195,40,7*41
$GQGSV,1,1,03,02,26,180,40,03,79,080,41,04,00,000,43,1*5E
$GBGSV,5,1,17,37,08,216,33,33,47,068,43,32,07,194,39,30,05,295,29,1*74
$GBGSV,5,2,17,28,59,068,40,27,52,316,43,14,25,046,29,13,42,251,29,1*78
$GBGSV,5,3,17,10,65,251,38,08,52,257,33,07,65,216,38,04,35,130,39,1*76
$GBGSV,5,4,17,03,43,205,28,01,42,150,42,02,27,234,,05,07,254,,1*7E
$GBGSV,5,5,17,36,04,314,,1*47
$GNGSA,A,3,01,02,03,04,06,09,11,12,14,17,19,,0.7,0.4,0.6,1*37
$GNGSA,A,3,71,72,76,77,85,87,,,,,,,0.7,0.4,0.6,2*37
$GNGSA,A,3,01,03,07,08,13,15,21,26,27,,,,0.7,0.4,0.6,3*3F
$GNGSA,A,3,01,03,04,07,08,10,13,14,27,28,33,37,0.7,0.4,0.6,4*35
$GNGSA,A,3,02,03,,,,,,,,,,,0.7,0.4,0.6,5*31
$GNVTG,,T,,M,0.0,N,0.0,K,A*3D
$GNDTM,P90,,0000.000025,S,00000.000001,W,0.982,W84*49
$GNRMC,043523.00,A,3726.937601,N,12639.233494,E,0.0,,210622,6.0,W,A,V*63
$GNGNS,043523.00,3726.937601,N,12639.233494,E,AAAAAN,40,0.4,11.1,18.0,,,V*18
$GNGGA,043523.00,3726.937601,N,12639.233494,E,1,12,0.4,11.1,M,18.0,M,,*40
$PSMSG,magcal=PASS,bluesky=0*00
$GPGSV,4,1,13,01,08,068,23,02,13,271,35,03,33,045,48,04,22,094,36,1*65
$GPGSV,4,2,13,06,51,292,47,09,21,129,47,11,16,265,31,12,11,320,29,1*66
$GPGSV,4,3,13,14,27,187,38,17,75,075,42,19,68,337,44,28,00,000,28,1*65
$GPGSV,4,4,13,20,04,220,,1*50
$GLGSV,2,1,08,78,02,340,19,70,30,040,23,77,26,291,34,76,22,236,38,1*74
$GLGSV,2,2,08,87,23,305,39,85,25,077,50,71,52,108,50,72,24,165,45,1*70
$GAGSV,3,1,09,01,21,310,40,03,24,067,43,07,05,171,33,08,29,125,40,7*7B
$GAGSV,3,2,09,13,63,337,43,15,35,061,42,21,43,257,38,26,23,277,39,7*7D
$GAGSV,3,3,09,27,25,195,40,7*41
$GQGSV,1,1,03,02,26,180,40,03,79,080,41,04,00,000,43,1*5E
$GBGSV,5,1,17,37,08,216,32,33,47,068,43,32,07,194,39,30,05,295,31,1*7C
$GBGSV,5,2,17,28,59,068,40,27,52,316,43,14,25,046,28,13,42,251,31,1*70
$GBGSV,5,3,17,10,65,251,38,08,52,257,33,07,65,216,39,04,35,130,39,1*77
$GBGSV,5,4,17,03,43,205,28,01,42,150,42,02,27,234,,05,07,254,,1*7E
$GBGSV,5,5,17,36,04,314,,1*47
$GNGSA,A,3,01,02,03,04,06,09,11,12,14,17,19,,0.7,0.4,0.6,1*37
$GNGSA,A,3,71,72,76,77,85,87,,,,,,,0.7,0.4,0.6,2*37
$GNGSA,A,3,01,03,07,08,13,15,21,26,27,,,,0.7,0.4,0.6,3*3F
$GNGSA,A,3,01,03,04,07,08,10,13,14,27,28,33,37,0.7,0.4,0.6,4*35
$GNGSA,A,3,02,03,,,,,,,,,,,0.7,0.4,0.6,5*31
$GNVTG,,T,,M,0.0,N,0.0,K,A*3D
$GNDTM,P90,,0000.000025,S,00000.000001,W,0.982,W84*49
$GNRMC,043524.00,A,3726.937601,N,12639.233495,E,0.0,,210622,6.0,W,A,V*65
$GNGNS,043524.00,3726.937601,N,12639.233495,E,AAAAAN,40,0.4,11.1,18.0,,,V*1E
$GNGGA,043524.00,3726.937601,N,12639.233495,E,1,12,0.4,11.1,M,18.0,M,,*46
$PSMSG,magcal=PASS,bluesky=0*00
$GPGSV,4,1,13,01,08,068,23,02,13,271,36,03,33,045,48,04,22,094,37,1*67
$GPGSV,4,2,13,06,51,292,47,09,21,129,47,11,16,265,33,12,11,320,30,1*6C
$GPGSV,4,3,13,14,27,187,38,17,75,075,42,19,68,337,44,28,00,000,29,1*64
$GPGSV,4,4,13,20,04,220,,1*50
$GLGSV,2,1,08,78,02,340,20,70,30,040,23,77,26,291,34,76,22,236,37,1*71
$GLGSV,2,2,08,87,23,305,40,85,25,077,50,71,52,108,49,72,24,165,45,1*76
$GAGSV,3,1,09,01,21,310,40,03,24,067,43,07,05,171,33,08,29,125,40,7*7B
$GAGSV,3,2,09,13,63,337,43,15,35,061,42,21,43,257,37,26,23,277,39,7*72
$GAGSV,3,3,09,27,25,195,40,7*41
$GQGSV,1,1,03,02,26,180,40,03,79,080,40,04,00,000,43,1*5F
$GBGSV,5,1,17,37,08,216,32,33,47,068,43,32,07,194,40,30,05,295,30,1*73
$GBGSV,5,2,17,28,59,068,40,27,52,316,44,14,25,046,28,13,42,251,29,1*7E
$GBGSV,5,3,17,10,65,251,38,08,52,257,33,07,65,216,39,04,35,130,39,1*77
$GBGSV,5,4,17,03,43,205,29,01,42,150,42,02,27,234,,05,07,254,,1*7F
$GBGSV,5,5,17,36,04,314,,1*47
$GNGSA,A,3,01,02,03,04,06,09,11,12,14,17,19,,0.7,0.4,0.6,1*37
$GNGSA,A,3,71,72,76,77,85,87,,,,,,,0.7,0.4,0.6,2*37
$GNGSA,A,3,01,03,07,08,13,15,21,26,27,,,,0.7,0.4,0.6,3*3F
$GNGSA,A,3,01,03,04,07,08,10,13,14,27,28,33,37,0.7,0.4,0.6,4*35
$GNGSA,A,3,02,03,,,,,,,,,,,0.7,0.4,0.6,5*31
$GNVTG,,T,,M,0.0,N,0.0,K,A*3D
$GNDTM,P90,,0000.000025,S,00000.000001,W,0.982,W84*49
$GNRMC,043525.00,A,3726.937600,N,12639.233495,E,0.0,,210622,6.0,W,A,V*65
$GNGNS,043525.00,3726.937600,N,12639.233495,E,AAAAAN,40,0.4,11.1,18.0,,,V*1E
$GNGGA,043525.00,3726.937600,N,12639.233495,E,1,12,0.4,11.1,M,18.0,M,,*46
$PSMSG,magcal=PASS,bluesky=0*00
$GPGSV,4,1,13,02,13,271,37,03,33,045,47,04,22,094,38,06,51,292,47,1*68
$GPGSV,4,2,13,09,21,129,48,11,16,265,30,12,11,320,30,14,27,187,38,1*6D
$GPGSV,4,3,13,17,75,075,41,19,68,337,43,28,00,000,29,01,08,068,,1*62
$GPGSV,4,4,13,20,04,220,,1*50
$GLGSV,2,1,08,78,02,340,23,70,30,040,24,77,26,291,34,76,22,236,36,1*74
$GLGSV,2,2,08,87,23,305,39,85,25,077,50,71,52,108,49,72,24,165,45,1*78
$GAGSV,3,1,09,01,21,310,40,03,24,067,42,07,05,171,33,08,29,125,40,7*7A
$GAGSV,3,2,09,13,63,337,43,15,35,061,42,21,43,257,38,26,23,277,39,7*7D
$GAGSV,3,3,09,27,25,195,40,7*41
$GQGSV,1,1,03,02,26,180,40,03,79,080,41,04,00,000,43,1*5E
$GBGSV,5,1,17,37,08,216,31,33,47,068,43,32,07,194,40,30,05,295,29,1*78
$GBGSV,5,2,17,28,59,068,40,27,52,316,44,14,25,046,28,13,42,251,30,1*76
$GBGSV,5,3,17,10,65,251,38,08,52,257,33,07,65,216,39,04,35,130,39,1*77
$GBGSV,5,4,17,03,43,205,29,02,27,234,27,01,42,150,42,05,07,254,,1*7A
$GBGSV,5,5,17,36,04,314,,1*47
$GNGSA,A,3,02,03,04,06,09,11,12,14,17,19,,,0.7,0.4,0.6,1*36
$GNGSA,A,3,71,72,76,77,85,87,,,,,,,0.7,0.4,0.6,2*37
$GNGSA,A,3,01,03,07,08,13,15,21,26,27,,,,0.7,0.4,0.6,3*3F
$GNGSA,A,3,01,02,03,04,07,08,10,13,14,27,28,33,0.7,0.4,0.6,4*33
$GNGSA,A,3,02,03,,,,,,,,,,,0.7,0.4,0.6,5*31
$GNVTG,,T,,M,0.0,N,0.0,K,A*3D
$GNDTM,P90,,0000.000025,S,00000.000001,W,0.982,W84*49
$GNRMC,043526.00,A,3726.937598,N,12639.233497,E,0.0,,210622,6.0,W,A,V*66
$GNGNS,043526.00,3726.937598,N,12639.233497,E,AAAAAN,40,0.4,11.1,18.0,,,V*1D
$GNGGA,043526.00,3726.937598,N,12639.233497,E,1,12,0.4,11.1,M,18.0,M,,*45
$PSMSG,magcal=PASS,bluesky=0*00
$GPGSV,4,1,13,02,13,271,37,03,33,045,47,04,22,094,40,06,51,292,47,1*67
$GPGSV,4,2,13,09,21,129,48,11,16,265,29,12,11,320,31,14,27,187,36,1*6A
$GPGSV,4,3,13,17,75,075,41,19,68,337,44,28,00,000,26,01,08,068,,1*6A
$GPGSV,4,4,13,20,04,220,,1*50
$GLGSV,2,1,08,78,02,340,24,70,30,040,26,77,26,291,35,76,22,236,34,1*72
$GLGSV,2,2,08,87,23,305,39,85,25,077,50,71,52,108,49,72,24,165,45,1*78
$GAGSV,3,1,09,01,21,310,40,03,24,067,43,07,05,171,33,08,29,125,38,7*74
$GAGSV,3,2,09,13,63,337,43,15,35,061,41,21,43,257,39,26,23,277,40,7*71
$GAGSV,3,3,09,27,25,195,40,7*41
$GQGSV,1,1,03,02,26,180,39,03,79,080,41,04,00,000,43,1*50
$GBGSV,5,1,17,37,08,216,31,33,47,068,43,32,07,194,40,30,05,295,28,1*79
$GBGSV,5,2,17,28,59,068,39,27,52,316,44,14,25,046,27,13,42,251,28,1*7E
$GBGSV,5,3,17,10,65,251,38,08,52,257,33,07,65,216,39,04,35,130,39,1*77
$GBGSV,5,4,17,03,43,205,29,02,27,234,27,01,42,150,43,05,07,254,,1*7B
$GBGSV,5,5,17,36,04,314,,1*47
$GNGSA,A,3,02,03,04,06,09,11,12,14,17,19,,,0.7,0.4,0.6,1*36
$GNGSA,A,3,70,71,72,76,77,85,87,,,,,,0.7,0.4,0.6,2*30
$GNGSA,A,3,01,03,07,08,13,15,21,26,27,,,,0.7,0.4,0.6,3*3F
$GNGSA,A,3,01,02,03,04,07,08,10,13,14,27,28,33,0.7,0.4,0.6,4*33
$GNGSA,A,3,02,03,,,,,,,,,,,0.7,0.4,0.6,5*31
$GNVTG,,T,,M,0.0,N,0.0,K,A*3D
$GNDTM,P90,,0000.000025,S,00000.000001,W,0.982,W84*49
$GNRMC,043527.00,A,3726.937596,N,12639.233499,E,0.0,,210622,6.0,W,A,V*67
$GNGNS,043527.00,3726.937596,N,12639.233499,E,AAAAAN,41,0.4,11.1,18.0,,,V*1D
$GNGGA,043527.00,3726.937596,N,12639.233499,E,1,12,0.4,11.1,M,18.0,M,,*44
$PSMSG,magcal=PASS,bluesky=0*00
$GPGSV,4,1,13,02,13,271,37,03,33,045,47,04,22,094,40,06,51,292,47,1*67
$GPGSV,4,2,13,09,21,129,48,11,16,265,29,12,11,320,31,14,27,187,34,1*68
$GPGSV,4,3,13,17,75,075,42,19,68,337,43,28,00,000,27,01,08,068,,1*6F
$GPGSV,4,4,13,20,04,220,,1*50
$GLGSV,2,1,08,78,02,340,24,70,30,040,26,77,26,291,35,76,22,236,33,1*75
$GLGSV,2,2,08,87,23,305,40,85,25,077,50,71,52,108,49,72,24,165,45,1*76
$GAGSV,3,1,09,01,21,310,40,03,24,067,43,07,05,171,33,08,29,125,39,7*75
$GAGSV,3,2,09,13,63,337,43,15,35,061,42,21,43,257,38,26,23,277,39,7*7D
$GAGSV,3,3,09,27,25,195,40,7*41
$GQGSV,1,1,03,02,26,180,39,03,79,080,41,04,00,000,43,1*50
$GBGSV,5,1,17,37,08,216,32,33,47,068,43,32,07,194,40,30,05,295,29,1*7B
$GBGSV,5,2,17,28,59,068,39,27,52,316,44,14,25,046,27,13,42,251,27,1*71
$GBGSV,5,3,17,10,65,251,39,08,52,257,34,07,65,216,38,04,35,130,39,1*70
$GBGSV,5,4,17,03,43,205,29,02,27,234,27,01,42,150,43,05,07,254,,1*7B
$GBGSV,5,5,17,36,04,314,,1*47
$GNGSA,A,3,02,03,04,06,09,11,12,14,17,19,,,0.7,0.4,0.6,1*36
$GNGSA,A,3,70,71,72,76,77,85,87,,,,,,0.7,0.4,0.6,2*30
$GNGSA,A,3,01,03,07,08,13,15,21,26,27,,,,0.7,0.4,0.6,3*3F
$GNGSA,A,3,01,02,03,04,07,08,10,13,14,27,28,33,0.7,0.4,0.6,4*33
$GNGSA,A,3,02,03,,,,,,,,,,,0.7,0.4,0.6,5*31
$GNVTG,,T,,M,0.0,N,0.0,K,A*3D
$GNDTM,P90,,0000.000025,S,00000.000001,W,0.982,W84*49
$GNRMC,043528.00,A,3726.937591,N,12639.233501,E,0.0,,210622,6.0,W,A,V*6F
$GNGNS,043528.00,3726.937591,N,12639.233501,E,AAAAAN,41,0.4,11.1,18.0,,,V*15
$GNGGA,043528.00,3726.937591,N,12639.233501,E,1,12,0.4,11.1,M,18.0,M,,*4C
$PSMSG,magcal=PASS,bluesky=0*00
$GPGSV,4,1,13,02,13,271,38,03,33,045,47,04,22,094,40,06,51,292,47,1*68
$GPGSV,4,2,13,09,21,129,48,11,16,265,25,12,11,320,31,14,27,187,34,1*64
$GPGSV,4,3,13,17,75,075,42,19,68,337,43,28,00,000,27,01,08,068,,1*6F
$GPGSV,4,4,13,20,04,220,,1*50
$GLGSV,2,1,08,78,02,340,24,70,30,040,26,77,26,291,34,76,22,236,32,1*75
$GLGSV,2,2,08,87,23,305,40,85,25,077,50,71,52,108,49,72,24,165,45,1*76
$GAGSV,3,1,09,01,21,310,40,03,24,067,43,07,05,171,33,08,29,125,39,7*75
$GAGSV,3,2,09,13,63,337,43,15,35,061,42,21,43,257,37,26,23,277,39,7*72
$GAGSV,3,3,09,27,25,195,41,7*40
$GQGSV,1,1,03,02,26,180,39,03,79,080,41,04,00,000,43,1*50
$GBGSV,5,1,17,37,08,216,33,33,47,068,43,32,07,194,40,30,05,295,29,1*7A
$GBGSV,5,2,17,28,59,068,40,27,52,316,44,14,25,046,27,13,42,251,30,1*79
$GBGSV,5,3,17,10,65,251,39,08,52,257,33,07,65,216,39,04,35,130,39,1*76
$GBGSV,5,4,17,03,43,205,29,02,27,234,27,01,42,150,42,05,07,254,,1*7A
$GBGSV,5,5,17,36,04,314,,1*47
$GNGSA,A,3,02,03,04,06,09,11,12,14,17,19,,,0.7,0.4,0.6,1*36
$GNGSA,A,3,70,71,72,76,77,85,87,,,,,,0.7,0.4,0.6,2*30
$GNGSA,A,3,01,03,07,08,13,15,21,26,27,,,,0.7,0.4,0.6,3*3F
$GNGSA,A,3,01,02,03,04,07,08,10,13,14,27,28,33,0.7,0.4,0.6,4*33
$GNGSA,A,3,02,03,,,,,,,,,,,0.7,0.4,0.6,5*31
$GNVTG,,T,,M,0.0,N,0.0,K,A*3D
$GNDTM,P90,,0000.000025,S,00000.000001,W,0.982,W84*49
$GNRMC,043529.00,A,3726.937587,N,12639.233503,E,0.0,,210622,6.0,W,A,V*6B
$GNGNS,043529.00,3726.937587,N,12639.233503,E,AAAAAN,41,0.4,11.1,18.0,,,V*11
$GNGGA,043529.00,3726.937587,N,12639.233503,E,1,12,0.4,11.1,M,18.0,M,,*48
$PSMSG,magcal=PASS,bluesky=0*00
$GPGSV,4,1,13,01,08,068,22,02,13,271,39,03,33,045,48,04,22,094,40,1*69
$GPGSV,4,2,13,06,51,292,47,09,21,129,48,11,16,265,26,12,11,320,30,1*67
$GPGSV,4,3,13,14,27,187,34,17,75,075,42,19,68,337,42,28,00,000,25,1*62
$GPGSV,4,4,13,20,04,220,,1*50
$GLGSV,2,1,08,78,02,340,23,70,30,040,26,77,26,291,35,76,22,236,32,1*73
$GLGSV,2,2,08,87,23,305,40,85,25,077,50,71,52,108,49,72,24,165,45,1*76
$GAGSV,3,1,09,01,21,310,41,03,24,067,42,07,05,171,33,08,29,125,39,7*75
$GAGSV,3,2,09,13,63,337,43,15,35,061,42,21,43,257,38,26,23,277,39,7*7D
$GAGSV,3,3,09,27,25,195,41,7*40
$GQGSV,1,1,03,02,26,180,39,03,79,080,41,04,00,000,43,1*50
$GBGSV,5,1,17,37,08,216,32,33,47,068,43,32,07,194,40,30,05,295,28,1*7A
$GBGSV,5,2,17,28,59,068,40,27,52,316,44,14,25,046,27,13,42,251,32,1*7B
$GBGSV,5,3,17,10,65,251,38,08,52,257,31,07,65,216,39,04,35,130,39,1*75
$GBGSV,5,4,17,03,43,205,29,02,27,234,27,01,42,150,42,05,07,254,,1*7A
$GBGSV,5,5,17,36,04,314,,1*47
$GNGSA,A,3,02,03,04,06,09,11,12,14,17,19,,,0.7,0.4,0.6,1*36
$GNGSA,A,3,70,71,72,76,77,85,87,,,,,,0.7,0.4,0.6,2*30
$GNGSA,A,3,01,03,07,08,13,15,21,26,27,,,,0.7,0.4,0.6,3*3F
$GNGSA,A,3,01,02,03,04,07,08,10,13,14,27,28,33,0.7,0.4,0.6,4*33
$GNGSA,A,3,02,03,,,,,,,,,,,0.7,0.4,0.6,5*31
$GNVTG,,T,,M,0.0,N,0.0,K,A*3D
$GNDTM,P90,,0000.000025,S,00000.000001,W,0.982,W84*49
$GNRMC,043530.00,A,3726.937585,N,12639.233504,E,0.0,,210622,6.0,W,A,V*66
$GNGNS,043530.00,3726.937585,N,12639.233504,E,AAAAAN,41,0.4,11.1,18.0,,,V*1C
$GNGGA,043530.00,3726.937585,N,12639.233504,E,1,12,0.4,11.1,M,18.0,M,,*45
$PSMSG,magcal=PASS,bluesky=0*00
$GPGSV,4,1,13,01,08,068,22,02,13,271,38,03,33,045,48,04,22,094,40,1*68
$GPGSV,4,2,13,06,51,292,47,09,21,129,48,11,16,265,30,12,11,320,30,1*60
$GPGSV,4,3,13,14,27,187,33,17,75,075,41,19,68,337,42,28,00,000,25,1*66
$GPGSV,4,4,13,20,04,220,,1*50
$GLGSV,2,1,08,78,02,340,23,70,30,040,26,77,26,291,34,76,22,236,33,1*73
$GLGSV,2,2,08,87,23,305,40,85,25,077,51,71,52,108,49,72,24,165,45,1*77
$GAGSV,3,1,09,01,21,310,40,03,24,067,43,07,05,171,33,08,29,125,39,7*75
$GAGSV,3,2,09,13,63,337,43,15,35,061,42,21,43,257,37,26,23,277,39,7*72
$GAGSV,3,3,09,27,25,195,41,7*40
$GQGSV,1,1,03,02,26,180,40,03,79,080,41,04,00,000,43,1*5E
$GBGSV,5,1,17,37,08,216,33,33,47,068,43,32,07,194,40,30,05,295,29,1*7A
$GBGSV,5,2,17,28,59,068,40,27,52,316,44,14,25,046,27,13,42,251,32,1*7B
$GBGSV,5,3,17,10,65,251,39,08,52,257,32,07,65,216,39,04,35,130,39,1*77
$GBGSV,5,4,17,03,43,205,29,02,27,234,27,01,42,150,42,05,07,254,,1*7A
$GBGSV,5,5,17,36,04,314,,1*47
$GNGSA,A,3,02,03,04,06,09,11,12,14,17,19,,,0.7,0.4,0.6,1*36
$GNGSA,A,3,70,71,72,76,77,85,87,,,,,,0.7,0.4,0.6,2*30
$GNGSA,A,3,01,03,07,08,13,15,21,26,27,,,,0.7,0.4,0.6,3*3F
$GNGSA,A,3,01,02,03,04,07,08,10,13,14,27,28,33,0.7,0.4,0.6,4*33
$GNGSA,A,3,02,03,,,,,,,,,,,0.7,0.4,0.6,5*31
$GNVTG,,T,,M,0.0,N,0.0,K,A*3D
$GNDTM,P90,,0000.000025,S,00000.000001,W,0.982,W84*49
$GNRMC,043531.00,A,3726.937583,N,12639.233504,E,0.0,,210622,6.0,W,A,V*61
$GNGNS,043531.00,3726.937583,N,12639.233504,E,AAAAAN,41,0.4,11.1,18.0,,,V*1B
$GNGGA,043531.00,3726.937583,N,12639.233504,E,1,12,0.4,11.1,M,18.0,M,,*42
$PSMSG,magcal=PASS,bluesky=0*00
$GPGSV,4,1,13,01,08,068,23,02,13,271,38,03,33,045,48,04,22,094,40,1*69
$GPGSV,4,2,13,06,51,292,47,09,21,129,47,11,16,265,31,12,11,320,30,1*6E
$GPGSV,4,3,13,14,27,187,33,17,75,075,42,19,68,337,42,28,00,000,23,1*63
$GPGSV,4,4,13,20,04,220,,1*50
$GLGSV,2,1,08,78,02,340,23,70,30,040,27,77,26,291,34,76,22,236,34,1*75
$GLGSV,2,2,08,87,23,305,39,85,25,077,51,71,52,108,50,72,24,165,44,1*70
$GAGSV,3,1,09,01,21,310,41,03,24,067,43,07,05,171,33,08,29,125,38,7*75
$GAGSV,3,2,09,13,63,337,43,15,35,061,42,21,43,257,38,26,23,277,39,7*7D
$GAGSV,3,3,09,27,25,195,42,7*43
$GQGSV,1,1,03,02,26,180,40,03,79,080,41,04,00,000,43,1*5E
$GBGSV,5,1,17,37,08,216,32,33,47,068,44,32,07,194,40,30,05,295,29,1*7C
$GBGSV,5,2,17,28,59,068,40,27,52,316,44,14,25,046,28,13,42,251,31,1*77
$GBGSV,5,3,17,10,65,251,39,08,52,257,32,07,65,216,38,04,35,130,39,1*76
$GBGSV,5,4,17,03,43,205,29,01,42,150,43,02,27,234,,05,07,254,,1*7E
$GBGSV,5,5,17,36,04,314,,1*47
$GNGSA,A,3,02,03,04,06,09,11,12,14,17,19,,,0.7,0.4,0.6,1*36
$GNGSA,A,3,70,71,72,76,77,85,87,,,,,,0.7,0.4,0.6,2*30
$GNGSA,A,3,01,03,07,08,13,15,21,26,27,,,,0.7,0.4,0.6,3*3F
$GNGSA,A,3,01,02,03,04,07,08,10,13,14,27,28,33,0.7,0.4,0.6,4*33
$GNGSA,A,3,02,03,,,,,,,,,,,0.7,0.4,0.6,5*31
$GNVTG,,T,,M,0.0,N,0.0,K,A*3D
$GNDTM,P90,,0000.000025,S,00000.000001,W,0.982,W84*49
$GNRMC,043532.00,A,3726.937582,N,12639.233504,E,0.0,,210622,6.0,W,A,V*63
$GNGNS,043532.00,3726.937582,N,12639.233504,E,AAAAAN,41,0.4,11.1,18.0,,,V*19
$GNGGA,043532.00,3726.937582,N,12639.233504,E,1,12,0.4,11.1,M,18.0,M,,*40
$PSMSG,magcal=PASS,bluesky=0*00
$GPGSV,4,1,13,01,08,068,23,02,13,271,38,03,33,045,48,04,22,094,40,1*69
$GPGSV,4,2,13,06,51,292,46,09,21,129,47,11,16,265,31,12,11,320,27,1*69
$GPGSV,4,3,13,14,27,187,33,17,75,075,42,19,68,337,42,28,00,000,24,1*64
$GPGSV,4,4,13,20,04,220,,1*50
$GLGSV,2,1,08,78,02,340,22,70,30,040,27,77,26,291,34,76,22,236,35,1*75
$GLGSV,2,2,08,87,23,305,40,85,25,077,50,71,52,108,50,72,24,165,45,1*7E
$GAGSV,3,1,09,01,21,310,40,03,24,067,43,07,05,171,31,08,29,125,38,7*76
$GAGSV,3,2,09,13,63,337,43,15,35,061,42,21,43,257,38,26,23,277,39,7*7D
$GAGSV,3,3,09,27,25,195,41,7*40
$GQGSV,1,1,03,02,26,180,40,03,79,080,41,04,00,000,43,1*5E
$GBGSV,5,1,17,37,08,216,32,33,47,068,44,32,07,194,40,30,05,295,30,1*74
$GBGSV,5,2,17,28,59,068,40,27,52,316,44,14,25,046,28,13,42,251,29,1*7E
$GBGSV,5,3,17,10,65,251,39,08,52,257,32,07,65,216,39,04,35,130,39,1*77
$GBGSV,5,4,17,03,43,205,29,01,42,150,42,02,27,234,,05,07,254,,1*7F
$GBGSV,5,5,17,36,04,314,,1*47
$GNGSA,A,3,02,03,04,06,09,11,12,14,17,19,,,0.7,0.4,0.6,1*36
$GNGSA,A,3,70,71,72,76,77,85,87,,,,,,0.7,0.4,0.6,2*30
$GNGSA,A,3,01,03,07,08,13,15,21,26,27,,,,0.7,0.4,0.6,3*3F
$GNGSA,A,3,01,02,03,04,07,08,10,13,14,27,28,33,0.7,0.4,0.6,4*33
$GNGSA,A,3,02,03,,,,,,,,,,,0.7,0.4,0.6,5*31
$GNVTG,,T,,M,0.0,N,0.0,K,A*3D
$GNDTM,P90,,0000.000025,S,00000.000001,W,0.982,W84*49
$GNRMC,043533.00,A,3726.937581,N,12639.233502,E,0.0,,210622,6.0,W,A,V*67
$GNGNS,043533.00,3726.937581,N,12639.233502,E,AAAAAN,41,0.4,11.1,18.0,,,V*1D
$GNGGA,043533.00,3726.937581,N,12639.233502,E,1,12,0.4,11.1,M,18.0,M,,*44
$PSMSG,magcal=PASS,bluesky=0*00
$GPGSV,4,1,13,01,08,068,24,02,13,271,39,03,33,045,48,04,22,094,40,1*6F
$GPGSV,4,2,13,06,51,292,46,09,21,129,47,11,16,265,26,12,11,320,29,1*61
$GPGSV,4,3,13,14,27,187,31,17,75,075,41,19,68,337,42,28,00,000,24,1*65
$GPGSV,4,4,13,20,04,220,,1*50
$GLGSV,2,1,08,78,02,340,22,70,30,040,28,77,26,291,35,76,22,236,34,1*7A
$GLGSV,2,2,08,87,23,305,40,85,25,077,50,71,52,108,50,72,24,165,45,1*7E
$GAGSV,3,1,09,01,21,310,39,03,24,067,43,07,05,171,32,08,29,125,38,7*7B
$GAGSV,3,2,09,13,63,337,43,15,35,061,41,21,43,257,38,26,23,277,41,7*71
$GAGSV,3,3,09,27,25,195,41,7*40
$GQGSV,1,1,03,02,26,180,41,03,79,080,42,04,00,000,43,1*5C
$GBGSV,5,1,17,37,08,216,31,33,47,068,43,32,07,194,40,30,05,295,29,1*78
$GBGSV,5,2,17,28,59,068,40,27,52,316,44,14,25,046,27,13,42,251,31,1*78
$GBGSV,5,3,17,10,65,251,38,08,52,257,32,07,65,216,38,04,35,130,39,1*77
$GBGSV,5,4,17,03,43,205,27,01,42,150,42,02,27,234,,05,07,254,,1*71
$GBGSV,5,5,17,36,04,314,,1*47
$GNGSA,A,3,02,03,04,06,09,11,12,14,17,19,,,0.7,0.4,0.6,1*36
$GNGSA,A,3,70,71,72,76,77,85,87,,,,,,0.7,0.4,0.6,2*30
$GNGSA,A,3,01,03,07,08,13,15,21,26,27,,,,0.7,0.4,0.6,3*3F
$GNGSA,A,3,01,02,03,04,07,08,10,13,14,27,28,33,0.7,0.4,0.6,4*33
$GNGSA,A,3,02,03,,,,,,,,,,,0.7,0.4,0.6,5*31
$GNVTG,,T,,M,0.0,N,0.0,K,A*3D
$GNDTM,P90,,0000.000025,S,00000.000001,W,0.982,W84*49
$GNRMC,043534.00,A,3726.937581,N,12639.233503,E,0.0,,210622,6.0,W,A,V*61
$GNGNS,043534.00,3726.937581,N,12639.233503,E,AAAAAN,41,0.4,11.1,18.0,,,V*1B
$GNGGA,043534.00,3726.937581,N,12639.233503,E,1,12,0.4,11.1,M,18.0,M,,*42
$PSMSG,magcal=PASS,bluesky=0*00
$GPGSV,3,1,12,01,08,068,24,02,13,271,39,03,33,045,48,04,22,094,40,1*69
$GPGSV,3,2,12,06,51,292,46,09,21,129,47,11,16,265,25,12,11,320,31,1*6D
$GPGSV,3,3,12,14,27,187,32,17,75,075,42,19,68,337,42,20,04,220,,1*69
$GLGSV,2,1,08,78,02,340,22,70,30,040,28,77,26,291,35,76,21,236,36,1*7B
$GLGSV,2,2,08,87,23,305,40,85,25,077,50,71,52,108,50,72,24,165,46,1*7D
$GAGSV,3,1,09,01,21,310,40,03,24,067,43,07,05,171,32,08,29,125,38,7*75
$GAGSV,3,2,09,13,63,337,43,15,35,061,42,21,43,257,37,26,23,277,40,7*7C
$GAGSV,3,3,09,27,25,195,41,7*40
$GQGSV,1,1,03,02,26,180,41,03,79,080,42,04,00,000,43,1*5C
$GBGSV,5,1,17,37,08,216,32,33,47,068,43,32,07,194,40,30,05,295,28,1*7A
$GBGSV,5,2,17,28,59,068,41,27,52,316,44,14,25,046,27,13,42,251,31,1*79
$GBGSV,5,3,17,10,65,251,39,08,52,257,32,07,65,216,38,04,35,130,39,1*76
$GBGSV,5,4,17,03,43,205,27,01,42,150,42,02,27,234,,05,07,254,,1*71
$GBGSV,5,5,17,36,04,314,,1*47
$GNGSA,A,3,02,03,04,06,09,11,12,14,17,19,,,0.7,0.4,0.6,1*36
$GNGSA,A,3,70,71,72,76,77,85,87,,,,,,0.7,0.4,0.6,2*30
$GNGSA,A,3,01,03,07,08,13,15,21,26,27,,,,0.7,0.4,0.6,3*3F
$GNGSA,A,3,01,03,04,07,08,10,13,14,27,28,33,37,0.7,0.4,0.6,4*35
$GNGSA,A,3,02,03,,,,,,,,,,,0.7,0.4,0.6,5*31
$GNVTG,,T,,M,0.0,N,0.0,K,A*3D
$GNDTM,P90,,0000.000025,S,00000.000001,W,0.982,W84*49
$GNRMC,043535.00,A,3726.937581,N,12639.233504,E,0.0,,210622,6.0,W,A,V*67
$GNGNS,043535.00,3726.937581,N,12639.233504,E,AAAAAN,40,0.4,11.1,18.0,,,V*1C
$GNGGA,043535.00,3726.937581,N,12639.233504,E,1,12,0.4,11.1,M,18.0,M,,*44
$PSMSG,magcal=PASS,bluesky=0*00
$GPGSV,3,1,12,01,08,068,26,02,13,271,39,03,33,045,48,04,22,094,39,1*65
$GPGSV,3,2,12,06,51,292,46,09,21,129,47,11,16,265,30,12,11,320,29,1*60
$GPGSV,3,3,12,14,27,187,31,17,75,075,41,19,68,337,42,20,04,220,,1*69
$GLGSV,2,1,08,78,02,340,24,70,30,040,27,77,26,291,34,76,21,236,36,1*73
$GLGSV,2,2,08,87,23,305,40,85,25,077,51,71,52,108,50,72,24,165,45,1*7F
$GAGSV,3,1,09,01,21,310,40,03,24,067,43,07,05,171,31,08,29,125,38,7*76
$GAGSV,3,2,09,13,63,337,43,15,35,061,42,21,43,257,38,26,23,277,39,7*7D
$GAGSV,3,3,09,27,25,195,41,7*40
$GQGSV,1,1,03,02,26,180,40,03,79,080,41,04,00,000,43,1*5E
$GBGSV,5,1,17,37,08,216,32,33,47,068,43,32,07,194,40,30,05,295,29,1*7B
$GBGSV,5,2,17,28,59,068,41,27,52,316,44,14,25,046,27,13,42,251,30,1*78
$GBGSV,5,3,17,10,65,251,39,08,52,257,33,07,65,216,38,04,35,130,39,1*77
$GBGSV,5,4,17,03,43,205,27,01,42,150,42,02,27,234,,05,07,254,,1*71
$GBGSV,5,5,17,36,04,314,,1*47
$GNGSA,A,3,01,02,03,04,06,09,11,12,14,17,19,,0.7,0.4,0.6,1*37
$GNGSA,A,3,70,71,72,76,77,85,87,,,,,,0.7,0.4,0.6,2*30
$GNGSA,A,3,01,03,07,08,13,15,21,26,27,,,,0.7,0.4,0.6,3*3F
$GNGSA,A,3,01,03,04,07,08,10,13,14,27,28,33,37,0.7,0.4,0.6,4*35
$GNGSA,A,3,02,03,,,,,,,,,,,0.7,0.4,0.6,5*31
$GNVTG,,T,,M,0.0,N,0.0,K,A*3D
$GNDTM,P90,,0000.000025,S,00000.000001,W,0.982,W84*49
$GNRMC,043536.00,A,3726.937581,N,12639.233504,E,0.0,,210622,6.0,W,A,V*64
$GNGNS,043536.00,3726.937581,N,12639.233504,E,AAAAAN,41,0.4,11.2,18.0,,,V*1D
$GNGGA,043536.00,3726.937581,N,12639.233504,E,1,12,0.4,11.2,M,18.0,M,,*44
$PSMSG,magcal=PASS,bluesky=0*00
$GPGSV,3,1,12,01,08,068,25,02,13,271,39,03,33,045,48,04,22,094,39,1*66
$GPGSV,3,2,12,06,51,292,46,09,21,129,48,11,16,265,30,12,11,320,28,1*6E
$GPGSV,3,3,12,14,27,187,31,17,75,075,41,19,68,337,43,20,04,220,,1*68
$GLGSV,2,1,08,78,02,340,24,70,30,040,27,77,26,291,35,76,21,236,38,1*7C
$GLGSV,2,2,08,87,23,305,40,85,25,077,50,71,52,108,50,72,24,165,46,1*7D
$GAGSV,3,1,09,01,21,310,40,03,24,067,43,07,05,171,32,08,29,125,38,7*75
$GAGSV,3,2,09,13,63,337,42,15,35,061,42,21,43,257,38,26,23,277,39,7*7C
$GAGSV,3,3,09,27,25,195,41,7*40
$GQGSV,1,1,03,02,26,180,40,03,79,080,42,04,00,000,43,1*5D
$GBGSV,5,1,17,37,08,216,33,33,47,068,42,32,07,194,40,30,05,295,30,1*73
$GBGSV,5,2,17,28,59,068,41,27,52,316,44,14,25,046,28,13,42,251,30,1*77
$GBGSV,5,3,17,10,65,251,39,08,52,257,33,07,65,216,38,04,35,130,39,1*77
$GBGSV,5,4,17,03,43,205,29,01,42,150,43,02,27,234,,05,07,254,,1*7E
$GBGSV,5,5,17,36,04,314,,1*47
$GNGSA,A,3,01,02,03,04,06,09,11,12,14,17,19,,0.7,0.4,0.6,1*37
$GNGSA,A,3,70,71,72,76,77,85,87,,,,,,0.7,0.4,0.6,2*30
$GNGSA,A,3,01,03,07,08,13,15,21,26,27,,,,0.7,0.4,0.6,3*3F
$GNGSA,A,3,01,03,04,07,08,10,13,14,27,28,33,37,0.7,0.4,0.6,4*35
$GNGSA,A,3,02,03,,,,,,,,,,,0.7,0.4,0.6,5*31
$GNVTG,,T,,M,0.0,N,0.0,K,A*3D
$GNDTM,P90,,0000.000025,S,00000.000001,W,0.982,W84*49
$GNRMC,043537.00,A,3726.937582,N,12639.233507,E,0.0,,210622,6.0,W,A,V*65
$GNGNS,043537.00,3726.937582,N,12639.233507,E,AAAAAN,41,0.4,11.2,18.0,,,V*1C
$GNGGA,043537.00,3726.937582,N,12639.233507,E,1,12,0.4,11.2,M,18.0,M,,*45
$PSMSG,magcal=PASS,bluesky=0*00
$GPGSV,3,1,12,01,08,068,25,02,13,271,40,03,33,045,48,04,22,094,39,1*68
$GPGSV,3,2,12,06,51,292,46,09,21,129,47,11,16,265,29,12,11,320,28,1*69
$GPGSV,3,3,12,14,27,187,31,17,75,075,40,19,68,337,43,20,04,220,,1*69
$GLGSV,2,1,08,78,02,340,23,70,30,040,27,77,26,291,35,76,21,236,38,1*7B
$GLGSV,2,2,08,87,23,305,41,85,25,077,50,71,52,108,49,72,24,165,46,1*74
$GAGSV,3,1,09,01,21,310,40,03,24,067,43,07,05,171,32,08,29,125,39,7*74
$GAGSV,3,2,09,13,63,337,42,15,35,061,42,21,43,257,37,26,23,277,39,7*73
$GAGSV,3,3,09,27,25,195,41,7*40
$GQGSV,1,1,03,02,26,180,40,03,79,080,41,04,00,000,43,1*5E
$GBGSV,5,1,17,37,08,216,34,33,47,068,42,32,07,194,40,30,05,295,28,1*7D
$GBGSV,5,2,17,28,59,068,41,27,52,316,44,14,25,046,28,13,42,251,31,1*76
$GBGSV,5,3,17,10,65,251,39,08,52,257,33,07,65,216,38,04,35,130,39,1*77
$GBGSV,5,4,17,03,43,205,29,01,42,150,42,02,27,234,,05,07,254,,1*7F
$GBGSV,5,5,17,36,04,314,,1*47
$GNGSA,A,3,01,02,03,04,06,09,11,12,14,17,19,,0.7,0.4,0.6,1*37
$GNGSA,A,3,70,71,72,76,77,85,87,,,,,,0.7,0.4,0.6,2*30
$GNGSA,A,3,01,03,07,08,13,15,21,26,27,,,,0.7,0.4,0.6,3*3F
$GNGSA,A,3,01,03,04,07,08,10,13,14,27,28,33,37,0.7,0.4,0.6,4*35
$GNGSA,A,3,02,03,,,,,,,,,,,0.7,0.4,0.6,5*31
$GNVTG,,T,,M,0.0,N,0.0,K,A*3D
$GNDTM,P90,,0000.000025,S,00000.000001,W,0.982,W84*49
$GNRMC,043538.00,A,3726.937581,N,12639.233511,E,0.0,,210622,6.0,W,A,V*6E
$GNGNS,043538.00,3726.937581,N,12639.233511,E,AAAAAN,41,0.4,11.2,18.0,,,V*17
$GNGGA,043538.00,3726.937581,N,12639.233511,E,1,12,0.4,11.2,M,18.0,M,,*4E
$PSMSG,magcal=PASS,bluesky=0*00
$GPGSV,3,1,12,01,08,068,25,02,13,271,39,03,33,045,48,04,22,094,38,1*67
$GPGSV,3,2,12,06,51,292,47,09,21,129,48,11,16,265,29,12,11,320,29,1*66
$GPGSV,3,3,12,14,27,187,24,17,75,075,40,19,68,337,43,20,04,220,,1*6D
$GLGSV,2,1,08,78,02,340,24,70,30,040,28,77,26,289,35,76,21,236,39,1*7B
$GLGSV,2,2,08,87,24,305,41,85,25,077,50,71,52,108,49,72,24,165,46,1*73
$GAGSV,3,1,09,01,21,310,40,03,24,067,43,07,05,171,32,08,29,125,39,7*74
$GAGSV,3,2,09,13,63,337,42,15,35,061,42,21,43,257,39,26,23,277,39,7*7D
$GAGSV,3,3,09,27,25,195,41,7*40
$GQGSV,1,1,03,02,26,180,41,03,79,080,41,04,00,000,43,1*5F
$GBGSV,5,1,17,37,08,216,33,33,47,068,43,32,07,194,41,30,05,295,31,1*72
$GBGSV,5,2,17,28,59,068,41,27,52,316,45,14,25,046,27,13,42,251,31,1*78
$GBGSV,5,3,17,10,65,251,39,08,52,257,33,07,65,216,39,04,35,130,39,1*76
$GBGSV,5,4,17,03,43,205,29,01,42,150,42,02,27,234,,05,07,254,,1*7F
$GBGSV,5,5,17,36,04,314,,1*47
$GNGSA,A,3,01,02,03,04,06,09,11,12,14,17,19,,0.7,0.4,0.6,1*37
$GNGSA,A,3,70,71,72,76,77,85,87,,,,,,0.7,0.4,0.6,2*30
$GNGSA,A,3,01,03,07,08,13,15,21,26,27,,,,0.7,0.4,0.6,3*3F
$GNGSA,A,3,01,03,04,07,08,10,13,14,27,28,33,37,0.7,0.4,0.6,4*35
$GNGSA,A,3,02,03,,,,,,,,,,,0.7,0.4,0.6,5*31
$GNVTG,,T,,M,0.0,N,0.0,K,A*3D
$GNDTM,P90,,0000.000025,S,00000.000001,W,0.982,W84*49
$GNRMC,043539.00,A,3726.937581,N,12639.233514,E,0.0,,210622,6.0,W,A,V*6A
$GNGNS,043539.00,3726.937581,N,12639.233514,E,AAAAAN,41,0.4,11.2,18.0,,,V*13
$GNGGA,043539.00,3726.937581,N,12639.233514,E,1,12,0.4,11.2,M,18.0,M,,*4A
$PSMSG,magcal=PASS,bluesky=0*00
$GPGSV,3,1,12,01,08,068,23,02,13,271,39,03,33,045,48,04,22,094,39,1*60
$GPGSV,3,2,12,06,51,292,47,09,21,129,49,11,16,265,29,12,11,320,29,1*67
$GPGSV,3,3,12,14,27,187,30,17,75,075,40,19,68,337,43,20,04,220,,1*68
$GLGSV,2,1,08,78,02,340,25,70,30,040,29,77,26,289,35,76,21,236,38,1*7A
$GLGSV,2,2,08,87,24,305,41,85,25,077,50,71,52,108,49,72,24,165,46,1*73
$GAGSV,3,1,09,01,21,310,40,03,24,067,43,07,05,171,33,08,29,125,41,7*7A
$GAGSV,3,2,09,13,63,337,42,15,35,061,42,21,43,257,38,26,23,277,39,7*7C
$GAGSV,3,3,09,27,25,195,41,7*40
$GQGSV,1,1,03,02,26,180,42,03,79,080,40,04,00,000,44,1*5A
$GBGSV,5,1,17,37,08,216,33,33,47,068,43,32,07,194,41,30,05,295,26,1*74
$GBGSV,5,2,17,28,59,068,41,27,52,316,45,14,25,046,28,13,42,251,31,1*77
$GBGSV,5,3,17,10,65,251,39,08,52,257,33,07,65,216,39,04,35,130,39,1*76
$GBGSV,5,4,17,03,43,205,29,02,27,234,27,01,42,150,41,05,07,254,,1*79
$GBGSV,5,5,17,36,04,314,,1*47
$GNGSA,A,3,01,02,03,04,06,09,11,12,14,17,19,,0.7,0.4,0.6,1*37
$GNGSA,A,3,70,71,72,76,77,85,87,,,,,,0.7,0.4,0.6,2*30
$GNGSA,A,3,01,03,07,08,13,15,21,26,27,,,,0.7,0.4,0.6,3*3F
$GNGSA,A,3,01,02,04,07,08,10,13,14,27,28,33,37,0.7,0.4,0.6,4*34
$GNGSA,A,3,02,03,,,,,,,,,,,0.7,0.4,0.6,5*31
$GNVTG,,T,,M,0.0,N,0.0,K,A*3D
$GNDTM,P90,,0000.000025,S,00000.000001,W,0.982,W84*49
$GNRMC,043540.00,A,3726.937581,N,12639.233518,E,0.0,,210622,6.0,W,A,V*68
$GNGNS,043540.00,3726.937581,N,12639.233518,E,AAAAAN,41,0.4,11.2,18.0,,,V*11
$GNGGA,043540.00,3726.937581,N,12639.233518,E,1,12,0.4,11.2,M,18.0,M,,*48
$PSMSG,magcal=PASS,bluesky=0*00
$GPGSV,3,1,12,01,08,068,23,02,13,271,39,03,33,045,48,04,22,094,39,1*60
$GPGSV,3,2,12,06,51,292,47,09,21,129,50,11,16,265,29,12,11,320,30,1*67
$GPGSV,3,3,12,14,27,187,29,17,75,075,41,19,68,337,44,20,04,220,,1*66
$GLGSV,2,1,08,78,02,340,23,70,30,040,29,77,26,289,35,76,21,236,37,1*73
$GLGSV,2,2,08,87,24,305,42,85,25,077,50,71,52,108,49,72,24,165,46,1*70
$GAGSV,3,1,09,01,21,310,39,03,24,067,43,07,05,171,33,08,29,125,38,7*7A
$GAGSV,3,2,09,13,63,337,42,15,35,061,42,21,43,257,39,26,23,277,38,7*7C
$GAGSV,3,3,09,27,25,195,40,7*41
$GQGSV,1,1,03,02,26,180,42,03,79,080,41,04,00,000,43,1*5C
$GBGSV,5,1,17,37,08,216,34,33,47,068,42,32,07,194,41,30,05,295,26,1*72
$GBGSV,5,2,17,28,59,068,40,27,52,316,44,14,25,046,28,13,42,251,30,1*76
$GBGSV,5,3,17,10,65,251,39,08,52,257,32,07,65,216,39,04,35,130,38,1*76
$GBGSV,5,4,17,03,43,205,29,02,27,234,27,01,42,150,42,05,07,254,,1*7A
$GBGSV,5,5,17,36,04,314,,1*47
$GNGSA,A,3,01,02,03,04,06,09,11,12,14,17,19,,0.7,0.4,0.6,1*37
$GNGSA,A,3,70,71,72,76,77,85,87,,,,,,0.7,0.4,0.6,2*30
$GNGSA,A,3,01,03,07,08,13,15,21,26,27,,,,0.7,0.4,0.6,3*3F
$GNGSA,A,3,01,02,04,07,08,10,13,14,27,28,33,37,0.7,0.4,0.6,4*34
$GNGSA,A,3,02,03,,,,,,,,,,,0.7,0.4,0.6,5*31
$GNVTG,,T,,M,0.0,N,0.0,K,A*3D
$GNDTM,P90,,0000.000025,S,00000.000001,W,0.982,W84*49
$GNRMC,043541.00,A,3726.937581,N,12639.233521,E,0.0,,210622,6.0,W,A,V*63
$GNGNS,043541.00,3726.937581,N,12639.233521,E,AAAAAN,41,0.4,11.3,18.0,,,V*1B
$GNGGA,043541.00,3726.937581,N,12639.233521,E,1,12,0.4,11.3,M,18.0,M,,*42
$PSMSG,magcal=PASS,bluesky=0*00
$GPGSV,3,1,12,01,08,068,24,02,13,271,40,03,33,045,47,04,22,094,38,1*67
$GPGSV,3,2,12,06,51,292,46,09,21,129,48,11,16,265,30,12,11,320,28,1*6E
$GPGSV,3,3,12,14,27,187,29,17,75,075,41,19,68,337,44,20,04,220,,1*66
$GLGSV,2,1,08,78,02,340,23,70,30,040,28,77,26,289,34,76,21,236,36,1*72
$GLGSV,2,2,08,87,24,305,41,85,25,077,49,71,52,108,48,72,24,165,47,1*7B
$GAGSV,3,1,09,01,21,310,40,03,24,067,42,07,05,171,32,08,29,125,42,7*79
$GAGSV,3,2,09,13,63,337,41,15,35,061,41,21,43,257,38,26,23,277,38,7*7D
$GAGSV,3,3,09,27,25,195,40,7*41
$GQGSV,1,1,03,02,26,180,42,03,79,080,40,04,00,000,43,1*5D
$GBGSV,5,1,17,37,08,216,34,33,47,068,41,32,07,194,40,30,05,295,27,1*71
$GBGSV,5,2,17,28,59,068,40,27,52,316,44,14,25,046,27,13,42,251,29,1*71
$GBGSV,5,3,17,10,65,251,38,08,52,257,33,07,65,216,39,04,35,130,39,1*77
$GBGSV,5,4,17,03,43,205,29,02,27,234,27,01,42,150,42,05,07,254,,1*7A
$GBGSV,5,5,17,36,04,314,,1*47
$GNGSA,A,3,02,03,04,06,09,11,12,14,17,19,,,0.7,0.4,0.6,1*36
$GNGSA,A,3,70,71,72,76,77,85,87,,,,,,0.7,0.4,0.6,2*30
$GNGSA,A,3,01,03,07,08,13,15,21,26,27,,,,0.7,0.4,0.6,3*3F
$GNGSA,A,3,01,02,04,07,08,10,13,14,27,28,33,37,0.7,0.4,0.6,4*34
$GNGSA,A,3,02,03,,,,,,,,,,,0.7,0.4,0.6,5*31
$GNVTG,,T,,M,0.0,N,0.0,K,A*3D
$GNDTM,P90,,0000.000025,S,00000.000001,W,0.982,W84*49
$GNRMC,043542.00,A,3726.937579,N,12639.233525,E,0.0,,210622,6.0,W,A,V*63
$GNGNS,043542.00,3726.937579,N,12639.233525,E,AAAAAN,40,0.4,11.3,18.0,,,V*1A
$GNGGA,043542.00,3726.937579,N,12639.233525,E,1,12,0.4,11.3,M,18.0,M,,*42
$PSMSG,magcal=PASS,bluesky=0*00
$GPGSV,3,1,12,01,08,068,24,02,13,271,40,03,33,045,48,04,22,094,39,1*69
$GPGSV,3,2,12,06,51,292,46,09,21,129,49,11,16,265,29,12,11,320,28,1*67
$GPGSV,3,3,12,14,27,187,27,17,75,075,40,19,68,337,44,20,04,220,,1*69
$GLGSV,2,1,08,78,02,340,24,70,30,040,28,77,26,289,35,76,21,236,35,1*77
$GLGSV,2,2,08,87,24,305,40,85,25,077,50,71,52,108,49,72,24,165,46,1*72
$GAGSV,3,1,09,01,21,310,39,03,24,067,43,07,05,171,32,08,29,125,41,7*75
$GAGSV,3,2,09,13,63,337,42,15,35,061,42,21,43,257,39,26,23,277,39,7*7D
$GAGSV,3,3,09,27,25,195,40,7*41
$GQGSV,1,1,03,02,26,180,42,03,79,080,40,04,00,000,44,1*5A
$GBGSV,5,1,17,37,08,216,34,33,47,068,43,32,07,194,42,30,05,295,26,1*70
$GBGSV,5,2,17,28,59,068,41,27,52,316,44,14,25,046,27,13,42,251,31,1*79
$GBGSV,5,3,17,10,65,251,39,08,52,257,33,07,65,216,39,04,35,130,39,1*76
$GBGSV,5,4,17,03,43,205,29,02,27,234,26,01,42,150,41,05,07,254,,1*78
$GBGSV,5,5,17,36,04,314,,1*47
$GNGSA,A,3,02,03,04,06,09,11,12,14,17,19,,,0.7,0.4,0.6,1*36
$GNGSA,A,3,70,71,72,76,77,85,87,,,,,,0.7,0.4,0.6,2*30
$GNGSA,A,3,01,03,07,08,13,15,21,26,27,,,,0.7,0.4,0.6,3*3F
$GNGSA,A,3,01,02,04,07,08,10,13,14,27,28,33,37,0.7,0.4,0.6,4*34
$GNGSA,A,3,02,03,,,,,,,,,,,0.7,0.4,0.6,5*31
$GNVTG,,T,,M,0.0,N,0.0,K,A*3D
$GNDTM,P90,,0000.000025,S,00000.000001,W,0.982,W84*49
$GNRMC,043543.00,A,3726.937590,N,12639.233540,E,0.0,,210622,6.0,W,A,V*66
$GNGNS,043543.00,3726.937590,N,12639.233540,E,AAAAAN,40,0.4,11.3,18.0,,,V*1F
$GNGGA,043543.00,3726.937590,N,12639.233540,E,1,12,0.4,11.3,M,18.0,M,,*47
$PSMSG,magcal=PASS,bluesky=0*00
$GPGSV,3,1,12,01,08,068,27,02,13,271,38,03,33,045,48,04,22,094,37,1*6B
$GPGSV,3,2,12,06,51,292,46,09,21,129,48,11,16,265,28,12,11,320,26,1*69
$GPGSV,3,3,12,14,27,187,33,17,75,075,41,19,68,337,44,20,04,220,,1*6D
$GLGSV,2,1,08,78,02,340,24,70,30,040,29,77,26,289,35,76,21,236,33,1*70
$GLGSV,2,2,08,87,24,305,41,85,25,077,50,71,52,108,49,72,24,165,47,1*72
$GAGSV,3,1,09,01,21,310,39,03,24,067,43,07,05,171,33,08,29,125,40,7*75
$GAGSV,3,2,09,13,63,337,42,15,35,061,42,21,43,257,39,26,23,277,38,7*7C
$GAGSV,3,3,09,27,25,195,40,7*41
$GQGSV,1,1,03,02,26,180,43,03,79,080,41,04,00,000,43,1*5D
$GBGSV,5,1,17,37,08,216,33,33,47,068,43,32,07,194,40,30,05,295,26,1*75
$GBGSV,5,2,17,28,59,068,40,27,52,316,44,14,25,046,26,13,42,251,30,1*78
$GBGSV,5,3,17,10,65,251,38,08,52,257,33,07,65,216,39,04,35,130,38,1*76
$GBGSV,5,4,17,03,43,205,29,02,27,234,26,01,42,150,40,05,07,254,,1*79
$GBGSV,5,5,17,36,04,314,,1*47
$GNGSA,A,3,02,03,04,06,09,11,12,14,17,19,,,0.7,0.4,0.6,1*36
$GNGSA,A,3,70,71,72,76,77,85,87,,,,,,0.7,0.4,0.6,2*30
$GNGSA,A,3,01,03,07,08,13,15,21,26,27,,,,0.7,0.4,0.6,3*3F
$GNGSA,A,3,01,02,04,07,08,10,13,14,27,28,33,37,0.7,0.4,0.6,4*34
$GNGSA,A,3,02,03,,,,,,,,,,,0.7,0.4,0.6,5*31
$GNVTG,,T,,M,0.0,N,0.0,K,A*3D
$GNDTM,P90,,0000.000025,S,00000.000001,W,0.982,W84*49
$GNRMC,043544.00,A,3726.937588,N,12639.233543,E,0.0,,210622,6.0,W,A,V*6B
$GNGNS,043544.00,3726.937588,N,12639.233543,E,AAAAAN,40,0.4,11.3,18.0,,,V*12
$GNGGA,043544.00,3726.937588,N,12639.233543,E,1,12,0.4,11.3,M,18.0,M,,*4A
$PSMSG,magcal=PASS,bluesky=0*00
$GPGSV,3,1,12,01,08,068,27,02,13,271,40,03,33,045,48,04,22,094,38,1*6B
$GPGSV,3,2,12,06,51,292,47,09,21,129,50,11,16,265,31,12,11,320,31,1*6F
$GPGSV,3,3,12,14,27,187,29,17,75,075,41,19,68,337,43,20,04,220,,1*61
$GLGSV,2,1,08,78,02,340,24,70,30,040,28,77,26,289,35,76,21,236,31,1*73
$GLGSV,2,2,08,87,24,305,40,85,25,077,50,71,52,108,48,72,24,165,43,1*76
$GAGSV,3,1,09,01,21,310,40,03,24,067,44,07,05,171,32,08,29,125,41,7*7C
$GAGSV,3,2,09,13,63,337,42,15,35,061,42,21,43,257,39,26,23,277,39,7*7D
$GAGSV,3,3,09,27,25,195,41,7*40
$GQGSV,1,1,03,02,26,180,42,03,79,080,41,04,00,000,44,1*5B
$GBGSV,5,1,17,37,08,216,34,33,47,068,43,32,08,194,41,30,05,295,27,1*7D
$GBGSV,5,2,17,28,59,068,41,27,52,316,45,14,25,046,25,13,42,251,32,1*79
$GBGSV,5,3,17,10,65,251,38,08,52,257,33,07,65,216,39,04,35,130,39,1*77
$GBGSV,5,4,17,03,43,205,29,02,27,234,26,01,42,150,40,05,07,254,,1*79
$GBGSV,5,5,17,36,04,314,,1*47
$GNGSA,A,3,02,03,04,06,09,11,12,14,17,19,,,0.7,0.4,0.6,1*36
$GNGSA,A,3,70,71,72,76,77,85,87,,,,,,0.7,0.4,0.6,2*30
$GNGSA,A,3,01,03,07,08,13,15,21,26,27,,,,0.7,0.4,0.6,3*3F
$GNGSA,A,3,01,02,04,07,08,10,13,14,27,28,32,33,0.7,0.4,0.6,4*31
$GNGSA,A,3,02,03,,,,,,,,,,,0.7,0.4,0.6,5*31
$GNVTG,,T,,M,0.0,N,0.0,K,A*3D
$GNDTM,P90,,0000.000025,S,00000.000001,W,0.982,W84*49
$GNRMC,043545.00,A,3726.937580,N,12639.233545,E,0.0,,210622,6.0,W,A,V*64
$GNGNS,043545.00,3726.937580,N,12639.233545,E,AAAAAN,41,0.4,11.3,18.0,,,V*1C
$GNGGA,043545.00,3726.937580,N,12639.233545,E,1,12,0.4,11.3,M,18.0,M,,*45
$PSMSG,magcal=PASS,bluesky=0*00
$GPGSV,3,1,12,01,08,068,28,02,13,271,40,03,33,045,47,04,22,094,38,1*6B
$GPGSV,3,2,12,06,51,292,47,09,21,129,49,11,16,265,27,12,11,320,30,1*61
$GPGSV,3,3,12,14,27,187,29,17,75,075,41,19,68,337,43,20,04,220,,1*61
$GLGSV,2,1,08,78,02,340,24,70,30,040,28,77,26,289,32,76,21,236,32,1*77
$GLGSV,2,2,08,87,24,305,41,85,25,077,50,71,52,108,47,72,24,165,44,1*7F
$GAGSV,3,1,09,01,21,310,39,03,24,067,43,07,05,171,27,08,29,125,41,7*71
$GAGSV,3,2,09,13,63,337,41,15,35,061,41,21,43,257,38,26,23,277,39,7*7C
$GAGSV,3,3,09,27,25,195,37,7*41
$GQGSV,1,1,03,02,26,180,42,03,79,080,41,04,00,000,42,1*5D
$GBGSV,5,1,17,37,08,216,32,33,47,068,42,32,08,194,40,30,05,295,27,1*7B
$GBGSV,5,2,17,28,59,068,41,27,52,316,44,14,25,046,25,13,42,251,32,1*78
$GBGSV,5,3,17,10,65,251,37,08,52,257,32,07,65,216,39,04,35,130,39,1*79
$GBGSV,5,4,17,03,43,205,29,02,27,234,27,01,42,150,40,05,07,254,,1*78
$GBGSV,5,5,17,36,04,314,,1*47
$GNGSA,A,3,01,02,03,04,06,09,11,12,14,17,19,,0.7,0.4,0.6,1*37
$GNGSA,A,3,70,71,72,76,77,85,87,,,,,,0.7,0.4,0.6,2*30
$GNGSA,A,3,01,03,07,08,13,15,21,26,27,,,,0.7,0.4,0.6,3*3F
$GNGSA,A,3,01,02,04,07,08,10,13,14,27,28,32,33,0.7,0.4,0.6,4*31
$GNGSA,A,3,02,03,,,,,,,,,,,0.7,0.4,0.6,5*31
$GNVTG,,T,,M,0.0,N,0.0,K,A*3D
$GNDTM,P90,,0000.000025,S,00000.000001,W,0.982,W84*49
$GNRMC,043546.00,A,3726.937585,N,12639.233551,E,0.0,,210622,6.0,W,A,V*67
$GNGNS,043546.00,3726.937585,N,12639.233551,E,AAAAAN,42,0.4,11.3,18.0,,,V*1C
$GNGGA,043546.00,3726.937585,N,12639.233551,E,1,12,0.4,11.3,M,18.0,M,,*46
