$GPGSV,3,1,11,01,17,060,44,03,45,053,41,04,16,105,45,06,42,274,42,1*67
$GPGSV,3,2,11,09,11,137,36,14,41,191,38,17,74,015,39,19,56,323,43,1*6B
$GPGSV,3,3,11,02,04,261,,11,07,254,,12,00,000,,1*50
$GLGSV,2,1,08,70,37,057,30,77,26,307,25,76,34,250,37,75,07,199,31,1*75
$GLGSV,2,2,08,87,15,291,40,85,33,060,50,71,40,127,39,72,09,168,42,1*72
$GAGSV,3,1,09,01,16,319,35,03,22,078,35,08,19,133,34,13,61,312,41,7*7F
$GAGSV,3,2,09,15,42,050,43,21,47,274,42,26,16,267,26,27,37,198,37,7*7D
$GAGSV,3,3,09,05,02,032,,7*4C
$GQGSV,1,1,03,02,32,178,40,03,79,070,40,04,00,000,36,1*50
$GBGSV,4,1,15,33,48,087,44,28,64,043,46,27,42,305,46,14,33,056,47,1*7B
$GBGSV,4,2,15,13,41,240,38,10,68,264,36,08,50,244,36,07,72,222,29,1*75
$GBGSV,4,3,15,04,35,130,36,03,43,205,33,02,26,234,26,01,42,150,27,1*72
$GBGSV,4,4,15,05,07,254,,36,02,324,,37,17,223,,1*40
$GNGSA,A,3,01,03,04,06,09,14,17,19,,,,,0.8,0.4,0.6,1*39
$GNGSA,A,3,70,71,72,75,76,77,85,87,,,,,0.8,0.4,0.6,2*3D
$GNGSA,A,3,01,03,08,13,15,21,26,27,,,,,0.8,0.4,0.6,3*37
$GNGSA,A,3,01,02,03,04,07,08,10,13,14,27,28,33,0.8,0.4,0.6,4*3C
$GNGSA,A,3,02,03,,,,,,,,,,,0.8,0.4,0.6,5*3E
$GNVTG,,T,,M,0.0,N,0.0,K,A*3D
$GNDTM,P90,,0000.000025,S,00000.000001,W,0.982,W84*49
$GNRMC,040525.00,A,3726.882430,N,12639.194713,E,0.0,,210622,6.0,W,A,V*6B
$GNGNS,040525.00,3726.882430,N,12639.194713,E,AAAAAN,38,0.4,7.0,18.0,,,V*29
$GNGGA,040525.00,3726.882430,N,12639.194713,E,1,12,0.4,7.0,M,18.0,M,,*7E
$PSMSG,magcal=PASS,bluesky=0*00
$GPGSV,3,1,11,01,17,060,45,03,45,053,44,04,16,105,45,06,42,274,42,1*63
$GPGSV,3,2,11,09,11,137,37,14,41,191,39,17,74,015,41,19,56,323,43,1*64
$GPGSV,3,3,11,02,04,261,,11,07,254,,12,00,000,,1*50
$GLGSV,2,1,08,70,37,057,31,77,26,307,24,76,34,250,39,75,07,199,31,1*7B
$GLGSV,2,2,08,87,15,291,40,85,33,060,50,71,40,127,38,72,09,168,42,1*73
$GAGSV,3,1,09,01,16,319,34,03,22,078,37,08,19,133,34,13,61,312,42,7*7F
$GAGSV,3,2,09,15,42,050,45,21,47,274,42,26,16,267,24,27,37,198,37,7*79
$GAGSV,3,3,09,05,02,032,,7*4C
$GQGSV,1,1,03,02,32,178,40,03,79,070,43,04,00,000,37,1*52
$GBGSV,4,1,15,33,48,087,44,28,64,043,47,27,42,305,45,14,33,056,48,1*76
$GBGSV,4,2,15,13,41,240,39,10,68,264,37,08,50,244,37,07,72,222,28,1*75
$GBGSV,4,3,15,04,35,130,35,03,43,205,32,02,26,234,27,01,42,150,27,1*71
$GBGSV,4,4,15,05,07,254,,36,02,324,,37,17,223,,1*40
$GNGSA,A,3,01,03,04,06,09,14,17,19,,,,,0.8,0.4,0.6,1*39
$GNGSA,A,3,70,71,72,75,76,77,85,87,,,,,0.8,0.4,0.6,2*3D
$GNGSA,A,3,01,03,08,13,15,21,26,27,,,,,0.8,0.4,0.6,3*37
$GNGSA,A,3,01,02,03,04,07,08,10,13,14,27,28,33,0.8,0.4,0.6,4*3C
$GNGSA,A,3,02,03,,,,,,,,,,,0.8,0.4,0.6,5*3E
$GNVTG,,T,,M,0.0,N,0.0,K,A*3D
$GNDTM,P90,,0000.000025,S,00000.000001,W,0.982,W84*49
$GNRMC,040526.00,A,3726.882429,N,12639.194714,E,0.0,,210622,6.0,W,A,V*67
$GNGNS,040526.00,3726.882429,N,12639.194714,E,AAAAAN,38,0.4,7.0,18.0,,,V*25
$GNGGA,040526.00,3726.882429,N,12639.194714,E,1,12,0.4,7.0,M,18.0,M,,*72
$PSMSG,magcal=PASS,bluesky=0*00
$GPGSV,3,1,11,01,17,060,45,03,45,053,43,04,16,105,43,06,42,274,40,1*60
$GPGSV,3,2,11,09,11,137,32,14,41,191,38,17,74,015,42,19,56,323,45,1*65
$GPGSV,3,3,11,02,04,261,,11,07,254,,12,00,000,,1*50
$GLGSV,2,1,08,70,37,057,26,77,26,307,24,76,34,250,39,75,07,199,33,1*7F
$GLGSV,2,2,08,87,15,291,39,85,33,060,51,71,40,127,35,72,09,168,42,1*71
$GAGSV,3,1,09,01,16,319,33,03,22,078,41,08,19,133,33,13,61,312,45,7*79
$GAGSV,3,2,09,15,42,050,46,21,47,274,42,26,16,267,23,27,37,198,38,7*72
$GAGSV,3,3,09,05,02,032,,7*4C
$GQGSV,1,1,03,02,32,178,40,03,79,070,43,04,00,000,34,1*51
$GBGSV,4,1,15,33,48,087,47,28,64,043,48,27,42,305,44,14,33,056,47,1*74
$GBGSV,4,2,15,13,41,240,39,10,68,264,36,08,50,244,39,07,72,222,25,1*77
$GBGSV,4,3,15,04,35,130,34,03,43,205,32,02,26,234,27,01,42,150,,1*75
$GBGSV,4,4,15,05,07,254,,36,02,324,,37,17,223,,1*40
$GNGSA,A,3,01,03,04,06,09,14,17,19,,,,,0.8,0.4,0.6,1*39
$GNGSA,A,3,70,71,72,75,76,77,85,87,,,,,0.8,0.4,0.6,2*3D
$GNGSA,A,3,01,03,08,13,15,21,26,27,,,,,0.8,0.4,0.6,3*37
$GNGSA,A,3,01,02,03,04,07,08,10,13,14,27,28,33,0.8,0.4,0.6,4*3C
$GNGSA,A,3,02,03,,,,,,,,,,,0.8,0.4,0.6,5*3E
$GNVTG,,T,,M,0.0,N,0.0,K,A*3D
$GNDTM,P90,,0000.000025,S,00000.000001,W,0.982,W84*49
$GNRMC,040527.00,A,3726.882425,N,12639.194719,E,0.0,,210622,6.0,W,A,V*67
$GNGNS,040527.00,3726.882425,N,12639.194719,E,AAAAAN,38,0.4,7.0,18.0,,,V*25
$GNGGA,040527.00,3726.882425,N,12639.194719,E,1,12,0.4,7.0,M,18.0,M,,*72
$PSMSG,magcal=PASS,bluesky=0*00
$GPGSV,3,1,11,01,17,060,47,03,45,053,42,04,16,105,44,06,42,274,40,1*64
$GPGSV,3,2,11,09,11,137,33,14,41,191,40,17,74,015,43,19,56,323,44,1*6B
$GPGSV,3,3,11,02,04,261,,11,07,254,,12,00,000,,1*50
$GLGSV,2,1,08,70,37,057,30,77,26,307,25,76,34,250,38,75,07,199,35,1*7E
$GLGSV,2,2,08,87,15,291,36,85,33,060,50,71,40,127,32,72,09,168,42,1*78
$GAGSV,3,1,09,01,16,319,34,03,22,078,39,08,19,133,31,13,61,312,44,7*72
$GAGSV,3,2,09,15,42,050,43,21,47,274,43,26,16,267,29,27,37,198,40,7*73
$GAGSV,3,3,09,05,02,032,,7*4C
$GQGSV,1,1,03,02,32,178,43,03,79,070,43,04,00,000,33,1*55
$GBGSV,4,1,15,33,48,087,46,28,64,043,49,27,42,305,45,14,33,056,47,1*75
$GBGSV,4,2,15,13,41,240,37,10,68,264,38,08,50,244,36,07,72,222,27,1*7A
$GBGSV,4,3,15,04,35,130,34,03,43,205,32,02,26,234,27,01,42,150,,1*75
$GBGSV,4,4,15,05,07,254,,36,02,324,,37,17,223,,1*40
$GNGSA,A,3,01,03,04,06,09,14,17,19,,,,,0.8,0.4,0.6,1*39
$GNGSA,A,3,70,71,72,75,76,77,85,87,,,,,0.8,0.4,0.6,2*3D
$GNGSA,A,3,01,03,08,13,15,21,26,27,,,,,0.8,0.4,0.6,3*37
$GNGSA,A,3,01,02,03,04,07,08,10,13,14,27,28,33,0.8,0.4,0.6,4*3C
$GNGSA,A,3,02,03,,,,,,,,,,,0.8,0.4,0.6,5*3E
$GNVTG,,T,,M,0.0,N,0.0,K,A*3D
$GNDTM,P90,,0000.000025,S,00000.000001,W,0.982,W84*49
$GNRMC,040528.00,A,3726.882422,N,12639.194722,E,0.0,,210622,6.0,W,A,V*67
$GNGNS,040528.00,3726.882422,N,12639.194722,E,AAAAAN,38,0.4,7.0,18.0,,,V*25
$GNGGA,040528.00,3726.882422,N,12639.194722,E,1,12,0.4,7.0,M,18.0,M,,*72
$PSMSG,magcal=PASS,bluesky=0*00
$GPGSV,3,1,11,01,17,060,46,03,45,053,42,04,16,105,44,06,42,274,42,1*67
$GPGSV,3,2,11,09,11,137,36,14,41,191,40,17,74,015,44,19,56,323,44,1*69
$GPGSV,3,3,11,02,04,261,,11,07,254,,12,00,000,,1*50
$GLGSV,2,1,08,70,37,057,32,77,26,307,26,76,34,250,45,75,07,199,35,1*75
$GLGSV,2,2,08,87,15,291,35,85,33,060,49,71,40,127,31,72,09,168,38,1*7D
$GAGSV,3,1,09,01,16,319,35,03,22,078,38,08,19,133,34,13,61,312,44,7*77
$GAGSV,3,2,09,15,42,050,44,21,47,274,43,26,16,267,29,27,37,198,38,7*7B
$GAGSV,3,3,09,05,02,032,,7*4C
$GQGSV,1,1,03,02,32,178,43,03,79,070,43,04,00,000,28,1*5F
$GBGSV,4,1,15,33,48,087,44,28,64,043,49,27,42,305,44,14,33,056,47,1*76
$GBGSV,4,2,15,13,41,240,40,10,68,264,42,08,50,244,41,07,72,222,34,1*75
$GBGSV,4,3,15,04,35,130,34,03,43,205,30,02,26,234,30,01,42,150,,1*71
$GBGSV,4,4,15,05,07,254,,36,02,324,,37,17,223,,1*40
$GNGSA,A,3,01,03,04,06,09,14,17,19,,,,,0.8,0.5,0.6,1*38
$GNGSA,A,3,70,71,72,75,76,77,85,87,,,,,0.8,0.5,0.6,2*3C
$GNGSA,A,3,01,03,08,13,15,21,26,27,,,,,0.8,0.5,0.6,3*36
$GNGSA,A,3,02,03,04,07,08,10,13,14,27,28,33,,0.8,0.5,0.6,4*3C
$GNGSA,A,3,02,03,,,,,,,,,,,0.8,0.5,0.6,5*3F
$GNVTG,,T,,M,0.0,N,0.0,K,A*3D
$GNDTM,P90,,0000.000025,S,00000.000001,W,0.982,W84*49
$GNRMC,040529.00,A,3726.882419,N,12639.194721,E,0.0,,210622,6.0,W,A,V*6D
$GNGNS,040529.00,3726.882419,N,12639.194721,E,AAAAAN,37,0.5,7.0,18.0,,,V*21
$GNGGA,040529.00,3726.882419,N,12639.194721,E,1,12,0.5,7.0,M,18.0,M,,*79
$PSMSG,magcal=PASS,bluesky=0*00
$GPGSV,3,1,11,01,17,060,45,03,45,053,42,04,16,105,45,06,42,274,41,1*66
$GPGSV,3,2,11,09,11,137,36,14,41,191,46,17,74,015,44,19,56,323,44,1*6F
$GPGSV,3,3,11,02,04,261,,11,07,254,,12,00,000,,1*50
$GLGSV,2,1,08,70,37,057,31,77,26,307,28,76,34,250,42,75,07,199,39,1*73
$GLGSV,2,2,08,87,15,291,36,85,33,060,50,71,40,127,33,72,09,168,39,1*75
$GAGSV,3,1,09,01,16,319,34,03,22,078,40,08,19,133,30,13,61,312,43,7*7A
$GAGSV,3,2,09,15,42,050,44,21,47,274,43,26,16,267,29,27,37,198,44,7*70
$GAGSV,3,3,09,05,02,032,,7*4C
$GQGSV,1,1,03,02,32,178,45,03,79,070,43,04,00,000,35,1*55
$GBGSV,4,1,15,33,48,087,44,28,64,043,49,27,42,305,44,14,33,056,46,1*77
$GBGSV,4,2,15,13,41,240,42,10,68,264,41,08,50,244,43,07,72,222,36,1*74
$GBGSV,4,3,15,04,35,130,30,03,43,205,38,02,26,234,30,01,42,150,29,1*76
$GBGSV,4,4,15,05,07,254,,36,02,324,,37,17,223,,1*40
$GNGSA,A,3,01,03,04,06,09,14,17,19,,,,,0.8,0.4,0.6,1*39
$GNGSA,A,3,70,71,72,75,76,77,85,87,,,,,0.8,0.4,0.6,2*3D
$GNGSA,A,3,01,03,08,13,15,21,26,27,,,,,0.8,0.4,0.6,3*37
$GNGSA,A,3,01,02,03,04,07,08,10,13,14,27,28,33,0.8,0.4,0.6,4*3C
$GNGSA,A,3,02,03,,,,,,,,,,,0.8,0.4,0.6,5*3E
$GNVTG,,T,,M,0.0,N,0.0,K,A*3D
$GNDTM,P90,,0000.000025,S,00000.000001,W,0.982,W84*49
$GNRMC,040530.00,A,3726.882414,N,12639.194716,E,0.0,,210622,6.0,W,A,V*6C
$GNGNS,040530.00,3726.882414,N,12639.194716,E,AAAAAN,38,0.4,7.0,18.0,,,V*2E
$GNGGA,040530.00,3726.882414,N,12639.194716,E,1,12,0.4,7.0,M,18.0,M,,*79
$PSMSG,magcal=PASS,bluesky=0*00
$GPGSV,3,1,11,01,17,060,44,03,45,053,43,04,16,105,45,06,42,274,39,1*69
$GPGSV,3,2,11,09,11,137,36,14,41,191,45,17,74,015,45,19,56,323,44,1*6D
$GPGSV,3,3,11,02,04,261,,11,07,254,,12,00,000,,1*50
$GLGSV,2,1,08,70,37,057,31,77,26,307,28,76,34,250,41,75,07,199,39,1*70
$GLGSV,2,2,08,87,15,291,36,85,33,060,50,71,40,127,31,72,09,168,39,1*77
$GAGSV,3,1,09,01,16,319,35,03,22,078,42,08,19,133,30,13,61,312,44,7*7E
$GAGSV,3,2,09,15,42,050,44,21,47,274,43,26,16,267,28,27,37,198,44,7*71
$GAGSV,3,3,09,05,02,032,,7*4C
$GQGSV,1,1,03,02,32,178,45,03,79,070,43,04,00,000,36,1*56
$GBGSV,4,1,15,33,48,087,46,28,64,043,49,27,42,305,44,14,33,056,46,1*75
$GBGSV,4,2,15,13,41,240,41,10,68,264,41,08,50,244,42,07,72,222,34,1*74
$GBGSV,4,3,15,04,35,130,30,03,43,205,37,02,26,234,31,01,42,150,29,1*78
$GBGSV,4,4,15,05,07,254,,36,02,324,,37,17,223,,1*40
$GNGSA,A,3,01,03,04,06,09,14,17,19,,,,,0.8,0.4,0.6,1*39
$GNGSA,A,3,70,71,72,75,76,77,85,87,,,,,0.8,0.4,0.6,2*3D
$GNGSA,A,3,01,03,08,13,15,21,26,27,,,,,0.8,0.4,0.6,3*37
$GNGSA,A,3,01,02,03,04,07,08,10,13,14,27,28,33,0.8,0.4,0.6,4*3C
$GNGSA,A,3,02,03,,,,,,,,,,,0.8,0.4,0.6,5*3E
$GNVTG,,T,,M,0.0,N,0.0,K,A*3D
$GNDTM,P90,,0000.000025,S,00000.000001,W,0.982,W84*49
$GNRMC,040531.00,A,3726.882407,N,12639.194712,E,0.0,,210622,6.0,W,A,V*6B
$GNGNS,040531.00,3726.882407,N,12639.194712,E,AAAAAN,38,0.4,7.0,18.0,,,V*29
$GNGGA,040531.00,3726.882407,N,12639.194712,E,1,12,0.4,7.0,M,18.0,M,,*7E
$PSMSG,magcal=PASS,bluesky=0*00
$GPGSV,3,1,11,01,17,060,45,03,45,053,43,04,16,105,45,06,42,274,41,1*67
$GPGSV,3,2,11,09,11,137,36,14,41,191,45,17,74,015,45,19,56,323,44,1*6D
$GPGSV,3,3,11,02,04,261,,11,07,254,,12,00,000,,1*50
$GLGSV,2,1,08,70,37,057,32,77,26,307,28,76,34,250,43,75,07,199,39,1*71
$GLGSV,2,2,08,87,15,291,37,85,33,060,50,71,40,127,30,72,09,168,40,1*79
$GAGSV,3,1,09,01,16,319,36,03,22,078,42,08,19,133,31,13,61,312,44,7*7C
$GAGSV,3,2,09,15,42,050,44,21,47,274,43,26,16,267,29,27,37,198,44,7*70
$GAGSV,3,3,09,05,02,032,,7*4C
$GQGSV,1,1,03,02,32,178,45,03,79,070,43,04,00,000,34,1*54
$GBGSV,4,1,15,33,48,087,45,28,64,043,48,27,42,305,44,14,33,056,46,1*77
$GBGSV,4,2,15,13,41,240,43,10,68,264,41,08,50,244,44,07,72,222,35,1*71
$GBGSV,4,3,15,04,35,130,30,03,43,205,37,02,26,234,33,01,42,150,29,1*7A
$GBGSV,4,4,15,05,07,254,,36,02,324,,37,17,223,,1*40
$GNGSA,A,3,01,03,04,06,09,14,17,19,,,,,0.8,0.4,0.6,1*39
$GNGSA,A,3,70,71,72,75,76,77,85,87,,,,,0.8,0.4,0.6,2*3D
$GNGSA,A,3,01,03,08,13,15,21,26,27,,,,,0.8,0.4,0.6,3*37
$GNGSA,A,3,01,02,03,04,07,08,10,13,14,27,28,33,0.8,0.4,0.6,4*3C
$GNGSA,A,3,02,03,,,,,,,,,,,0.8,0.4,0.6,5*3E
$GNVTG,,T,,M,0.0,N,0.0,K,A*3D
$GNDTM,P90,,0000.000025,S,00000.000001,W,0.982,W84*49
$GNRMC,040532.00,A,3726.882400,N,12639.194707,E,0.0,,210622,6.0,W,A,V*6B
$GNGNS,040532.00,3726.882400,N,12639.194707,E,AAAAAN,38,0.4,7.0,18.0,,,V*29
$GNGGA,040532.00,3726.882400,N,12639.194707,E,1,12,0.4,7.0,M,18.0,M,,*7E
$PSMSG,magcal=PASS,bluesky=0*00
$GPGSV,3,1,11,01,17,060,46,03,45,053,42,04,16,105,46,06,42,274,38,1*68
$GPGSV,3,2,11,09,11,137,37,14,41,191,46,17,74,015,44,19,56,323,44,1*6E
$GPGSV,3,3,11,02,04,261,,11,07,254,,12,00,000,,1*50
$GLGSV,2,1,08,70,37,057,31,77,26,307,26,76,33,250,42,75,07,199,39,1*7A
$GLGSV,2,2,08,87,15,291,36,85,33,060,50,71,40,127,33,72,09,168,39,1*75
$GAGSV,3,1,09,01,16,319,37,03,22,078,42,08,19,133,32,13,61,312,44,7*7E
$GAGSV,3,2,09,15,42,050,45,21,47,274,43,26,16,267,28,27,37,198,44,7*70
$GAGSV,3,3,09,05,02,032,,7*4C
$GQGSV,1,1,03,02,32,178,45,03,79,070,43,04,00,000,36,1*56
$GBGSV,4,1,15,33,48,087,45,28,64,043,48,27,42,305,44,14,33,056,46,1*77
$GBGSV,4,2,15,13,41,240,43,10,68,264,41,08,50,244,44,07,72,222,35,1*71
$GBGSV,4,3,15,03,43,205,36,02,26,234,34,01,42,150,29,04,35,130,,1*7F
$GBGSV,4,4,15,05,07,254,,36,02,324,,37,17,223,,1*40
$GNGSA,A,3,01,03,04,06,09,14,17,19,,,,,0.8,0.4,0.6,1*39
$GNGSA,A,3,70,71,72,75,76,77,85,87,,,,,0.8,0.4,0.6,2*3D
$GNGSA,A,3,01,03,08,13,15,21,26,27,,,,,0.8,0.4,0.6,3*37
$GNGSA,A,3,01,02,03,04,07,08,10,13,14,27,28,33,0.8,0.4,0.6,4*3C
$GNGSA,A,3,02,03,,,,,,,,,,,0.8,0.4,0.6,5*3E
$GNVTG,,T,,M,0.0,N,0.0,K,A*3D
$GNDTM,P90,,0000.000025,S,00000.000001,W,0.982,W84*49
$GNRMC,040533.00,A,3726.882393,N,12639.194701,E,0.0,,210622,6.0,W,A,V*61
$GNGNS,040533.00,3726.882393,N,12639.194701,E,AAAAAN,38,0.4,7.0,18.0,,,V*23
$GNGGA,040533.00,3726.882393,N,12639.194701,E,1,12,0.4,7.0,M,18.0,M,,*74
$PSMSG,magcal=PASS,bluesky=0*00
$GPGSV,3,1,11,01,17,060,45,03,45,053,42,04,16,105,46,06,42,274,38,1*6B
$GPGSV,3,2,11,09,11,137,36,14,41,191,46,17,74,015,45,19,56,323,44,1*6E
$GPGSV,3,3,11,02,04,261,,11,07,254,,12,00,000,,1*50
$GLGSV,2,1,08,70,37,057,31,77,26,307,28,76,33,250,42,75,07,199,39,1*74
$GLGSV,2,2,08,87,15,291,38,85,33,060,50,71,40,127,32,72,09,168,40,1*74
$GAGSV,3,1,09,01,16,319,33,03,22,078,43,08,19,133,34,13,61,312,44,7*7D
$GAGSV,3,2,09,15,42,050,45,21,47,274,43,26,16,267,28,27,37,198,44,7*70
$GAGSV,3,3,09,05,02,032,,7*4C
$GQGSV,1,1,03,02,32,178,46,03,79,070,44,04,00,000,35,1*51
$GBGSV,4,1,15,33,48,087,45,28,64,043,48,27,42,305,44,14,33,056,46,1*77
$GBGSV,4,2,15,13,41,240,43,10,68,264,41,08,50,244,44,07,72,222,35,1*71
$GBGSV,4,3,15,03,43,205,36,02,26,234,34,01,42,150,,04,35,130,,1*74
$GBGSV,4,4,15,05,07,254,,36,02,324,,37,17,223,,1*40
$GNGSA,A,3,01,03,04,06,09,14,17,19,,,,,0.8,0.4,0.6,1*39
$GNGSA,A,3,70,71,72,75,76,77,85,87,,,,,0.8,0.4,0.6,2*3D
$GNGSA,A,3,01,03,08,13,15,21,26,27,,,,,0.8,0.4,0.6,3*37
$GNGSA,A,3,01,02,03,04,07,08,10,13,14,27,28,33,0.8,0.4,0.6,4*3C
$GNGSA,A,3,02,03,,,,,,,,,,,0.8,0.4,0.6,5*3E
$GNVTG,,T,,M,0.0,N,0.0,K,A*3D
$GNDTM,P90,,0000.000025,S,00000.000001,W,0.982,W84*49
$GNRMC,040534.00,A,3726.882389,N,12639.194694,E,0.0,,210622,6.0,W,A,V*60
$GNGNS,040534.00,3726.882389,N,12639.194694,E,AAAAAN,38,0.4,7.0,18.0,,,V*22
$GNGGA,040534.00,3726.882389,N,12639.194694,E,1,12,0.4,7.0,M,18.0,M,,*75
$PSMSG,magcal=PASS,bluesky=0*00
$GPGSV,3,1,11,01,17,060,44,03,45,053,42,04,16,105,46,06,42,274,39,1*6B
$GPGSV,3,2,11,09,11,137,36,14,41,191,46,17,74,015,44,19,56,323,44,1*6F
$GPGSV,3,3,11,02,04,261,,11,07,254,,12,00,000,,1*50
$GLGSV,2,1,08,70,37,057,31,77,26,307,27,76,33,250,43,75,07,199,39,1*7A
$GLGSV,2,2,08,87,15,291,39,85,33,060,50,71,40,127,32,72,09,168,40,1*75
$GAGSV,3,1,09,01,16,319,33,03,22,078,43,05,02,032,21,08,19,133,34,7*7D
$GAGSV,3,2,09,13,61,312,44,15,42,050,45,21,47,274,43,26,16,267,28,7*74
$GAGSV,3,3,09,27,37,198,44,7*4B
$GQGSV,1,1,03,02,32,178,46,03,79,070,43,04,00,000,35,1*56
$GBGSV,4,1,15,33,48,087,45,28,64,043,49,27,42,305,45,14,33,056,46,1*77
$GBGSV,4,2,15,13,41,240,43,10,68,264,41,08,50,244,44,07,72,222,35,1*71
$GBGSV,4,3,15,03,43,205,36,02,26,234,34,01,42,150,,04,35,130,,1*74
$GBGSV,4,4,15,05,07,254,,36,02,324,,37,17,223,,1*40
$GNGSA,A,3,01,03,04,06,09,14,17,19,,,,,0.8,0.4,0.6,1*39
$GNGSA,A,3,70,71,72,75,76,77,85,87,,,,,0.8,0.4,0.6,2*3D
$GNGSA,A,3,01,03,08,13,15,21,26,27,,,,,0.8,0.4,0.6,3*37
$GNGSA,A,3,01,02,03,04,07,08,10,13,14,27,28,33,0.8,0.4,0.6,4*3C
$GNGSA,A,3,02,03,,,,,,,,,,,0.8,0.4,0.6,5*3E
$GNVTG,,T,,M,0.0,N,0.0,K,A*3D
$GNDTM,P90,,0000.000025,S,00000.000001,W,0.982,W84*49
$GNRMC,040535.00,A,3726.882385,N,12639.194689,E,0.0,,210622,6.0,W,A,V*61
$GNGNS,040535.00,3726.882385,N,12639.194689,E,AAAAAN,38,0.4,7.0,18.0,,,V*23
$GNGGA,040535.00,3726.882385,N,12639.194689,E,1,12,0.4,7.0,M,18.0,M,,*74
$PSMSG,magcal=PASS,bluesky=0*00
$GPGSV,3,1,11,01,17,060,44,03,45,053,43,04,16,105,46,06,42,274,39,1*6A
$GPGSV,3,2,11,09,11,137,36,14,41,191,46,17,74,015,44,19,56,323,44,1*6F
$GPGSV,3,3,11,02,04,261,,11,07,254,,12,00,000,,1*50
$GLGSV,2,1,08,70,37,057,32,77,26,307,28,76,33,250,43,75,07,199,39,1*76
$GLGSV,2,2,08,87,15,291,40,85,33,060,50,71,40,127,34,72,09,168,39,1*73
$GAGSV,3,1,09,01,16,319,32,03,22,078,42,05,02,032,21,08,19,133,34,7*7D
$GAGSV,3,2,09,13,61,312,44,15,42,050,45,21,47,274,44,26,16,267,28,7*73
$GAGSV,3,3,09,27,37,198,44,7*4B
$GQGSV,1,1,03,02,32,178,46,03,79,070,43,04,00,000,35,1*56
$GBGSV,4,1,15,33,48,087,45,28,64,043,49,27,42,305,45,14,33,056,47,1*76
$GBGSV,4,2,15,13,41,240,43,10,68,264,41,08,50,244,44,07,72,222,35,1*71
$GBGSV,4,3,15,03,43,205,36,02,26,234,34,01,42,150,,04,35,130,,1*74
$GBGSV,4,4,15,05,07,254,,36,02,324,,37,17,223,,1*40
$GNGSA,A,3,01,03,04,06,09,14,17,19,,,,,0.8,0.5,0.6,1*38
$GNGSA,A,3,70,71,72,75,76,77,85,87,,,,,0.8,0.5,0.6,2*3C
$GNGSA,A,3,01,03,08,13,15,21,26,27,,,,,0.8,0.5,0.6,3*36
$GNGSA,A,3,02,03,07,08,10,13,14,27,28,33,,,0.8,0.5,0.6,4*38
$GNGSA,A,3,02,03,,,,,,,,,,,0.8,0.5,0.6,5*3F
$GNVTG,,T,,M,0.0,N,0.0,K,A*3D
$GNDTM,P90,,0000.000025,S,00000.000001,W,0.982,W84*49
$GNRMC,040536.00,A,3726.882383,N,12639.194684,E,0.0,,210622,6.0,W,A,V*69
$GNGNS,040536.00,3726.882383,N,12639.194684,E,AAAAAN,36,0.5,7.0,18.0,,,V*24
$GNGGA,040536.00,3726.882383,N,12639.194684,E,1,12,0.5,7.0,M,18.0,M,,*7D
$PSMSG,magcal=PASS,bluesky=0*00
$GPGSV,3,1,11,01,17,060,44,03,45,053,42,04,16,105,47,06,42,274,40,1*64
$GPGSV,3,2,11,09,11,137,34,14,41,191,46,17,74,015,44,19,56,323,44,1*6D
$GPGSV,3,3,11,02,04,261,,11,07,254,,12,00,000,,1*50
$GLGSV,2,1,08,70,37,057,32,77,26,307,31,76,33,250,43,75,07,199,39,1*7E
$GLGSV,2,2,08,87,15,291,39,85,33,060,51,71,40,127,35,72,09,168,40,1*73
$GAGSV,3,1,09,01,16,319,33,03,22,078,42,05,02,032,21,08,19,133,33,7*7B
$GAGSV,3,2,09,13,61,312,44,15,42,050,45,21,47,274,43,26,16,267,26,7*7A
$GAGSV,3,3,09,27,37,198,45,7*4A
$GQGSV,1,1,03,02,32,178,46,03,79,070,43,04,00,000,35,1*56
$GBGSV,4,1,15,33,48,087,44,28,64,043,49,27,42,305,44,14,33,056,47,1*76
$GBGSV,4,2,15,13,41,240,43,10,68,264,41,08,50,244,44,07,72,222,34,1*70
$GBGSV,4,3,15,03,43,205,36,02,26,234,34,01,42,150,26,04,35,130,,1*70
$GBGSV,4,4,15,05,07,254,,36,02,324,,37,17,223,,1*40
$GNGSA,A,3,01,03,04,06,09,14,17,19,,,,,0.8,0.5,0.6,1*38
$GNGSA,A,3,70,71,72,75,76,77,85,87,,,,,0.8,0.5,0.6,2*3C
$GNGSA,A,3,01,03,08,13,15,21,26,27,,,,,0.8,0.5,0.6,3*36
$GNGSA,A,3,01,02,03,07,08,10,13,14,27,28,33,,0.8,0.5,0.6,4*39
$GNGSA,A,3,02,03,,,,,,,,,,,0.8,0.5,0.6,5*3F
$GNVTG,,T,,M,0.0,N,0.0,K,A*3D
$GNDTM,P90,,0000.000025,S,00000.000001,W,0.982,W84*49
$GNRMC,040537.00,A,3726.882381,N,12639.194678,E,0.0,,210622,6.0,W,A,V*69
$GNGNS,040537.00,3726.882381,N,12639.194678,E,AAAAAN,37,0.5,7.0,18.0,,,V*25
$GNGGA,040537.00,3726.882381,N,12639.194678,E,1,12,0.5,7.0,M,18.0,M,,*7D
$PSMSG,magcal=PASS,bluesky=0*00
$GPGSV,3,1,11,01,17,060,44,03,45,053,42,04,16,105,46,06,42,274,39,1*6B
$GPGSV,3,2,11,09,11,137,35,14,41,191,46,17,74,015,44,19,56,323,44,1*6C
$GPGSV,3,3,11,02,04,261,,11,07,254,,12,00,000,,1*50
$GLGSV,2,1,08,70,37,057,31,77,26,307,32,76,33,250,43,75,07,199,39,1*7E
$GLGSV,2,2,08,87,15,291,38,85,33,060,50,71,40,127,34,72,09,168,40,1*72
$GAGSV,3,1,09,01,16,319,35,03,22,078,42,05,02,032,22,08,19,133,33,7*7E
$GAGSV,3,2,09,13,61,312,44,15,42,050,45,21,47,274,43,26,16,267,27,7*7B
$GAGSV,3,3,09,27,37,198,44,7*4B
$GQGSV,1,1,03,02,32,178,46,03,79,070,43,04,00,000,35,1*56
$GBGSV,4,1,15,33,48,087,44,28,64,043,48,27,42,305,45,14,33,056,47,1*76
$GBGSV,4,2,15,13,41,240,43,10,68,264,41,08,50,244,44,07,72,222,34,1*70
$GBGSV,4,3,15,03,43,205,36,02,26,234,34,01,42,150,26,04,35,130,,1*70
$GBGSV,4,4,15,05,07,254,,36,02,324,,37,17,223,,1*40
$GNGSA,A,3,01,03,04,06,09,14,17,19,,,,,0.8,0.5,0.6,1*38
$GNGSA,A,3,70,71,72,75,76,77,85,87,,,,,0.8,0.5,0.6,2*3C
$GNGSA,A,3,01,03,08,13,15,21,26,27,,,,,0.8,0.5,0.6,3*36
$GNGSA,A,3,01,02,03,07,08,10,13,14,27,28,33,,0.8,0.5,0.6,4*39
$GNGSA,A,3,02,03,,,,,,,,,,,0.8,0.5,0.6,5*3F
$GNVTG,,T,,M,0.0,N,0.0,K,A*3D
$GNDTM,P90,,0000.000025,S,00000.000001,W,0.982,W84*49
$GNRMC,040538.00,A,3726.882380,N,12639.194673,E,0.0,,210622,6.0,W,A,V*6C
$GNGNS,040538.00,3726.882380,N,12639.194673,E,AAAAAN,37,0.5,7.0,18.0,,,V*20
$GNGGA,040538.00,3726.882380,N,12639.194673,E,1,12,0.5,7.0,M,18.0,M,,*78
$PSMSG,magcal=PASS,bluesky=0*00
$GPGSV,3,1,11,01,17,060,44,03,45,053,41,04,16,105,46,06,42,274,38,1*69
$GPGSV,3,2,11,09,11,137,35,14,41,191,46,17,74,015,44,19,56,323,44,1*6C
$GPGSV,3,3,11,02,04,261,,11,07,254,,12,00,000,,1*50
$GLGSV,2,1,08,70,37,057,31,77,26,307,33,76,33,250,42,75,07,199,39,1*7E
$GLGSV,2,2,08,87,15,291,38,85,33,060,50,71,40,127,34,72,09,168,40,1*72
$GAGSV,3,1,09,01,16,319,37,03,22,078,42,05,02,032,22,08,19,133,34,7*7B
$GAGSV,3,2,09,13,61,312,44,15,42,050,45,21,47,274,43,26,16,267,27,7*7B
$GAGSV,3,3,09,27,37,198,45,7*4A
$GQGSV,1,1,03,02,32,178,46,03,79,070,43,04,00,000,35,1*56
$GBGSV,4,1,15,33,48,087,44,28,64,043,49,27,42,305,45,14,33,056,47,1*77
$GBGSV,4,2,15,13,41,240,43,10,68,264,41,08,50,244,44,07,72,222,34,1*70
$GBGSV,4,3,15,03,43,205,36,02,26,234,34,01,42,150,26,04,35,130,,1*70
$GBGSV,4,4,15,05,07,254,,36,02,324,,37,17,223,,1*40
$GNGSA,A,3,01,03,04,06,09,14,17,19,,,,,0.8,0.5,0.6,1*38
$GNGSA,A,3,70,71,72,75,76,77,85,87,,,,,0.8,0.5,0.6,2*3C
$GNGSA,A,3,01,03,08,13,15,21,26,27,,,,,0.8,0.5,0.6,3*36
$GNGSA,A,3,01,02,03,07,08,10,13,14,27,28,33,,0.8,0.5,0.6,4*39
$GNGSA,A,3,02,03,,,,,,,,,,,0.8,0.5,0.6,5*3F
$GNVTG,,T,,M,0.0,N,0.0,K,A*3D
$GNDTM,P90,,0000.000025,S,00000.000001,W,0.982,W84*49
$GNRMC,040539.00,A,3726.882378,N,12639.194669,E,0.0,,210622,6.0,W,A,V*61
$GNGNS,040539.00,3726.882378,N,12639.194669,E,AAAAAN,37,0.5,7.0,18.0,,,V*2D
$GNGGA,040539.00,3726.882378,N,12639.194669,E,1,12,0.5,7.0,M,18.0,M,,*75
$PSMSG,magcal=PASS,bluesky=0*00
$GPGSV,3,1,11,01,17,060,44,03,45,053,41,04,16,105,46,06,42,274,38,1*69
$GPGSV,3,2,11,09,11,137,35,14,41,191,46,17,74,015,44,19,56,323,45,1*6D
$GPGSV,3,3,11,02,04,261,,11,07,254,,12,00,000,,1*50
$GLGSV,2,1,08,70,37,057,30,77,26,307,32,76,33,250,42,75,07,199,40,1*70
$GLGSV,2,2,08,87,15,291,39,85,33,060,50,71,40,127,36,72,09,168,40,1*71
$GAGSV,3,1,09,01,16,319,37,03,22,078,42,05,02,032,22,08,19,133,34,7*7B
$GAGSV,3,2,09,13,61,312,45,15,42,050,45,21,47,274,43,26,16,267,27,7*7A
$GAGSV,3,3,09,27,37,198,45,7*4A
$GQGSV,1,1,03,02,32,178,46,03,79,070,43,04,00,000,36,1*55
$GBGSV,4,1,15,33,48,087,44,28,64,043,49,27,42,305,44,14,33,056,47,1*76
$GBGSV,4,2,15,13,41,240,43,10,68,264,41,08,50,244,44,07,72,222,35,1*71
$GBGSV,4,3,15,03,43,205,37,02,26,234,33,01,42,150,27,04,35,130,,1*77
$GBGSV,4,4,15,05,07,254,,36,02,324,,37,17,223,,1*40
$GNGSA,A,3,01,03,04,06,09,14,17,19,,,,,0.8,0.5,0.6,1*38
$GNGSA,A,3,70,71,72,75,76,77,85,87,,,,,0.8,0.5,0.6,2*3C
$GNGSA,A,3,01,03,08,13,15,21,26,27,,,,,0.8,0.5,0.6,3*36
$GNGSA,A,3,01,02,03,07,08,10,13,14,27,28,33,,0.8,0.5,0.6,4*39
$GNGSA,A,3,02,03,,,,,,,,,,,0.8,0.5,0.6,5*3F
$GNVTG,,T,,M,0.0,N,0.0,K,A*3D
$GNDTM,P90,,0000.000025,S,00000.000001,W,0.982,W84*49
$GNRMC,040540.00,A,3726.882377,N,12639.194665,E,0.0,,210622,6.0,W,A,V*6C
$GNGNS,040540.00,3726.882377,N,12639.194665,E,AAAAAN,37,0.5,7.0,18.0,,,V*20
$GNGGA,040540.00,3726.882377,N,12639.194665,E,1,12,0.5,7.0,M,18.0,M,,*78
$PSMSG,magcal=PASS,bluesky=0*00
$GPGSV,3,1,11,01,17,060,44,03,45,053,40,04,16,105,46,06,42,274,39,1*69
$GPGSV,3,2,11,09,11,137,36,14,41,191,46,17,74,015,44,19,56,323,44,1*6F
$GPGSV,3,3,11,02,04,261,,11,07,254,,12,00,000,,1*50
$GLGSV,2,1,08,70,37,057,29,77,26,307,30,76,33,250,41,75,07,199,39,1*77
$GLGSV,2,2,08,87,15,291,39,85,33,060,50,71,40,127,35,72,09,168,40,1*72
$GAGSV,3,1,09,01,16,319,37,03,22,078,42,05,02,032,22,08,19,133,33,7*7C
$GAGSV,3,2,09,13,61,312,44,15,42,050,46,21,47,274,43,26,16,267,26,7*79
$GAGSV,3,3,09,27,37,198,45,7*4A
$GQGSV,1,1,03,02,32,178,46,03,79,070,43,04,00,000,35,1*56
$GBGSV,4,1,15,33,48,087,44,28,64,043,48,27,42,305,45,14,33,056,46,1*77
$GBGSV,4,2,15,13,41,240,43,10,68,264,41,08,50,244,44,07,72,222,35,1*71
$GBGSV,4,3,15,03,43,205,36,02,26,234,33,01,42,150,27,04,35,130,,1*76
$GBGSV,4,4,15,05,07,254,,36,02,324,,37,17,223,,1*40
$GNGSA,A,3,01,03,04,06,09,14,17,19,,,,,0.8,0.5,0.6,1*38
$GNGSA,A,3,70,71,72,75,76,77,85,87,,,,,0.8,0.5,0.6,2*3C
$GNGSA,A,3,01,03,08,13,15,21,26,27,,,,,0.8,0.5,0.6,3*36
$GNGSA,A,3,01,02,03,07,08,10,13,14,27,28,33,,0.8,0.5,0.6,4*39
$GNGSA,A,3,02,03,,,,,,,,,,,0.8,0.5,0.6,5*3F
$GNVTG,,T,,M,0.0,N,0.0,K,A*3D
$GNDTM,P90,,0000.000025,S,00000.000001,W,0.982,W84*49
$GNRMC,040541.00,A,3726.882375,N,12639.194662,E,0.0,,210622,6.0,W,A,V*68
$GNGNS,040541.00,3726.882375,N,12639.194662,E,AAAAAN,37,0.5,6.9,18.0,,,V*2C
$GNGGA,040541.00,3726.882375,N,12639.194662,E,1,12,0.5,6.9,M,18.0,M,,*74
$PSMSG,magcal=PASS,bluesky=0*00
$GPGSV,3,1,11,01,17,060,44,03,45,053,40,04,16,105,45,06,42,274,41,1*65
$GPGSV,3,2,11,09,11,137,36,14,41,191,46,17,74,015,44,19,56,323,44,1*6F
$GPGSV,3,3,11,02,04,261,,11,07,254,,12,00,000,,1*50
$GLGSV,2,1,08,70,37,057,28,77,26,307,30,76,33,250,42,75,07,199,40,1*7B
$GLGSV,2,2,08,87,15,291,36,85,33,060,51,71,40,127,36,72,09,168,40,1*7F
$GAGSV,3,1,09,01,16,319,35,03,22,078,42,05,02,032,22,08,19,133,34,7*79
$GAGSV,3,2,09,13,61,312,45,15,42,050,45,21,47,274,43,26,16,267,26,7*7B
$GAGSV,3,3,09,27,37,198,45,7*4A
$GQGSV,1,1,03,02,32,178,46,03,79,070,43,04,00,000,35,1*56
$GBGSV,4,1,15,33,48,087,44,28,64,043,48,27,42,305,45,14,33,056,46,1*77
$GBGSV,4,2,15,13,41,240,43,10,68,264,41,08,50,244,44,07,72,222,34,1*70
$GBGSV,4,3,15,03,43,205,36,02,26,234,34,01,42,150,27,04,35,130,,1*71
$GBGSV,4,4,15,05,07,254,,36,02,324,,37,17,223,,1*40
$GNGSA,A,3,01,03,04,06,09,14,17,19,,,,,0.8,0.5,0.6,1*38
$GNGSA,A,3,70,71,72,75,76,77,85,87,,,,,0.8,0.5,0.6,2*3C
$GNGSA,A,3,01,03,08,13,15,21,26,27,,,,,0.8,0.5,0.6,3*36
$GNGSA,A,3,01,02,03,07,08,10,13,14,27,28,33,,0.8,0.5,0.6,4*39
$GNGSA,A,3,02,03,,,,,,,,,,,0.8,0.5,0.6,5*3F
$GNVTG,,T,,M,0.0,N,0.0,K,A*3D
$GNDTM,P90,,0000.000025,S,00000.000001,W,0.982,W84*49
$GNRMC,040542.00,A,3726.882375,N,12639.194660,E,0.0,,210622,6.0,W,A,V*69
$GNGNS,040542.00,3726.882375,N,12639.194660,E,AAAAAN,37,0.5,6.9,18.0,,,V*2D
$GNGGA,040542.00,3726.882375,N,12639.194660,E,1,12,0.5,6.9,M,18.0,M,,*75
$PSMSG,magcal=PASS,bluesky=0*00
$GPGSV,3,1,11,01,17,060,42,03,45,053,40,04,16,105,46,06,42,274,41,1*60
$GPGSV,3,2,11,09,11,137,36,14,41,191,46,17,74,015,44,19,56,323,44,1*6F
$GPGSV,3,3,11,02,04,261,,11,07,254,,12,00,000,,1*50
$GLGSV,2,1,08,70,37,057,28,77,26,307,29,76,33,250,37,75,07,199,40,1*71
$GLGSV,2,2,08,87,15,291,39,85,33,060,51,71,40,127,35,72,09,168,40,1*73
$GAGSV,3,1,09,01,16,319,34,03,22,078,43,08,19,133,35,13,61,312,45,7*7A
$GAGSV,3,2,09,15,42,050,45,21,47,274,43,26,16,267,25,27,37,198,44,7*7D
$GAGSV,3,3,09,05,02,032,,7*4C
$GQGSV,1,1,03,02,32,178,46,03,79,070,43,04,00,000,34,1*57
$GBGSV,4,1,15,33,48,087,44,28,64,043,49,27,42,305,45,14,33,056,47,1*77
$GBGSV,4,2,15,13,41,240,43,10,68,264,41,08,50,244,42,07,72,222,35,1*77
$GBGSV,4,3,15,03,43,205,36,02,26,234,34,01,42,150,,04,35,130,,1*74
$GBGSV,4,4,15,05,07,254,,36,02,324,,37,17,223,,1*40
$GNGSA,A,3,01,03,04,06,09,14,17,19,,,,,0.8,0.5,0.6,1*38
$GNGSA,A,3,70,71,72,75,76,77,85,87,,,,,0.8,0.5,0.6,2*3C
$GNGSA,A,3,01,03,08,13,15,21,26,27,,,,,0.8,0.5,0.6,3*36
$GNGSA,A,3,01,02,03,07,08,10,13,14,27,28,33,,0.8,0.5,0.6,4*39
$GNGSA,A,3,02,03,,,,,,,,,,,0.8,0.5,0.6,5*3F
$GNVTG,,T,,M,0.0,N,0.0,K,A*3D
$GNDTM,P90,,0000.000025,S,00000.000001,W,0.982,W84*49
$GNRMC,040543.00,A,3726.882375,N,12639.194660,E,0.0,,210622,6.0,W,A,V*68
$GNGNS,040543.00,3726.882375,N,12639.194660,E,AAAAAN,37,0.5,7.0,18.0,,,V*24
$GNGGA,040543.00,3726.882375,N,12639.194660,E,1,12,0.5,7.0,M,18.0,M,,*7C
$PSMSG,magcal=PASS,bluesky=0*00
$GPGSV,3,1,11,01,17,060,41,03,45,053,41,04,16,105,45,06,42,274,42,1*62
$GPGSV,3,2,11,09,11,137,37,14,41,191,46,17,74,015,45,19,56,323,44,1*6F
$GPGSV,3,3,11,02,04,261,,11,07,254,,12,00,000,,1*50
$GLGSV,2,1,08,70,37,057,28,77,26,307,28,76,33,250,38,75,07,199,39,1*71
$GLGSV,2,2,08,87,15,291,38,85,33,060,51,71,40,127,35,72,09,168,40,1*72
$GAGSV,3,1,09,01,16,319,34,03,22,078,42,08,19,133,35,13,61,312,45,7*7B
$GAGSV,3,2,09,15,42,050,45,21,47,274,44,26,16,267,24,27,37,198,44,7*7B
$GAGSV,3,3,09,05,02,032,,7*4C
$GQGSV,1,1,03,02,32,178,46,03,79,070,43,04,00,000,35,1*56
$GBGSV,4,1,15,33,48,087,44,28,64,043,49,27,42,305,45,14,33,056,46,1*76
$GBGSV,4,2,15,13,41,240,42,10,68,264,41,08,50,244,42,07,72,222,36,1*75
$GBGSV,4,3,15,03,43,205,37,02,26,234,34,01,42,150,,04,35,130,,1*75
$GBGSV,4,4,15,05,07,254,,36,02,324,,37,17,223,,1*40
$GNGSA,A,3,01,03,04,06,09,14,17,19,,,,,0.8,0.5,0.6,1*38
$GNGSA,A,3,70,71,72,75,76,77,85,87,,,,,0.8,0.5,0.6,2*3C
$GNGSA,A,3,01,03,08,13,15,21,26,27,,,,,0.8,0.5,0.6,3*36
$GNGSA,A,3,01,02,03,07,08,10,13,14,27,28,33,,0.8,0.5,0.6,4*39
$GNGSA,A,3,02,03,,,,,,,,,,,0.8,0.5,0.6,5*3F
$GNVTG,,T,,M,0.0,N,0.0,K,A*3D
$GNDTM,P90,,0000.000025,S,00000.000001,W,0.982,W84*49
$GNRMC,040544.00,A,3726.882377,N,12639.194659,E,0.0,,210622,6.0,W,A,V*67
$GNGNS,040544.00,3726.882377,N,12639.194659,E,AAAAAN,37,0.5,7.0,18.0,,,V*2B
$GNGGA,040544.00,3726.882377,N,12639.194659,E,1,12,0.5,7.0,M,18.0,M,,*73
$PSMSG,magcal=PASS,bluesky=0*00
$GPGSV,3,1,11,01,17,060,42,03,45,053,41,04,16,105,45,06,42,274,42,1*61
$GPGSV,3,2,11,09,11,137,37,14,41,191,46,17,74,015,45,19,56,323,45,1*6E
$GPGSV,3,3,11,02,04,261,,11,07,254,,12,00,000,,1*50
$GLGSV,2,1,08,70,37,057,27,77,26,307,29,76,33,250,40,75,07,199,40,1*7E
$GLGSV,2,2,08,87,15,291,36,85,33,060,51,71,40,127,33,72,09,168,40,1*7A
$GAGSV,3,1,09,01,16,319,36,03,22,078,42,08,19,133,33,13,61,312,45,7*7F
$GAGSV,3,2,09,15,42,050,45,21,47,274,43,26,16,267,24,27,37,198,44,7*7C
$GAGSV,3,3,09,05,02,032,,7*4C
$GQGSV,1,1,03,02,32,178,46,03,79,070,43,04,00,000,35,1*56
$GBGSV,4,1,15,33,48,087,44,28,64,043,49,27,42,305,45,14,33,056,46,1*76
$GBGSV,4,2,15,13,41,240,43,10,68,262,40,08,50,244,41,07,72,222,36,1*70
$GBGSV,4,3,15,03,43,205,37,02,26,234,33,01,42,150,,04,35,130,,1*72
$GBGSV,4,4,15,05,07,254,,36,02,324,,37,17,223,,1*40
$GNGSA,A,3,01,03,04,06,09,14,17,19,,,,,0.8,0.5,0.6,1*38
$GNGSA,A,3,70,71,72,75,76,77,85,87,,,,,0.8,0.5,0.6,2*3C
$GNGSA,A,3,01,03,08,13,15,21,26,27,,,,,0.8,0.5,0.6,3*36
$GNGSA,A,3,01,02,03,07,08,10,13,14,27,28,33,,0.8,0.5,0.6,4*39
$GNGSA,A,3,02,03,,,,,,,,,,,0.8,0.5,0.6,5*3F
$GNVTG,,T,,M,0.0,N,0.0,K,A*3D
$GNDTM,P90,,0000.000025,S,00000.000001,W,0.982,W84*49
$GNRMC,040545.00,A,3726.882381,N,12639.194655,E,0.0,,210622,6.0,W,A,V*63
$GNGNS,040545.00,3726.882381,N,12639.194655,E,AAAAAN,37,0.5,7.0,18.0,,,V*2F
$GNGGA,040545.00,3726.882381,N,12639.194655,E,1,12,0.5,7.0,M,18.0,M,,*77
$PSMSG,magcal=PASS,bluesky=0*00
$GPGSV,3,1,11,01,17,060,41,03,45,053,41,04,16,105,46,06,42,274,41,1*62
$GPGSV,3,2,11,09,11,137,37,14,41,191,46,17,74,015,44,19,56,323,44,1*6E
$GPGSV,3,3,11,02,04,261,,11,07,254,,12,00,000,,1*50
$GLGSV,2,1,08,70,37,057,28,77,26,307,31,76,33,250,39,75,07,199,40,1*76
$GLGSV,2,2,08,87,15,291,37,85,33,060,51,71,40,127,33,72,09,168,40,1*7B
$GAGSV,3,1,09,01,16,319,34,03,22,078,42,08,19,133,33,13,61,312,44,7*7C
$GAGSV,3,2,09,15,42,050,45,21,47,274,44,26,16,267,23,27,37,198,43,7*7B
$GAGSV,3,3,09,05,02,032,,7*4C
$GQGSV,1,1,03,02,32,178,45,03,79,070,43,04,00,000,35,1*55
$GBGSV,4,1,15,33,48,087,44,28,64,043,49,27,42,305,46,14,33,056,46,1*75
$GBGSV,4,2,15,13,41,240,43,10,68,262,41,08,50,244,41,07,72,222,36,1*71
$GBGSV,4,3,15,03,43,205,37,02,26,234,33,01,42,150,26,04,35,130,,1*76
$GBGSV,4,4,15,05,07,254,,36,02,324,,37,17,223,,1*40
$GNGSA,A,3,01,03,04,06,09,14,17,19,,,,,0.8,0.5,0.6,1*38
$GNGSA,A,3,70,71,72,75,76,77,85,87,,,,,0.8,0.5,0.6,2*3C
$GNGSA,A,3,01,03,08,13,15,21,26,27,,,,,0.8,0.5,0.6,3*36
$GNGSA,A,3,01,02,03,07,08,10,13,14,27,28,33,,0.8,0.5,0.6,4*39
$GNGSA,A,3,02,03,,,,,,,,,,,0.8,0.5,0.6,5*3F
$GNVTG,,T,,M,0.0,N,0.0,K,A*3D
$GNDTM,P90,,0000.000025,S,00000.000001,W,0.982,W84*49
$GNRMC,040546.00,A,3726.882383,N,12639.194651,E,0.0,,210622,6.0,W,A,V*66
$GNGNS,040546.00,3726.882383,N,12639.194651,E,AAAAAN,37,0.5,7.0,18.0,,,V*2A
$GNGGA,040546.00,3726.882383,N,12639.194651,E,1,12,0.5,7.0,M,18.0,M,,*72
$PSMSG,magcal=PASS,bluesky=0*00
$GPGSV,3,1,11,01,17,060,43,03,45,053,40,04,16,105,45,06,42,274,40,1*63
$GPGSV,3,2,11,09,11,137,36,11,07,254,28,14,41,191,46,17,74,015,45,1*69
$GPGSV,3,3,11,19,56,323,44,02,04,261,,12,00,000,,1*5D
$GLGSV,2,1,08,70,37,057,30,77,26,307,31,76,33,250,38,75,07,199,40,1*7E
$GLGSV,2,2,08,87,15,291,38,85,33,060,51,71,40,127,34,72,09,168,40,1*73
$GAGSV,3,1,09,01,16,319,33,03,22,078,42,08,19,133,34,13,61,312,44,7*7C
$GAGSV,3,2,09,15,42,050,46,21,47,274,43,26,16,267,23,27,37,198,43,7*7F
$GAGSV,3,3,09,05,02,032,,7*4C
$GQGSV,1,1,03,02,32,178,46,03,79,070,43,04,00,000,35,1*56
$GBGSV,4,1,15,33,48,087,44,28,64,043,49,27,42,305,45,14,33,056,46,1*76
$GBGSV,4,2,15,13,41,240,44,10,68,262,41,08,50,244,42,07,72,222,34,1*77
$GBGSV,4,3,15,03,43,205,37,02,26,234,34,01,42,150,26,04,35,130,,1*71
$GBGSV,4,4,15,05,07,254,,36,02,324,,37,17,223,,1*40
$GNGSA,A,3,01,03,04,06,09,11,14,17,19,,,,0.8,0.4,0.6,1*39
$GNGSA,A,3,70,71,72,75,76,77,85,87,,,,,0.8,0.4,0.6,2*3D
$GNGSA,A,3,01,03,08,13,15,21,26,27,,,,,0.8,0.4,0.6,3*37
$GNGSA,A,3,01,02,03,07,08,10,13,14,27,28,33,,0.8,0.4,0.6,4*38
$GNGSA,A,3,02,03,,,,,,,,,,,0.8,0.4,0.6,5*3E
$GNVTG,,T,,M,0.0,N,0.0,K,A*3D
$GNDTM,P90,,0000.000025,S,00000.000001,W,0.982,W84*49
$GNRMC,040547.00,A,3726.882386,N,12639.194650,E,0.0,,210622,6.0,W,A,V*63
$GNGNS,040547.00,3726.882386,N,12639.194650,E,AAAAAN,38,0.4,7.0,18.0,,,V*21
$GNGGA,040547.00,3726.882386,N,12639.194650,E,1,12,0.4,7.0,M,18.0,M,,*76
$PSMSG,magcal=PASS,bluesky=0*00
$GPGSV,3,1,11,01,17,060,43,03,45,053,41,04,16,105,45,06,42,274,42,1*60
$GPGSV,3,2,11,09,11,137,36,11,07,254,31,14,41,191,46,17,74,015,45,1*61
$GPGSV,3,3,11,19,56,323,44,02,04,261,,12,00,000,,1*5D
$GLGSV,2,1,08,70,37,057,29,77,26,307,27,76,33,250,43,75,07,199,40,1*7D
$GLGSV,2,2,08,87,15,291,38,85,33,060,51,71,40,127,35,72,09,168,40,1*72
$GAGSV,3,1,09,01,16,319,34,03,22,078,43,08,19,133,34,13,61,312,44,7*7A
$GAGSV,3,2,09,15,42,050,46,21,47,274,44,26,16,267,23,27,37,198,44,7*7F
$GAGSV,3,3,09,05,02,032,,7*4C
$GQGSV,1,1,03,02,32,178,46,03,79,070,44,04,00,000,36,1*52
$GBGSV,4,1,15,33,48,087,44,28,64,043,49,27,42,305,43,14,33,056,46,1*70
$GBGSV,4,2,15,13,41,240,44,10,68,262,41,08,50,244,44,07,72,222,35,1*70
$GBGSV,4,3,15,03,43,205,36,02,26,234,34,01,42,150,26,04,35,130,,1*70
$GBGSV,4,4,15,05,07,254,,36,02,324,,37,17,223,,1*40
$GNGSA,A,3,01,03,04,06,09,11,14,17,19,,,,0.8,0.4,0.6,1*39
$GNGSA,A,3,70,71,72,75,76,77,85,87,,,,,0.8,0.4,0.6,2*3D
$GNGSA,A,3,01,03,08,13,15,21,27,,,,,,0.8,0.4,0.6,3*33
$GNGSA,A,3,01,02,03,07,08,10,13,14,27,28,33,,0.8,0.4,0.6,4*38
$GNGSA,A,3,02,03,,,,,,,,,,,0.8,0.4,0.6,5*3E
$GNVTG,,T,,M,0.0,N,0.0,K,A*3D
$GNDTM,P90,,0000.000025,S,00000.000001,W,0.982,W84*49
$GNRMC,040548.00,A,3726.882387,N,12639.194651,E,0.0,,210622,6.0,W,A,V*6C
$GNGNS,040548.00,3726.882387,N,12639.194651,E,AAAAAN,37,0.4,7.0,18.0,,,V*21
$GNGGA,040548.00,3726.882387,N,12639.194651,E,1,12,0.4,7.0,M,18.0,M,,*79
$PSMSG,magcal=PASS,bluesky=0*00
$GPGSV,3,1,11,01,17,060,43,03,45,053,41,04,16,105,45,06,42,274,39,1*6C
$GPGSV,3,2,11,09,11,137,37,11,07,254,31,14,41,191,45,17,74,015,44,1*62
$GPGSV,3,3,11,19,56,323,44,02,04,261,,12,00,000,,1*5D
$GLGSV,2,1,08,70,37,057,29,77,26,307,30,76,33,250,40,75,07,199,40,1*78
$GLGSV,2,2,08,87,15,291,37,85,33,060,50,71,40,127,32,72,09,168,40,1*7B
$GAGSV,3,1,09,01,16,319,36,03,22,078,42,08,19,133,33,13,61,312,44,7*7E
$GAGSV,3,2,09,15,42,050,46,21,47,274,44,26,16,267,24,27,37,198,43,7*7F
$GAGSV,3,3,09,05,02,032,,7*4C
$GQGSV,1,1,03,02,32,178,45,03,79,070,43,04,00,000,33,1*53
$GBGSV,4,1,14,33,48,087,44,28,64,043,48,27,42,305,44,14,33,056,45,1*74
$GBGSV,4,2,14,13,41,240,43,10,68,262,41,08,50,244,43,07,72,222,35,1*71
$GBGSV,4,3,14,03,43,205,35,02,26,234,34,01,42,150,26,05,07,254,,1*73
$GBGSV,4,4,14,36,02,324,,37,17,223,,1*70
$GNGSA,A,3,01,03,04,06,09,11,14,17,19,,,,0.8,0.4,0.6,1*39
$GNGSA,A,3,70,71,72,75,76,77,85,87,,,,,0.8,0.4,0.6,2*3D
$GNGSA,A,3,01,03,08,13,15,21,27,,,,,,0.8,0.4,0.6,3*33
$GNGSA,A,3,01,02,03,07,08,10,13,14,27,28,33,,0.8,0.4,0.6,4*38
$GNGSA,A,3,02,03,,,,,,,,,,,0.8,0.4,0.6,5*3E
$GNVTG,,T,,M,0.0,N,0.0,K,A*3D
$GNDTM,P90,,0000.000025,S,00000.000001,W,0.982,W84*49
$GNRMC,040549.00,A,3726.882389,N,12639.194651,E,0.0,,210622,6.0,W,A,V*63
$GNGNS,040549.00,3726.882389,N,12639.194651,E,AAAAAN,37,0.4,7.0,18.0,,,V*2E
$GNGGA,040549.00,3726.882389,N,12639.194651,E,1,12,0.4,7.0,M,18.0,M,,*76
$PSMSG,magcal=PASS,bluesky=0*00
$GPGSV,3,1,11,01,17,060,44,03,45,053,39,04,16,105,45,06,42,274,41,1*6B
$GPGSV,3,2,11,09,11,137,37,11,07,254,30,14,41,191,45,17,74,015,44,1*63
$GPGSV,3,3,11,19,56,323,44,02,04,261,,12,00,000,,1*5D
$GLGSV,2,1,08,70,37,057,29,77,26,307,29,76,33,250,39,75,07,199,40,1*7E
$GLGSV,2,2,08,87,15,291,38,85,33,060,50,71,40,127,30,72,09,168,40,1*76
$GAGSV,3,1,09,01,16,319,34,03,22,078,43,08,19,133,33,13,61,312,44,7*7D
$GAGSV,3,2,09,15,42,050,45,21,47,274,43,26,16,267,23,27,37,198,43,7*7C
$GAGSV,3,3,09,05,02,032,,7*4C
$GQGSV,1,1,03,02,32,178,45,03,79,070,43,04,00,000,33,1*53
$GBGSV,4,1,14,33,48,087,44,28,64,043,48,27,42,305,44,14,33,056,45,1*74
$GBGSV,4,2,14,13,41,240,43,10,68,262,41,08,50,244,43,07,72,222,35,1*71
$GBGSV,4,3,14,03,43,205,36,02,26,234,33,01,42,150,26,05,07,254,,1*77
$GBGSV,4,4,14,36,02,324,,37,17,223,,1*70
$GNGSA,A,3,01,03,04,06,09,11,14,17,19,,,,0.8,0.4,0.6,1*39
$GNGSA,A,3,70,71,72,75,76,77,85,87,,,,,0.8,0.4,0.6,2*3D
$GNGSA,A,3,01,03,08,13,15,21,27,,,,,,0.8,0.4,0.6,3*33
$GNGSA,A,3,01,02,03,07,08,10,13,14,27,28,33,,0.8,0.4,0.6,4*38
$GNGSA,A,3,02,03,,,,,,,,,,,0.8,0.4,0.6,5*3E
$GNVTG,,T,,M,0.0,N,0.0,K,A*3D
$GNDTM,P90,,0000.000025,S,00000.000001,W,0.982,W84*49
$GNRMC,040550.00,A,3726.882387,N,12639.194654,E,0.0,,210622,6.0,W,A,V*60
$GNGNS,040550.00,3726.882387,N,12639.194654,E,AAAAAN,37,0.4,7.0,18.0,,,V*2D
$GNGGA,040550.00,3726.882387,N,12639.194654,E,1,12,0.4,7.0,M,18.0,M,,*75
$PSMSG,magcal=PASS,bluesky=0*00
$GPGSV,3,1,11,01,17,060,44,03,45,053,39,04,16,105,45,06,42,274,40,1*6A
$GPGSV,3,2,11,09,11,137,37,14,41,191,46,17,74,015,44,19,56,323,44,1*6E
$GPGSV,3,3,11,02,04,261,,11,07,254,,12,00,000,,1*50
$GLGSV,2,1,08,70,37,057,29,77,26,307,30,76,33,250,40,75,07,199,41,1*79
$GLGSV,2,2,08,87,15,291,38,85,33,060,50,71,40,127,34,72,09,168,39,1*7C
$GAGSV,3,1,09,01,16,319,34,03,22,078,43,08,19,133,33,13,61,312,45,7*7C
$GAGSV,3,2,09,15,42,050,45,21,47,274,44,26,16,267,29,27,37,198,44,7*76
$GAGSV,3,3,09,05,02,032,,7*4C
$GQGSV,1,1,03,02,32,178,46,03,79,070,43,04,00,000,34,1*57
$GBGSV,4,1,15,33,48,087,44,28,64,043,49,27,42,305,44,14,33,056,46,1*77
$GBGSV,4,2,15,13,41,240,44,10,68,262,41,08,50,244,43,07,72,222,35,1*77
$GBGSV,4,3,15,03,43,205,36,02,26,234,34,01,42,150,26,04,35,130,,1*70
$GBGSV,4,4,15,05,07,254,,36,02,324,,37,17,223,,1*40
$GNGSA,A,3,01,03,04,06,09,11,14,17,19,,,,0.8,0.4,0.6,1*39
$GNGSA,A,3,70,71,72,75,76,77,85,87,,,,,0.8,0.4,0.6,2*3D
$GNGSA,A,3,01,03,08,13,15,21,26,27,,,,,0.8,0.4,0.6,3*37
$GNGSA,A,3,01,02,03,07,08,10,13,14,27,28,33,,0.8,0.4,0.6,4*38
$GNGSA,A,3,02,03,,,,,,,,,,,0.8,0.4,0.6,5*3E
$GNVTG,,T,,M,0.0,N,0.0,K,A*3D
$GNDTM,P90,,0000.000025,S,00000.000001,W,0.982,W84*49
$GNRMC,040551.00,A,3726.882386,N,12639.194656,E,0.0,,210622,6.0,W,A,V*62
$GNGNS,040551.00,3726.882386,N,12639.194656,E,AAAAAN,38,0.4,7.0,18.0,,,V*20
$GNGGA,040551.00,3726.882386,N,12639.194656,E,1,12,0.4,7.0,M,18.0,M,,*77
$PSMSG,magcal=PASS,bluesky=0*00
$GPGSV,3,1,11,01,17,060,44,03,45,053,38,04,16,105,45,06,42,274,40,1*6B
$GPGSV,3,2,11,09,11,137,37,14,41,191,45,17,74,015,45,19,56,323,44,1*6C
$GPGSV,3,3,11,02,04,261,,11,07,254,,12,00,000,,1*50
$GLGSV,2,1,08,70,37,057,27,77,26,307,29,76,33,250,41,75,07,199,41,1*7E
$GLGSV,2,2,08,87,15,291,37,85,33,060,50,71,40,127,33,72,09,168,40,1*7A
$GAGSV,3,1,09,01,16,319,34,03,22,078,43,08,19,133,33,13,61,312,45,7*7C
$GAGSV,3,2,09,15,42,050,46,21,47,274,43,26,16,267,28,27,37,198,44,7*73
$GAGSV,3,3,09,05,02,032,,7*4C
$GQGSV,1,1,03,02,32,178,46,03,79,070,43,04,00,000,32,1*51
$GBGSV,4,1,15,33,48,087,45,28,64,043,48,27,42,305,44,14,33,056,46,1*77
$GBGSV,4,2,15,13,41,240,44,10,68,262,41,08,50,244,43,07,72,222,35,1*77
$GBGSV,4,3,15,03,43,205,36,02,26,234,34,01,42,150,26,04,35,130,,1*70
$GBGSV,4,4,15,05,07,254,,36,02,324,,37,17,223,,1*40
$GNGSA,A,3,01,03,04,06,09,11,14,17,19,,,,0.8,0.4,0.6,1*39
$GNGSA,A,3,70,71,72,75,76,77,85,87,,,,,0.8,0.4,0.6,2*3D
$GNGSA,A,3,01,03,08,13,15,21,26,27,,,,,0.8,0.4,0.6,3*37
$GNGSA,A,3,02,03,07,08,10,13,14,27,28,33,,,0.8,0.4,0.6,4*39
$GNGSA,A,3,02,03,,,,,,,,,,,0.8,0.4,0.6,5*3E
$GNVTG,,T,,M,0.0,N,0.0,K,A*3D
$GNDTM,P90,,0000.000025,S,00000.000001,W,0.982,W84*49
$GNRMC,040552.00,A,3726.882386,N,12639.194659,E,0.0,,210622,6.0,W,A,V*6E
$GNGNS,040552.00,3726.882386,N,12639.194659,E,AAAAAN,37,0.4,7.0,18.0,,,V*23
$GNGGA,040552.00,3726.882386,N,12639.194659,E,1,12,0.4,7.0,M,18.0,M,,*7B
$PSMSG,magcal=PASS,bluesky=0*00
$GPGSV,3,1,11,01,17,060,43,03,45,053,38,04,16,105,45,06,42,274,38,1*63
$GPGSV,3,2,11,09,11,137,37,14,41,191,46,17,74,015,45,19,56,323,44,1*6F
$GPGSV,3,3,11,02,04,261,,11,07,254,,12,00,000,,1*50
$GLGSV,2,1,08,70,37,057,29,77,26,307,27,76,33,250,40,75,07,199,41,1*7F
$GLGSV,2,2,08,87,15,291,37,85,33,060,51,71,40,127,33,72,09,168,40,1*7B
$GAGSV,3,1,09,01,16,319,34,03,22,078,43,08,19,133,33,13,61,312,44,7*7D
$GAGSV,3,2,09,15,42,050,45,21,47,274,44,26,16,267,27,27,37,198,44,7*78
$GAGSV,3,3,09,05,02,032,,7*4C
$GQGSV,1,1,03,02,32,178,46,03,79,070,43,04,00,000,34,1*57
$GBGSV,4,1,15,33,48,087,44,28,64,043,48,27,42,305,43,14,33,056,45,1*72
$GBGSV,4,2,15,13,41,240,44,10,68,262,41,08,50,244,44,07,72,222,35,1*70
$GBGSV,4,3,15,04,35,130,26,03,43,205,36,02,26,234,35,01,42,150,26,1*75
$GBGSV,4,4,15,05,07,254,,36,02,324,,37,17,223,,1*40
$GNGSA,A,3,01,03,04,06,09,11,14,17,19,,,,0.8,0.4,0.6,1*39
$GNGSA,A,3,70,71,72,75,76,77,85,87,,,,,0.8,0.4,0.6,2*3D
$GNGSA,A,3,01,03,08,13,15,21,26,27,,,,,0.8,0.4,0.6,3*37
$GNGSA,A,3,02,03,04,07,08,10,13,14,27,28,33,,0.8,0.4,0.6,4*3D
$GNGSA,A,3,02,03,,,,,,,,,,,0.8,0.4,0.6,5*3E
$GNVTG,,T,,M,0.0,N,0.0,K,A*3D
$GNDTM,P90,,0000.000025,S,00000.000001,W,0.982,W84*49
$GNRMC,040553.00,A,3726.882385,N,12639.194660,E,0.0,,210622,6.0,W,A,V*66
$GNGNS,040553.00,3726.882385,N,12639.194660,E,AAAAAN,38,0.4,7.0,18.0,,,V*24
$GNGGA,040553.00,3726.882385,N,12639.194660,E,1,12,0.4,7.0,M,18.0,M,,*73
$PSMSG,magcal=PASS,bluesky=0*00
$GPGSV,3,1,11,01,17,060,43,03,45,053,38,04,16,105,45,06,42,274,39,1*62
$GPGSV,3,2,11,09,11,137,37,14,41,191,46,17,74,015,45,19,56,323,44,1*6F
$GPGSV,3,3,11,02,04,261,,11,07,254,,12,00,000,,1*50
$GLGSV,2,1,08,70,37,057,29,77,26,307,28,76,33,250,41,75,07,199,41,1*71
$GLGSV,2,2,08,87,15,291,37,85,33,060,51,71,40,127,31,72,09,168,40,1*79
$GAGSV,3,1,09,01,16,319,33,03,22,078,44,08,19,133,34,13,61,312,44,7*7A
$GAGSV,3,2,09,15,42,050,45,21,47,274,44,26,16,267,28,27,37,198,44,7*77
$GAGSV,3,3,09,05,02,032,,7*4C
$GQGSV,1,1,03,02,32,178,46,03,79,070,43,04,00,000,34,1*57
$GBGSV,4,1,15,33,48,087,45,28,64,043,48,27,42,305,44,14,33,056,46,1*77
$GBGSV,4,2,15,13,41,240,44,10,68,262,41,08,50,244,43,07,72,222,34,1*76
$GBGSV,4,3,15,04,35,130,26,03,43,205,36,02,26,234,35,01,42,150,26,1*75
$GBGSV,4,4,15,05,07,254,,36,02,324,,37,17,223,,1*40
$GNGSA,A,3,01,03,04,06,09,11,14,17,19,,,,0.8,0.4,0.6,1*39
$GNGSA,A,3,70,71,72,75,76,77,85,87,,,,,0.8,0.4,0.6,2*3D
$GNGSA,A,3,01,03,08,13,15,21,26,27,,,,,0.8,0.4,0.6,3*37
$GNGSA,A,3,02,03,04,07,08,10,13,14,27,28,33,,0.8,0.4,0.6,4*3D
$GNGSA,A,3,02,03,,,,,,,,,,,0.8,0.4,0.6,5*3E
$GNVTG,,T,,M,0.0,N,0.0,K,A*3D
$GNDTM,P90,,0000.000025,S,00000.000001,W,0.982,W84*49
$GNRMC,040554.00,A,3726.882384,N,12639.194662,E,0.0,,210622,6.0,W,A,V*62
$GNGNS,040554.00,3726.882384,N,12639.194662,E,AAAAAN,38,0.4,7.0,18.0,,,V*20
$GNGGA,040554.00,3726.882384,N,12639.194662,E,1,12,0.4,7.0,M,18.0,M,,*77
$PSMSG,magcal=PASS,bluesky=0*00
$GPGSV,3,1,11,01,17,060,44,03,45,053,39,04,16,105,45,06,42,274,38,1*65
$GPGSV,3,2,11,09,11,137,38,14,41,191,45,17,74,015,45,19,56,323,43,1*64
$GPGSV,3,3,11,02,04,261,,11,07,254,,12,00,000,,1*50
$GLGSV,2,1,08,70,37,057,29,77,26,307,30,76,33,250,42,75,07,199,42,1*78
$GLGSV,2,2,08,87,15,291,38,85,33,060,50,71,40,127,32,72,09,168,39,1*7A
$GAGSV,3,1,09,01,16,319,32,03,22,078,44,08,19,133,35,13,61,312,45,7*7B
$GAGSV,3,2,09,15,42,050,45,21,47,274,44,26,16,267,28,27,37,198,44,7*77
$GAGSV,3,3,09,05,02,032,,7*4C
$GQGSV,1,1,03,02,32,178,46,03,79,070,44,04,00,000,34,1*50
$GBGSV,4,1,15,33,48,087,45,28,64,043,48,27,42,305,44,14,33,056,46,1*77
$GBGSV,4,2,15,13,41,240,44,10,68,262,41,08,50,244,43,07,72,222,35,1*77
$GBGSV,4,3,15,03,43,205,36,02,26,234,34,01,42,150,26,04,35,130,,1*70
$GBGSV,4,4,15,05,07,254,,36,02,324,,37,17,223,,1*40
$GNGSA,A,3,01,03,04,06,09,11,14,17,19,,,,0.8,0.4,0.6,1*39
$GNGSA,A,3,70,71,72,75,76,77,85,87,,,,,0.8,0.4,0.6,2*3D
$GNGSA,A,3,01,03,08,13,15,21,26,27,,,,,0.8,0.4,0.6,3*37
$GNGSA,A,3,02,03,04,07,08,10,13,14,27,28,33,,0.8,0.4,0.6,4*3D
$GNGSA,A,3,02,03,,,,,,,,,,,0.8,0.4,0.6,5*3E
$GNVTG,,T,,M,0.0,N,0.0,K,A*3D
$GNDTM,P90,,0000.000025,S,00000.000001,W,0.982,W84*49
$GNRMC,040555.00,A,3726.882383,N,12639.194663,E,0.0,,210622,6.0,W,A,V*65
$GNGNS,040555.00,3726.882383,N,12639.194663,E,AAAAAN,38,0.4,7.0,18.0,,,V*27
$GNGGA,040555.00,3726.882383,N,12639.194663,E,1,12,0.4,7.0,M,18.0,M,,*70
$PSMSG,magcal=PASS,bluesky=0*00
$GPGSV,3,1,11,01,17,060,44,03,45,053,39,04,16,105,45,06,42,274,38,1*65
$GPGSV,3,2,11,09,11,137,36,14,41,191,45,17,74,015,45,19,56,323,44,1*6D
$GPGSV,3,3,11,02,04,261,,11,07,254,,12,00,000,,1*50
$GLGSV,2,1,08,70,37,057,29,77,26,307,28,76,33,250,41,75,07,199,41,1*71
$GLGSV,2,2,08,87,15,291,33,85,33,060,50,71,40,127,33,72,09,168,37,1*7E
$GAGSV,3,1,09,01,16,319,34,03,22,078,43,08,19,133,33,13,61,312,44,7*7D
$GAGSV,3,2,09,15,42,050,45,21,47,274,43,26,16,267,29,27,37,198,44,7*71
$GAGSV,3,3,09,05,02,032,,7*4C
$GQGSV,1,1,03,02,32,178,45,03,79,070,43,04,00,000,32,1*52
$GBGSV,4,1,15,33,48,087,44,28,64,043,49,27,42,305,43,14,33,056,45,1*73
$GBGSV,4,2,15,13,41,240,43,10,68,262,41,08,50,244,43,07,72,222,35,1*70
$GBGSV,4,3,15,03,43,205,35,02,26,234,34,01,42,150,26,04,35,130,,1*73
$GBGSV,4,4,15,05,07,254,,36,02,324,,37,17,223,,1*40
$GNGSA,A,3,01,03,04,06,09,14,17,19,,,,,0.8,0.5,0.6,1*38
$GNGSA,A,3,70,71,72,75,76,77,85,87,,,,,0.8,0.5,0.6,2*3C
$GNGSA,A,3,01,03,08,13,15,21,26,27,,,,,0.8,0.5,0.6,3*36
$GNGSA,A,3,02,03,04,07,08,10,13,14,27,28,33,,0.8,0.5,0.6,4*3C
$GNGSA,A,3,02,03,,,,,,,,,,,0.8,0.5,0.6,5*3F
$GNVTG,,T,,M,0.0,N,0.0,K,A*3D
$GNDTM,P90,,0000.000025,S,00000.000001,W,0.982,W84*49
$GNRMC,040556.00,A,3726.882383,N,12639.194665,E,0.0,,210622,6.0,W,A,V*60
$GNGNS,040556.00,3726.882383,N,12639.194665,E,AAAAAN,37,0.5,7.0,18.0,,,V*2C
$GNGGA,040556.00,3726.882383,N,12639.194665,E,1,12,0.5,7.0,M,18.0,M,,*74
$PSMSG,magcal=PASS,bluesky=0*00
$GPGSV,3,1,11,01,17,060,44,03,45,053,39,04,16,105,45,06,42,274,37,1*6A
$GPGSV,3,2,11,09,11,137,37,14,41,191,46,17,74,015,45,19,56,323,44,1*6F
$GPGSV,3,3,11,02,04,261,,11,07,254,,12,00,000,,1*50
$GLGSV,2,1,08,70,37,057,29,77,26,307,29,76,33,250,42,75,07,199,42,1*70
$GLGSV,2,2,08,87,15,291,34,85,33,060,50,71,40,127,30,72,09,168,38,1*75
$GAGSV,3,1,09,01,16,319,34,03,22,078,44,08,19,133,33,13,61,312,45,7*7B
$GAGSV,3,2,09,15,42,050,45,21,47,274,44,26,16,267,29,27,37,198,44,7*76
$GAGSV,3,3,09,05,02,032,,7*4C
$GQGSV,1,1,03,02,32,178,46,03,79,070,43,04,00,000,34,1*57
$GBGSV,4,1,15,33,48,087,45,28,64,043,49,27,42,305,44,14,33,056,45,1*75
$GBGSV,4,2,15,13,41,240,44,10,68,262,41,08,50,244,43,07,72,222,34,1*76
$GBGSV,4,3,15,03,43,205,36,02,26,234,35,01,42,150,26,04,35,130,,1*71
$GBGSV,4,4,15,05,07,254,,36,02,324,,37,17,223,,1*40
$GNGSA,A,3,01,03,04,06,09,14,17,19,,,,,0.8,0.5,0.6,1*38
$GNGSA,A,3,70,71,72,75,76,77,85,87,,,,,0.8,0.5,0.6,2*3C
$GNGSA,A,3,01,03,08,13,15,21,26,27,,,,,0.8,0.5,0.6,3*36
$GNGSA,A,3,02,03,04,07,08,10,13,14,27,28,33,,0.8,0.5,0.6,4*3C
$GNGSA,A,3,02,03,,,,,,,,,,,0.8,0.5,0.6,5*3F
$GNVTG,,T,,M,0.0,N,0.0,K,A*3D
$GNDTM,P90,,0000.000025,S,00000.000001,W,0.982,W84*49
$GNRMC,040557.00,A,3726.882383,N,12639.194666,E,0.0,,210622,6.0,W,A,V*62
$GNGNS,040557.00,3726.882383,N,12639.194666,E,AAAAAN,37,0.5,7.0,18.0,,,V*2E
$GNGGA,040557.00,3726.882383,N,12639.194666,E,1,12,0.5,7.0,M,18.0,M,,*76
$PSMSG,magcal=PASS,bluesky=0*00
$GPGSV,3,1,11,01,17,060,43,03,45,053,39,04,16,105,46,06,42,274,37,1*6E
$GPGSV,3,2,11,09,11,137,38,11,07,254,28,14,41,191,45,17,74,015,45,1*64
$GPGSV,3,3,11,19,56,323,44,02,04,261,,12,00,000,,1*5D
$GLGSV,2,1,08,70,37,057,27,77,26,307,30,76,33,250,42,75,07,199,42,1*76
$GLGSV,2,2,08,87,15,291,36,85,33,060,50,71,40,127,29,72,09,168,38,1*7F
$GAGSV,3,1,09,01,16,319,35,03,22,078,45,08,19,133,34,13,61,312,45,7*7C
$GAGSV,3,2,09,15,42,050,45,21,47,274,44,26,16,267,30,27,37,198,44,7*7E
$GAGSV,3,3,09,05,02,032,,7*4C
$GQGSV,1,1,03,02,32,178,45,03,79,070,43,04,00,000,35,1*55
$GBGSV,4,1,15,33,48,087,45,28,64,043,49,27,42,305,45,14,33,056,45,1*74
$GBGSV,4,2,15,13,41,240,43,10,68,262,41,08,50,244,44,07,72,222,35,1*77
$GBGSV,4,3,15,04,35,130,26,03,43,205,36,02,26,234,33,01,42,150,,1*77
$GBGSV,4,4,15,05,07,254,,36,02,324,,37,17,223,,1*40
$GNGSA,A,3,01,03,04,06,09,11,14,17,19,,,,0.8,0.4,0.6,1*39
$GNGSA,A,3,70,71,72,75,76,77,85,87,,,,,0.8,0.4,0.6,2*3D
$GNGSA,A,3,01,03,08,13,15,21,26,27,,,,,0.8,0.4,0.6,3*37
$GNGSA,A,3,02,03,04,07,08,10,13,14,27,28,33,,0.8,0.4,0.6,4*3D
$GNGSA,A,3,02,03,,,,,,,,,,,0.8,0.4,0.6,5*3E
$GNVTG,,T,,M,0.0,N,0.0,K,A*3D
$GNDTM,P90,,0000.000025,S,00000.000001,W,0.982,W84*49
$GNRMC,040558.00,A,3726.882384,N,12639.194665,E,0.0,,210622,6.0,W,A,V*69
$GNGNS,040558.00,3726.882384,N,12639.194665,E,AAAAAN,38,0.4,7.0,18.0,,,V*2B
$GNGGA,040558.00,3726.882384,N,12639.194665,E,1,12,0.4,7.0,M,18.0,M,,*7C
$PSMSG,magcal=PASS,bluesky=0*00
$GPGSV,3,1,11,01,17,060,44,03,45,053,39,04,16,105,45,06,42,274,38,1*65
$GPGSV,3,2,11,09,11,137,38,11,07,254,27,14,41,191,46,17,74,015,46,1*6B
$GPGSV,3,3,11,19,56,323,45,02,04,261,,12,00,000,,1*5C
$GLGSV,2,1,08,70,37,057,26,77,26,307,30,76,33,250,42,75,07,199,42,1*77
$GLGSV,2,2,08,87,15,291,37,85,33,060,51,71,40,127,28,72,09,168,40,1*71
$GAGSV,3,1,09,01,16,319,35,03,22,078,44,08,19,133,34,13,61,312,45,7*7D
$GAGSV,3,2,09,15,42,050,45,21,47,274,44,26,16,267,30,27,37,198,44,7*7E
$GAGSV,3,3,09,05,02,032,,7*4C
$GQGSV,1,1,03,02,32,178,45,03,79,070,44,04,00,000,33,1*54
$GBGSV,4,1,15,33,48,087,45,28,64,043,49,27,42,305,44,14,33,056,45,1*75
$GBGSV,4,2,15,13,41,240,43,10,68,262,41,08,50,244,44,07,72,222,34,1*76
$GBGSV,4,3,15,04,35,130,26,03,43,205,36,02,26,234,34,01,42,150,,1*70
$GBGSV,4,4,15,05,07,254,,36,02,324,,37,17,223,,1*40
$GNGSA,A,3,01,03,04,06,09,11,14,17,19,,,,0.8,0.4,0.6,1*39
$GNGSA,A,3,70,71,72,75,76,77,85,87,,,,,0.8,0.4,0.6,2*3D
$GNGSA,A,3,01,03,08,13,15,21,26,27,,,,,0.8,0.4,0.6,3*37
$GNGSA,A,3,02,03,04,07,08,10,13,14,27,28,33,,0.8,0.4,0.6,4*3D
$GNGSA,A,3,02,03,,,,,,,,,,,0.8,0.4,0.6,5*3E
$GNVTG,,T,,M,0.0,N,0.0,K,A*3D
$GNDTM,P90,,0000.000025,S,00000.000001,W,0.982,W84*49
$GNRMC,040559.00,A,3726.882387,N,12639.194664,E,0.0,,210622,6.0,W,A,V*6A
$GNGNS,040559.00,3726.882387,N,12639.194664,E,AAAAAN,38,0.4,7.0,18.0,,,V*28
$GNGGA,040559.00,3726.882387,N,12639.194664,E,1,12,0.4,7.0,M,18.0,M,,*7F
$PSMSG,magcal=PASS,bluesky=0*00
$GPGSV,3,1,11,01,17,060,43,03,45,053,39,04,16,105,45,06,42,274,40,1*6D
$GPGSV,3,2,11,09,11,137,38,14,41,191,46,17,74,015,45,19,56,323,45,1*61
$GPGSV,3,3,11,02,04,261,,11,07,254,,12,00,000,,1*50
$GLGSV,2,1,08,70,37,057,24,77,26,307,30,76,33,250,41,75,07,199,42,1*76
$GLGSV,2,2,08,87,15,291,37,85,33,060,51,71,40,127,27,72,09,168,40,1*7E
$GAGSV,3,1,09,01,16,319,35,03,22,078,43,08,19,133,36,13,61,312,45,7*78
$GAGSV,3,2,09,15,42,050,45,21,47,274,44,26,16,267,30,27,37,198,45,7*7F
$GAGSV,3,3,09,05,02,032,,7*4C
$GQGSV,1,1,03,02,32,178,45,03,79,070,43,04,00,000,35,1*55
$GBGSV,4,1,15,33,48,087,45,28,64,043,49,27,42,305,45,14,33,056,45,1*74
$GBGSV,4,2,15,13,41,240,43,10,68,262,42,08,50,244,44,07,72,222,34,1*75
$GBGSV,4,3,15,04,35,130,26,03,43,205,36,02,26,234,34,01,42,150,,1*70
$GBGSV,4,4,15,05,07,254,,36,02,324,,37,17,223,,1*40
$GNGSA,A,3,01,03,04,06,09,11,14,17,19,,,,0.8,0.4,0.6,1*39
$GNGSA,A,3,70,71,72,75,76,77,85,87,,,,,0.8,0.4,0.6,2*3D
$GNGSA,A,3,01,03,08,13,15,21,26,27,,,,,0.8,0.4,0.6,3*37
$GNGSA,A,3,02,03,04,07,08,10,13,14,27,28,33,,0.8,0.4,0.6,4*3D
$GNGSA,A,3,02,03,,,,,,,,,,,0.8,0.4,0.6,5*3E
$GNVTG,,T,,M,0.0,N,0.0,K,A*3D
$GNDTM,P90,,0000.000025,S,00000.000001,W,0.982,W84*49
$GNRMC,040600.00,A,3726.882392,N,12639.194660,E,0.0,,210622,6.0,W,A,V*65
$GNGNS,040600.00,3726.882392,N,12639.194660,E,AAAAAN,38,0.4,7.1,18.0,,,V*26
$GNGGA,040600.00,3726.882392,N,12639.194660,E,1,12,0.4,7.1,M,18.0,M,,*71
$PSMSG,magcal=PASS,bluesky=0*00
$GPGSV,3,1,11,01,17,060,44,03,45,053,39,04,16,105,46,06,42,274,40,1*69
$GPGSV,3,2,11,09,11,137,37,14,41,191,45,17,74,015,45,19,56,323,44,1*6C
$GPGSV,3,3,11,02,04,261,,11,07,254,,12,00,000,,1*50
$GLGSV,2,1,08,70,37,057,25,77,26,307,32,76,33,250,42,75,07,199,42,1*76
$GLGSV,2,2,08,87,15,291,37,85,33,060,52,71,40,127,24,72,09,168,40,1*7E
$GAGSV,3,1,09,01,16,319,34,03,22,078,44,05,02,032,21,08,19,133,36,7*7F
$GAGSV,3,2,09,13,61,312,45,15,42,050,45,21,47,274,44,26,16,267,30,7*7B
$GAGSV,3,3,09,27,37,198,45,7*4A
$GQGSV,1,1,03,02,32,178,45,03,79,070,44,04,00,000,34,1*53
$GBGSV,4,1,15,33,48,087,45,28,64,043,49,27,42,305,46,14,33,056,45,1*77
$GBGSV,4,2,15,13,41,240,43,10,68,262,41,08,50,244,44,07,72,222,34,1*76
$GBGSV,4,3,15,04,35,130,26,03,43,205,37,02,26,234,33,01,42,150,,1*76
$GBGSV,4,4,15,05,07,254,,36,02,324,,37,17,223,,1*40
$GNGSA,A,3,01,03,04,06,09,11,14,17,19,,,,0.8,0.4,0.6,1*39
$GNGSA,A,3,70,71,72,75,76,77,85,87,,,,,0.8,0.4,0.6,2*3D
$GNGSA,A,3,01,03,08,13,15,21,26,27,,,,,0.8,0.4,0.6,3*37
$GNGSA,A,3,02,03,04,07,08,10,13,14,27,28,33,,0.8,0.4,0.6,4*3D
$GNGSA,A,3,02,03,,,,,,,,,,,0.8,0.4,0.6,5*3E
$GNVTG,,T,,M,0.0,N,0.0,K,A*3D
$GNDTM,P90,,0000.000025,S,00000.000001,W,0.982,W84*49
$GNRMC,040601.00,A,3726.882396,N,12639.194657,E,0.0,,210622,6.0,W,A,V*64
$GNGNS,040601.00,3726.882396,N,12639.194657,E,AAAAAN,38,0.4,7.1,18.0,,,V*27
$GNGGA,040601.00,3726.882396,N,12639.194657,E,1,12,0.4,7.1,M,18.0,M,,*70
$PSMSG,magcal=PASS,bluesky=0*00
$GPGSV,3,1,11,01,17,060,43,03,45,053,40,04,16,105,46,06,42,274,40,1*60
$GPGSV,3,2,11,09,11,137,37,14,41,191,45,17,74,015,44,19,56,323,45,1*6C
$GPGSV,3,3,11,02,04,261,,11,07,254,,12,00,000,,1*50
$GLGSV,2,1,08,70,37,057,28,77,26,307,33,76,33,250,42,75,07,199,42,1*7A
$GLGSV,2,2,08,87,15,291,38,85,33,060,52,71,40,127,25,72,09,168,40,1*70
$GAGSV,3,1,09,01,16,319,33,03,22,078,44,05,02,032,21,08,19,133,35,7*7B
$GAGSV,3,2,09,13,61,312,45,15,42,050,45,21,47,274,44,26,16,267,31,7*7A
$GAGSV,3,3,09,27,37,198,44,7*4B
$GQGSV,1,1,03,02,32,178,45,03,79,070,44,04,00,000,34,1*53
$GBGSV,4,1,15,33,48,087,45,28,64,043,49,27,42,305,46,14,33,056,45,1*77
$GBGSV,4,2,15,13,41,240,43,10,68,262,41,08,50,244,43,07,72,222,33,1*76
$GBGSV,4,3,15,03,43,205,38,02,26,234,34,01,42,150,,04,35,130,,1*7A
$GBGSV,4,4,15,05,07,254,,36,02,324,,37,17,223,,1*40
$GNGSA,A,3,01,03,04,06,09,11,14,17,19,,,,0.8,0.4,0.6,1*39
$GNGSA,A,3,70,71,72,75,76,77,85,87,,,,,0.8,0.4,0.6,2*3D
$GNGSA,A,3,01,03,08,13,15,21,26,27,,,,,0.8,0.4,0.6,3*37
$GNGSA,A,3,02,03,04,07,08,10,13,14,27,28,33,,0.8,0.4,0.6,4*3D
$GNGSA,A,3,02,03,,,,,,,,,,,0.8,0.4,0.6,5*3E
$GNVTG,,T,,M,0.0,N,0.0,K,A*3D
$GNDTM,P90,,0000.000025,S,00000.000001,W,0.982,W84*49
$GNRMC,040602.00,A,3726.882399,N,12639.194656,E,0.0,,210622,6.0,W,A,V*69
$GNGNS,040602.00,3726.882399,N,12639.194656,E,AAAAAN,38,0.4,7.1,18.0,,,V*2A
$GNGGA,040602.00,3726.882399,N,12639.194656,E,1,12,0.4,7.1,M,18.0,M,,*7D
$PSMSG,magcal=PASS,bluesky=0*00
$GPGSV,3,1,11,01,17,060,43,03,45,053,39,04,16,105,45,06,42,274,39,1*63
$GPGSV,3,2,11,09,11,137,36,14,41,191,45,17,74,015,45,19,56,323,45,1*6C
$GPGSV,3,3,11,02,04,261,,11,07,254,,12,00,000,,1*50
$GLGSV,2,1,08,70,37,057,28,77,26,307,33,76,33,250,43,75,06,199,42,1*7A
$GLGSV,2,2,08,87,16,292,38,85,32,061,52,71,40,126,31,72,09,168,40,1*74
$GAGSV,3,1,09,01,16,319,33,03,22,078,44,05,02,032,21,08,19,133,36,7*78
$GAGSV,3,2,09,13,61,312,45,15,42,050,45,21,47,274,43,26,16,267,30,7*7C
$GAGSV,3,3,09,27,37,198,43,7*4C
$GQGSV,1,1,03,02,32,178,45,03,79,070,44,04,00,000,34,1*53
$GBGSV,4,1,15,33,48,087,45,28,64,043,48,27,42,305,46,14,33,056,45,1*76
$GBGSV,4,2,15,13,41,240,43,10,68,262,41,08,50,244,44,07,72,222,33,1*71
$GBGSV,4,3,15,03,43,205,38,02,26,234,34,01,42,150,,04,35,130,,1*7A
$GBGSV,4,4,15,05,07,254,,36,02,324,,37,17,223,,1*40
$GNGSA,A,3,01,03,04,06,09,11,14,17,19,,,,0.8,0.4,0.6,1*39
$GNGSA,A,3,70,71,72,75,76,77,85,87,,,,,0.8,0.4,0.6,2*3D
$GNGSA,A,3,01,03,08,13,15,21,26,27,,,,,0.8,0.4,0.6,3*37
$GNGSA,A,3,02,03,04,07,08,10,13,14,27,28,33,,0.8,0.4,0.6,4*3D
$GNGSA,A,3,02,03,,,,,,,,,,,0.8,0.4,0.6,5*3E
$GNVTG,,T,,M,0.0,N,0.0,K,A*3D
$GNDTM,P90,,0000.000025,S,00000.000001,W,0.982,W84*49
$GNRMC,040603.00,A,3726.882402,N,12639.194655,E,0.0,,210622,6.0,W,A,V*6E
$GNGNS,040603.00,3726.882402,N,12639.194655,E,AAAAAN,38,0.4,7.1,18.0,,,V*2D
$GNGGA,040603.00,3726.882402,N,12639.194655,E,1,12,0.4,7.1,M,18.0,M,,*7A
$PSMSG,magcal=PASS,bluesky=0*00
$GPGSV,3,1,11,01,17,060,43,03,45,053,40,04,16,105,46,06,42,274,39,1*6E
$GPGSV,3,2,11,09,11,137,37,14,41,191,45,17,74,015,45,19,56,323,44,1*6C
$GPGSV,3,3,11,02,04,261,,11,07,254,,12,00,000,,1*50
$GLGSV,2,1,08,70,37,057,29,77,26,307,33,76,33,250,44,75,06,199,42,1*7C
$GLGSV,2,2,08,87,16,292,35,85,32,061,51,71,40,126,28,72,09,168,40,1*72
$GAGSV,3,1,09,01,16,319,32,03,22,078,44,05,02,032,21,08,19,133,36,7*79
$GAGSV,3,2,09,13,61,312,45,15,42,050,45,21,47,274,44,26,16,267,29,7*73
$GAGSV,3,3,09,27,37,198,44,7*4B
$GQGSV,1,1,03,02,32,178,45,03,79,070,44,04,00,000,33,1*54
$GBGSV,4,1,15,33,48,087,45,28,64,043,49,27,42,305,45,14,33,056,45,1*74
$GBGSV,4,2,15,13,41,240,43,10,68,262,41,08,50,244,43,07,72,222,33,1*76
$GBGSV,4,3,15,03,43,205,37,02,26,234,34,01,42,150,,04,35,130,,1*75
$GBGSV,4,4,15,05,07,254,,36,02,324,,37,17,223,,1*40
$GNGSA,A,3,01,03,04,06,09,11,14,17,19,,,,0.8,0.4,0.6,1*39
$GNGSA,A,3,70,71,72,75,76,77,85,87,,,,,0.8,0.4,0.6,2*3D
$GNGSA,A,3,01,03,08,13,15,21,26,27,,,,,0.8,0.4,0.6,3*37
$GNGSA,A,3,02,03,07,08,10,13,14,27,28,33,,,0.8,0.4,0.6,4*39
$GNGSA,A,3,02,03,,,,,,,,,,,0.8,0.4,0.6,5*3E
$GNVTG,,T,,M,0.0,N,0.0,K,A*3D
$GNDTM,P90,,0000.000025,S,00000.000001,W,0.982,W84*49
$GNRMC,040604.00,A,3726.882405,N,12639.194656,E,0.0,,210622,6.0,W,A,V*6D
$GNGNS,040604.00,3726.882405,N,12639.194656,E,AAAAAN,37,0.4,7.1,18.0,,,V*21
$GNGGA,040604.00,3726.882405,N,12639.194656,E,1,12,0.4,7.1,M,18.0,M,,*79
$PSMSG,magcal=PASS,bluesky=0*00
$GPGSV,3,1,11,01,17,060,43,03,45,053,38,04,16,105,45,06,42,274,41,1*6D
$GPGSV,3,2,11,09,11,137,38,14,41,191,46,17,74,015,46,19,56,323,44,1*63
$GPGSV,3,3,11,02,04,261,,11,07,254,,12,00,000,,1*50
$GLGSV,2,1,08,70,37,057,28,77,26,307,31,76,33,250,45,75,06,199,42,1*7E
$GLGSV,2,2,08,87,16,292,36,85,32,061,51,71,40,126,29,72,09,168,40,1*70
$GAGSV,3,1,09,01,16,319,35,03,22,078,43,05,02,032,21,08,19,133,35,7*7A
$GAGSV,3,2,09,13,61,312,44,15,42,050,44,21,47,274,44,26,16,267,25,7*7F
$GAGSV,3,3,09,27,37,198,44,7*4B
$GQGSV,1,1,03,02,32,178,45,03,79,070,44,04,00,000,33,1*54
$GBGSV,4,1,15,33,48,087,45,28,64,043,49,27,42,305,44,14,33,056,46,1*76
$GBGSV,4,2,15,13,41,240,44,10,68,262,41,08,50,244,44,07,72,222,34,1*71
$GBGSV,4,3,15,03,43,205,36,02,26,234,33,01,42,150,,04,35,130,,1*73
$GBGSV,4,4,15,05,07,254,,36,02,324,,37,17,223,,1*40
$GNGSA,A,3,01,03,04,06,09,14,17,19,,,,,0.8,0.5,0.6,1*38
$GNGSA,A,3,70,71,72,75,76,77,85,87,,,,,0.8,0.5,0.6,2*3C
$GNGSA,A,3,01,03,08,13,15,21,26,27,,,,,0.8,0.5,0.6,3*36
$GNGSA,A,3,02,03,07,08,10,13,14,27,28,33,,,0.8,0.5,0.6,4*38
$GNGSA,A,3,02,03,,,,,,,,,,,0.8,0.5,0.6,5*3F
$GNVTG,,T,,M,0.0,N,0.0,K,A*3D
$GNDTM,P90,,0000.000025,S,00000.000001,W,0.982,W84*49
$GNRMC,040605.00,A,3726.882408,N,12639.194655,E,0.0,,210622,6.0,W,A,V*62
$GNGNS,040605.00,3726.882408,N,12639.194655,E,AAAAAN,36,0.5,7.1,18.0,,,V*2E
$GNGGA,040605.00,3726.882408,N,12639.194655,E,1,12,0.5,7.1,M,18.0,M,,*77
$PSMSG,magcal=PASS,bluesky=0*00
$GPGSV,3,1,11,01,17,060,42,03,45,053,39,04,16,105,45,06,42,274,42,1*6E
$GPGSV,3,2,11,09,11,137,37,14,41,191,46,17,74,015,46,19,56,323,44,1*6C
$GPGSV,3,3,11,02,04,261,,11,07,254,,12,00,000,,1*50
$GLGSV,2,1,08,70,37,057,29,77,26,307,27,76,33,250,44,75,06,199,42,1*79
$GLGSV,2,2,08,87,16,292,38,85,32,061,52,71,40,126,33,72,09,168,40,1*76
$GAGSV,3,1,09,01,16,319,32,03,22,078,44,05,02,032,21,08,19,133,35,7*7A
$GAGSV,3,2,09,13,61,312,45,15,42,050,45,21,47,274,44,26,16,267,28,7*72
$GAGSV,3,3,09,27,37,198,44,7*4B
$GQGSV,1,1,03,02,32,178,44,03,79,070,44,04,00,000,33,1*55
$GBGSV,4,1,15,33,48,087,45,28,64,043,49,27,42,305,44,14,33,056,46,1*76
$GBGSV,4,2,15,13,41,240,44,10,68,262,41,08,50,244,44,07,72,222,33,1*76
$GBGSV,4,3,15,03,43,205,35,02,26,234,34,01,42,150,,04,35,130,,1*77
$GBGSV,4,4,15,05,07,254,,36,02,324,,37,17,223,,1*40
