$GNRMC,041733.00,A,3726.9296851,N,12639.2519131,E,0.006,,210622,,,R,V*0D
$GNVTG,,T,,M,0.006,N,0.011,K,D*3E
$GNGNS,041733.00,3726.9296851,N,12639.2519131,E,RRRR,28,0.60,15.657,17.838,1.0,4095,V*05
$GNGGA,041733.00,3726.9296851,N,12639.2519131,E,4,12,0.60,15.657,M,17.838,M,1.0,4095*59
$GNGSA,A,3,03,09,19,17,04,06,14,,,,,,1.30,0.60,1.15,1*03
$GNGSA,A,3,77,85,71,87,,,,,,,,,1.30,0.60,1.15,2*07
$GNGSA,A,3,21,08,27,03,13,26,15,,,,,,1.30,0.60,1.15,3*0D
$GNGSA,A,3,04,28,08,01,33,10,27,13,03,07,,,1.30,0.60,1.15,4*00
$GPGSV,3,1,10,03,42,050,43,04,19,102,41,06,47,281,44,09,16,136,37,1*6A
$GPGSV,3,2,10,11,12,260,37,14,36,190,39,17,77,038,45,19,61,329,42,1*68
$GPGSV,3,3,10,28,,,46,50,47,179,37,1*50
$GPGSV,2,1,06,01,15,064,19,03,42,050,40,04,19,102,37,06,47,281,41,6*6D
$GPGSV,2,2,06,14,36,190,40,17,77,038,37,6*60
$GPGSV,1,1,02,02,08,265,,12,05,325,,0*6E
$GLGSV,2,1,06,70,36,051,26,71,46,121,43,76,30,245,43,77,27,302,34,1*7B
$GLGSV,2,2,06,85,30,069,44,87,19,298,44,1*7B
$GLGSV,1,1,04,71,46,121,39,76,30,245,36,77,27,302,31,85,30,069,38,3*7A
$GLGSV,1,1,03,72,16,168,,75,02,198,,86,53,007,,0*48
$GAGSV,3,1,09,01,19,317,23,03,24,075,39,08,24,130,42,13,63,323,46,2*70
$GAGSV,3,2,09,15,40,056,44,18,41,111,45,21,47,268,45,26,20,272,36,2*78
$GAGSV,3,3,09,27,33,198,44,2*4A
$GAGSV,3,1,09,01,19,317,27,03,24,075,37,08,24,130,40,13,63,323,44,7*7F
$GAGSV,3,2,09,15,40,056,42,18,41,111,42,21,47,268,44,26,20,272,41,7*7D
$GAGSV,3,3,09,27,33,198,40,7*4B
$GAGSV,1,1,02,05,02,030,,07,01,175,,0*77
$GBGSV,3,1,12,01,43,152,40,02,27,236,37,03,44,206,42,04,35,132,40,1*70
$GBGSV,3,2,12,07,70,220,45,08,52,250,41,10,68,259,44,13,42,246,41,1*78
$GBGSV,3,3,12,27,47,310,47,28,63,056,43,33,49,080,42,37,14,222,40,1*7D
$GBGSV,2,1,06,03,44,206,41,04,35,132,41,07,70,220,44,08,52,250,43,3*7B
$GBGSV,2,2,06,10,68,259,42,13,42,246,37,3*75
$GBGSV,1,1,04,05,08,256,,14,30,052,,15,26,183,,30,01,291,,0*7C
$GNRMC,041734.00,A,3726.9296870,N,12639.2519102,E,0.006,,210622,,,R,V*09
$GNVTG,,T,,M,0.006,N,0.011,K,D*3E
$GNGNS,041734.00,3726.9296870,N,12639.2519102,E,RRRR,28,0.60,15.647,17.838,2.0,4095,V*03
$GNGGA,041734.00,3726.9296870,N,12639.2519102,E,4,12,0.60,15.647,M,17.838,M,2.0,4095*5F
$GNGSA,A,3,03,09,19,17,04,06,14,,,,,,1.30,0.60,1.15,1*03
$GNGSA,A,3,77,85,71,87,,,,,,,,,1.30,0.60,1.15,2*07
$GNGSA,A,3,21,08,27,03,13,26,15,,,,,,1.30,0.60,1.15,3*0D
$GNGSA,A,3,04,28,08,01,33,10,27,13,03,07,,,1.30,0.60,1.15,4*00
$GPGSV,3,1,10,03,42,050,43,04,19,102,41,06,47,281,44,09,16,136,37,1*6A
$GPGSV,3,2,10,11,12,260,36,14,36,190,39,17,77,038,45,19,61,329,42,1*69
$GPGSV,3,3,10,28,,,46,50,47,179,38,1*5F
$GPGSV,2,1,06,01,14,065,18,03,42,050,40,04,19,102,37,06,47,281,41,6*6C
$GPGSV,2,2,06,14,36,190,40,17,77,038,37,6*60
$GPGSV,1,1,02,02,08,265,,12,05,325,,0*6E
$GLGSV,2,1,06,70,36,051,26,71,46,121,43,76,30,245,44,77,27,302,34,1*7C
$GLGSV,2,2,06,85,30,069,44,87,19,298,44,1*7B
$GLGSV,1,1,04,71,46,121,39,76,30,245,36,77,27,302,31,85,30,069,37,3*75
$GLGSV,1,1,03,72,16,168,,75,02,198,,86,53,007,,0*48
$GAGSV,3,1,09,01,19,317,26,03,24,075,39,08,24,130,42,13,63,323,46,2*75
$GAGSV,3,2,09,15,40,056,44,18,41,111,45,21,47,268,45,26,20,272,37,2*79
$GAGSV,3,3,09,27,33,198,44,2*4A
$GAGSV,3,1,09,01,19,317,27,03,24,075,37,08,24,130,39,13,63,323,44,7*71
$GAGSV,3,2,09,15,40,056,42,18,41,111,42,21,47,268,44,26,20,272,41,7*7D
$GAGSV,3,3,09,27,33,198,40,7*4B
$GAGSV,1,1,02,05,02,030,,07,01,175,,0*77
$GBGSV,3,1,12,01,43,152,40,02,27,236,37,03,44,206,42,04,35,132,40,1*70
$GBGSV,3,2,12,07,70,220,45,08,52,250,41,10,68,259,44,13,42,246,41,1*78
$GBGSV,3,3,12,27,47,310,47,28,63,056,44,33,49,080,42,37,14,222,40,1*7A
$GBGSV,2,1,06,03,44,206,41,04,35,132,41,07,70,220,44,08,52,250,43,3*7B
$GBGSV,2,2,06,10,68,259,42,13,42,246,37,3*75
$GBGSV,1,1,04,05,08,256,,14,30,052,,15,26,183,,30,01,291,,0*7C
$GNRMC,041735.00,A,3726.9296871,N,12639.2519112,E,0.006,,210622,,,R,V*08
$GNVTG,,T,,M,0.006,N,0.012,K,D*3D
$GNGNS,041735.00,3726.9296871,N,12639.2519112,E,RRRR,28,0.60,15.663,17.838,2.0,4095,V*04
$GNGGA,041735.00,3726.9296871,N,12639.2519112,E,4,12,0.60,15.663,M,17.838,M,2.0,4095*58
$GNGSA,A,3,03,09,19,17,04,06,14,,,,,,1.30,0.60,1.15,1*03
$GNGSA,A,3,77,85,71,87,,,,,,,,,1.30,0.60,1.15,2*07
$GNGSA,A,3,21,08,27,03,13,26,15,,,,,,1.30,0.60,1.15,3*0D
$GNGSA,A,3,04,28,08,01,33,10,27,13,03,07,,,1.30,0.60,1.15,4*00
$GPGSV,3,1,10,03,42,050,43,04,19,102,41,06,47,281,44,09,16,136,38,1*65
$GPGSV,3,2,10,11,12,260,37,14,36,190,39,17,77,038,45,19,61,329,42,1*68
$GPGSV,3,3,10,28,,,46,50,47,179,38,1*5F
$GPGSV,2,1,06,01,14,065,19,03,42,050,40,04,19,102,37,06,47,281,41,6*6D
$GPGSV,2,2,06,14,36,190,40,17,77,038,37,6*60
$GPGSV,1,1,02,02,09,266,,12,05,325,,0*6C
$GLGSV,2,1,06,70,36,051,26,71,46,121,43,76,30,245,43,77,27,302,35,1*7A
$GLGSV,2,2,06,85,30,069,44,87,19,298,44,1*7B
$GLGSV,1,1,04,71,46,121,39,76,30,245,37,77,27,302,31,85,30,069,37,3*74
$GLGSV,1,1,03,72,16,168,,75,02,198,,86,53,007,,0*48
$GAGSV,3,1,09,01,19,317,27,03,24,075,40,08,24,130,42,13,63,323,46,2*7A
$GAGSV,3,2,09,15,40,056,44,18,41,111,45,21,47,268,45,26,20,272,37,2*79
$GAGSV,3,3,09,27,33,198,44,2*4A
$GAGSV,3,1,09,01,19,317,27,03,24,075,37,08,24,130,39,13,63,323,44,7*71
$GAGSV,3,2,09,15,40,056,42,18,41,111,42,21,47,268,44,26,20,272,40,7*7C
$GAGSV,3,3,09,27,33,198,40,7*4B
$GAGSV,1,1,02,05,02,030,,07,01,175,,0*77
$GBGSV,3,1,12,01,43,152,40,02,27,236,37,03,44,206,42,04,35,132,40,1*70
$GBGSV,3,2,12,07,70,220,45,08,52,250,41,10,68,259,44,13,42,246,42,1*7B
$GBGSV,3,3,12,27,47,310,47,28,63,056,44,33,49,080,42,37,14,222,40,1*7A
$GBGSV,2,1,06,03,44,206,41,04,35,132,42,07,70,220,44,08,52,250,43,3*78
$GBGSV,2,2,06,10,68,259,42,13,42,246,37,3*75
$GBGSV,1,1,04,05,08,256,,14,30,052,,15,26,183,,30,01,291,,0*7C
$GNRMC,041736.00,A,3726.9296887,N,12639.2519095,E,0.005,,210622,,,R,V*0F
$GNVTG,,T,,M,0.005,N,0.010,K,D*3C
$GNGNS,041736.00,3726.9296887,N,12639.2519095,E,RRRR,28,0.60,15.647,17.838,2.0,4095,V*06
$GNGGA,041736.00,3726.9296887,N,12639.2519095,E,4,12,0.60,15.647,M,17.838,M,2.0,4095*5A
$GNGSA,A,3,03,09,19,17,04,06,14,,,,,,1.30,0.60,1.15,1*03
$GNGSA,A,3,77,85,71,87,,,,,,,,,1.30,0.60,1.15,2*07
$GNGSA,A,3,21,08,27,03,13,26,15,,,,,,1.30,0.60,1.15,3*0D
$GPGSV,3,1,10,03,41,049,43,04,19,102,41,06,47,281,45,09,16,136,38,1*6F
$GPGSV,3,2,10,11,12,260,38,14,36,190,38,17,77,038,45,19,61,329,42,1*66
$GPGSV,3,3,10,28,,,46,50,47,179,38,1*5F
$GPGSV,2,1,06,01,14,065,19,03,41,049,40,04,19,102,37,06,47,281,41,6*66
$GPGSV,2,2,06,14,36,190,40,17,77,038,37,6*60
$GPGSV,1,1,02,02,09,266,,12,05,325,,0*6C
$GLGSV,2,1,06,70,36,051,26,71,46,121,43,76,30,245,43,77,27,302,34,1*7B
$GLGSV,2,2,06,85,30,069,44,87,19,298,44,1*7B
$GLGSV,1,1,04,71,46,121,39,76,30,245,37,77,27,302,31,85,30,069,37,3*74
$GLGSV,1,1,03,72,16,168,,75,02,198,,86,53,007,,0*48
$GAGSV,3,1,09,01,19,317,27,03,24,075,40,08,24,130,42,13,63,323,46,2*7A
$GAGSV,3,2,09,15,40,056,44,18,41,111,45,21,47,268,45,26,20,272,37,2*79
$GAGSV,3,3,09,27,33,198,44,2*4A
$GAGSV,3,1,09,01,19,317,26,03,24,075,37,08,24,130,39,13,63,323,44,7*70
$GAGSV,3,2,09,15,40,056,42,18,41,111,42,21,47,268,44,26,20,272,41,7*7D
$GAGSV,3,3,09,27,33,198,40,7*4B
$GAGSV,1,1,02,05,0$GBGSV,3,1,12,01,43,152,41,02,27,236,37,03,44,206,42,04,35,132,40,1*71
$GBGSV,3,2,12,07,70,220,45,08,52,250,41,10,68,259,44,13,42,246,42,1*7B
$GBGSV,3,3,12,27,47,310,47,28,63,056,44,33,49,080,43,37,14,222,39,1*75
$GBGSV,2,1,06,03,44,206,41,04,35,132,42,07,70,220,44,08,52,250,43,3*78
$GBGSV,2,2,06,10,68,259,42,13,42,246,37,3*75
$GNRMC,041737.00,A,3726.9296912,N,12639.2519088,E,0.006,,210622,,,R,V*0C
$GNVTG,,T,,M,0.006,N,0.010,K,D*3F
$GNGNS,041737.00,3726.9296912,N,12639.2519088,E,RRRR,28,0.60,15.645,17.838,2.0,4095,V*04
$GNGGA,041737.00,3726.9296912,N,12639.2519088,E,4,12,0.60,15.645,M,17.838,M,2.0,4095*58
$GNGSA,A,3,03,09,19,17,04,06,14,,,,,,1.30,0.60,1.15,1*03
$GNGSA,A,3,77,85,71,87,,,,,,,,,1.30,0.60,1.15,2*07
$GNGSA,A,3,21,08,27,03,13,26,15,,,,,,1.30,0.60,1.15,3*0D
$GNGSA,A,3,04,28,08,01,33,10,27,13,03,07,,,1.30,0.60,1.15,4*00
$GPGSV,3,1,10,03,41,049,43,04,20,102,41,06,47,281,45,09,16,136,38,1*65
$GPGSV,3,2,10,11,12,260,38,14,36,190,38,17,77,038,45,19,61,329,42,1*66
$GPGSV,3,3,10,28,,,46,50,47,179,38,1*5F
$GPGSV,2,1,06,01,14,065,20,03,41,049,40,04,20,102,37,06,47,281,41,6*66
$GPGSV,2,2,06,14,36,190,40,17,77,038,37,6*60
$GPGSV,1,1,02,02,09,266,,12,05,325,,0*6C
$GLGSV,2,1,06,70,36,051,27,71,46,121,43,76,30,245,43,77,27,302,34,1*7A
$GLGSV,2,2,06,85,30,069,45,87,19,298,44,1*7A
$GLGSV,1,1,04,71,46,121,39,76,30,245,37,77,27,302,31,85,30,069,37,3*74
$GLGSV,1,1,03,72,16,168,,75,02,198,,86,53,007,,0*48
$GAGSV,3,1,09,01,19,317,28,03,24,075,40,08,24,130,42,13,63,323,46,2*75
$GAGSV,3,2,09,15,40,056,44,18,41,111,45,21,47,268,45,26,20,272,37,2*79
$GAGSV,3,3,09,27,33,198,44,2*4A
$GAGSV,3,1,09,01,19,317,25,03,24,075,37,08,24,130,39,13,63,323,44,7*73
$GAGSV,3,2,09,15,40,056,43,18,41,111,42,21,47,268,44,26,20,272,41,7*7C
$GAGSV,3,3,09,27,33,198,40,7*4B
$GAGSV,1,1,02,05,02,030,,07,01,175,,0*77
$GBGSV,3,1,12,01,43,152,41,02,27,236,37,03,44,206,42,04,35,132,40,1*71
$GBGSV,3,2,12,07,70,220,45,08,52,250,41,10,68,259,44,13,42,246,41,1*78
$GBGSV,3,3,12,27,47,310,47,28,63,056,44,33,49,080,43,37,14,222,39,1*75
$GBGSV,2,1,06,03,44,206,41,04,35,132,41,07,70,220,44,08,52,250,43,3*7B
$GBGSV,2,2,06,10,68,259,42,13,42,246,37,3*75
$GBGSV,1,1,04,05,08,256,,14,30,052,,15,26,183,,30,01,291,,0*7C
$GNRMC,041738.00,A,3726.9296907,N,12639.2519074,E,0.001,,210622,,,R,V*03
$GNVTG,,T,,M,0.001,N,0.002,K,D*3B
$GNGNS,041738.00,3726.9296907,N,12639.2519074,E,RRRR,28,0.60,15.625,17.838,2.0,4095,V*0A
$GNGGA,041738.00,3726.9296907,N,12639.2519074,E,4,12,0.60,15.625,M,17.838,M,2.0,4095*56
$GNGSA,A,3,03,09,19,17,04,06,14,,,,,,1.30,0.60,1.15,1*03
$GNGSA,A,3,77,85,71,87,,,,,,,,,1.30,0.60,1.15,2*07
$GNGSA,A,3,21,08,27,03,13,26,15,,,,,,1.30,0.60,1.15,3*0D
$GNGSA,A,3,04,28,08,01,33,10,27,13,03,07,,,1.30,0.60,1.15,4*00
$GPGSV,3,1,10,03,41,049,43,04,20,102,41,06,47,281,45,09,16,136,39,1*64
$GPGSV,3,2,10,11,12,260,38,14,36,190,39,17,77,038,45,19,61,329,41,1*64
$GPGSV,3,3,10,28,,,46,50,47,179,38,1*5F
$GPGSV,2,1,06,01,14,065,20,03,41,049,40,04,20,102,37,06,47,281,41,6*66
$GPGSV,2,2,06,14,36,190,40,17,77,038,37,6*60
$GPGSV,1,1,02,02,09,266,,12,05,325,,0*6C
$GLGSV,2,1,06,70,36,051,27,71,46,121,43,76,30,245,43,77,27,302,35,1*7B
$GLGSV,2,2,06,85,30,069,45,87,19,298,44,1*7A
$GLGSV,1,1,04,71,46,121,38,76,30,245,37,77,27,302,31,85,30,069,37,3*75
$GLGSV,1,1,03,72,16,168,,75,02,198,,86,53,007,,0*48
$GAGSV,3,1,09,01,19,317,27,03,24,075,40,08,24,130,42,13,63,323,46,2*7A
$GAGSV,3,2,09,15,40,056,44,18,41,111,45,21,47,268,45,26,20,272,37,2*79
$GAGSV,3,3,09,27,33,198,44,2*4A
$GAGSV,3,1,09,01,19,317,25,03,24,075,37,08,24,130,39,13,63,323,44,7*73
$GAGSV,3,2,09,15,40,056,43,18,41,111,42,21,47,268,44,26,20,272,41,7*7C
$GAGSV,3,3,09,27,33,198,40,7*4B
$GAGSV,1,1,02,05,02,030,,07,01,175,,0*77
$GBGSV,3,1,12,01,43,152,41,02,27,236,37,03,44,206,42,04,35,132,40,1*71
$GBGSV,3,2,12,07,70,220,45,08,52,250,41,10,68,259,44,13,42,246,41,1*78
$GBGSV,3,3,12,27,47,310,47,28,63,056,44,33,49,080,43,37,14,222,39,1*75
$GNRMC,041739.00,A,3726.9296907,N,12639.2519087,E,0.001,,210622,,,R,V*0E
$GNVTG,,T,,M,0.001,N,0.003,K,D*3A
$GNGNS,041739.00,3726.9296907,N,12639.2519087,E,RRRR,28,0.60,15.627,17.838,2.0,4095,V*05
$GNGSA,A,3,03,09,19,17,04,06,14,,,,,,1.30,0.60,1.15,1*03
$GNGSA,A,3,77,85,71,87,,,,,,,,,1.30,0.60,1.15,2*07
$GNGSA,A,3,21,08,27,03,13,26,15,,,,,,1.30,0.60,1.15,3*0D
$GNGSA,A,3,04,28,08,01,33,10,27,13,03,07,,,1.30,0.60,1.15,4*00
$GPGSV,3,1,10,03,41,049,43,04,20,102,41,06,47,283,44,09,16,136,39,1*67
$GPGSV,3,2,10,11,12,260,39,14,36,190,38,17,77,038,45,19,61,329,41,1*64
$GPGSV,3,3,10,28,,,46,50,47,179,38,1*5F
$GPGSV,2,1,06,01,14,065,19,03,41,049,40,04,20,102,37,06,47,283,41,6*6E
$GPGSV,2,2,06,14,36,190,41,17,77,038,37,6*61
$GPGSV,1,1,02,02,09,266,,12,05,325,,0*6C
$GLGSV,2,1,06,70,36,051,26,71,46,121,43,76,30,245,42,77,27,302,34,1*7A
$GLGSV,2,2,06,85,30,069,45,87,19,298,44,1*7A
$GLGSV,1,1,04,71,46,121,38,76,30,245,37,77,27,302,31,85,30,069,38,3*7A
$GLGSV,1,1,03,72,16,168,,75,02,198,,86,53,007,,0*48
$GAGSV,3,1,09,01,19,317,27,03,24,075,40,08,24,130,42,13,63,323,46,2*7A
$GAGSV,3,2,09,15,40,056,44,18,41,111,45,21,$GAGSV,3,3,09,27,33,198,44,2*4A
$GAGSV,3,1,09,01,19,317,24,03,24,075,36,08,24,130,39,13,63,323,45,7*72
$GAGSV,3,2,09,15,40,056,43,18,41,111,42,21,47,268,44,26,20,272,41,7*7C
$GAGSV,3,3,09,27,33,198,40,7*4B
$GAGSV,1,1,02,05,02,030,,07,01,175,,0*77
$GBGSV,3,1,12,01,43,152,40,02,27,236,37,03,44,206,42,04,35,132,40,1*70
$GBGSV,3,2,12,07,70,220,45,08,52,250,42,10,68,259,44,13,42,246,41,1*7B
$GBGSV,3,3,12,27,47,310,47,28,63,056,44,33,49,080,42,37,14,222,39,1*74
$GBGSV,2,1,06,03,44,206,41,04,35,132,41,07,70,220,44,08,52,250,43,3*7B
$GBGSV,2,2,06,10,68,259,43,13,42,246,37,3*74
$GBGSV,1,1,04,05,08,256,,14,30,052,,15,26,183,,30,01,291,,0*7C
$GNRMC,041740.00,A,3726.9296912,N,12639.2519083,E,0.004,,210622,,,R,V*05
$GNVTG,,T,,M,0.004,N,0.008,K,D*34
$GNGNS,041740.00,3726.9296912,N,12639.2519083,E,RRRR,28,0.60,15.622,17.838,2.0,4095,V*0E
$GNGGA,041740.00,3726.9296912,N,12639.2519083,E,4,12,0.60,15.622,M,17.838,M,2.0,4095*52
$GNGSA,A,3,03,09,19,17,04,06,14,,,,,,1.30,0.60,1.15,1*03
$GNGSA,A,3,77,85,71,87,,,,,,,,,1.30,0.60,1.15,2*07
$GNGSA,A,3,21,08,27,03,13,26,15,,,,,,1.30,0.60,1.15,3*0D
$GNGSA,A,3,04,28,08,01,33,10,27,13,03,07,,,1.30,0.60,1.15,4*00
$GPGSV,3,1,10,03,41,049,43,04,20,102,41,06,47,283,44,09,16,136,38,1*66
$GPGSV,3,2,10,11,12,260,39,14,36,190,38,17,77,038,45,19,61,329,41,1*64
$GPGSV,3,3,10,28,,,46,50,47,179,38,1*5F
$GPGSV,2,1,06,01,14,065,19,03,41,049,40,04,20,102,37,06,47,283,41,6*6E
$GPGSV,2,2,06,14,36,190,41,17,77,038,37,6*61
$GPGSV,1,1,02,02,09,266,,12,05,325,,0*6C
$GLGSV,2,1,06,70,36,051,26,71,46,121,43,76,30,245,42,77,27,302,34,1*7A
$GNRMC,041741.00,A,3726.9296952,N,12639.2519062,E,0.012,,210622,,,R,V*08
$GNVTG,,T,,M,0.012,N,0.022,K,D*3B
$GNGNS,041741.00,3726.9296952,N,12639.2519062,E,RRRR,28,0.60,15.609,17.838,2.0,4095,V*0D
$GNGGA,041741.00,3726.9296952,N,12639.2519062,E,4,12,0.60,15.609,M,17.838,M,2.0,4095*51
$GNGSA,A,3,03,09,19,17,04,06,14,,,,,,1.30,0.60,1.15,1*03
$GNGSA,A,3,77,85,71,87,,,,,,,,,1.30,0.60,1.15,2*07
$GNGSA,A,3,21,08,27,03,13,26,15,,,,,,1.30,0.60,1.15,3*0D
$GNGSA,A,3,04,28,08,01,33,10,27,13,03,07,,,1.30,0.60,1.15,4*00
$GPGSV,3,1,10,03,41,049,43,04,20,102,41,06,47,283,44,09,16,136,39,1*67
$GPGSV,3,2,10,11,12,260,39,14,36,190,38,17,77,038,45,19,61,329,41,1*64
$GPGSV,3,3,10,28,,,46,50,47,179,38,1*5F
$GPGSV,2,1,06,01,14,065,19,03,41,049,40,04,20,102,37,06,47,283,41,6*6E
$GPGSV,2,2,06,14,36,190,41,17,77,038,37,6*61
$GPGSV,1,1,02,02,09,266,,12,05,325,,0*6C
$GLGSV,2,1,06,70,36,051,26,71,46,121,43,76,30,245,42,77,27,302,35,1*7B
$GLGSV,2,2,06,85,30,069,44,87,19,298,45,1*7A
$GLGSV,1,1,04,71,46,121,38,76,30,245,37,77,27,302,31,85,30,069,38,3*7A
$GLGSV,1,1,03,72,16,168,,75,02,198,,86,53,007,,0*48
$GAGSV,3,1,09,01,19,317,26,03,24,074,39,08,24,130,42,13,63,323,46,2*74
$GAGSV,3,2,09,15,40,056,43,18,41,111,45,21,47,268,45,26,20,272,37,2*7E
$GAGSV,3,3,09,27,33,198,44,2*4A
$GAGSV,3,1,09,01,19,317,24,03,24,074,36,08,24,130,39,13,63,323,45,7*73
$GAGSV,3,2,09,15,40,056,43,18,41,111,42,21,47,268,44,26,20,272,40,7*7D
$GAGSV,3,3,09,27,33,198,40,7*4B
$GAGSV,1,1,02,05,02,030,,07,01,175,,0*77
$GBGSV,3,1,12,01,43,152,41,02,27,236,37,03,44,206,42,04,35,132,40,1*71
$GBGSV,3,2,12,07,70,220,45,08,52,250,42,10,68,259,44,13,42,246,41,1*7B
$GBGSV,3,3,12,27,47,310,47,28,63,056,44,33,49,080,42,37,14,222,39,1*74
$GBGSV,2,1,06,03,44,206,41,04,35,132,42,07,70,220,44,08,52,250,43,3*78
$GBGSV,2,2,06,10,68,259,42,13,42,246,37,3*75
$GBGSV,1,1,04,05,08,256,,14,30,052,,15,26,183,,30,01,291,,0*7C
$GNRMC,041742.00,A,3726.9296948,N,12639.2519044,E,0.007,,210622,,,R,V*00
$GNVTG,,T,,M,0.007,N,0.013,K,D*3D
$GNGNS,041742.00,3726.9296948,N,12639.2519044,E,RRRR,28,0.60,15.603,17.838,2.0,4095,V*0B
$GNGGA,041742.00,3726.9296948,N,12639.2519044,E,4,12,0.60,15.603,M,17.838,M,2.0,4095*57
$GNGSA,A,3,03,09,19,17,04,06,14,,,,,,1.30,0.60,1.15,1*03
$GNGSA,A,3,77,85,71,87,,,,,,,,,1.30,0.60,1.15,2*07
$GNGSA,A,3,21,08,27,03,13,26,15,,,,,,1.30,0.60,1.15,3*0D
$GNGSA,A,3,04,28,08,01,33,10,27,13,03,07,,,1.30,0.60,1.15,4*00
$GPGSV,3,1,10,03,41,049,43,04,20,102,41,06,47,283,44,09,17,135,39,1*65
$GAGSV,3,3,09,27,33,198,40,7*4B
$GAGSV,1,1,02,05,02,030,,07,01,175,,0*77
$GBGSV,3,1,12,01,43,152,41,02,27,236,37,03,44,206,42,04,35,132,40,1*71
$GBGSV,3,2,12,07,70,220,45,08,52,250,42,10,68,259,44,13,42,246,41,1*7B
$GBGSV,3,3,12,27,47,310,47,28,63,056,44,33,49,080,42,37,14,222,39,1*74
$GBGSV,2,1,06,03,44,206,41,04,35,132,42,07,70,220,44,08,52,250,43,3*78
$GBGSV,2,2,06,10,68,259,43,13,42,246,37,3*74
$GBGSV,1,1,04,05,08,256,,14,30,052,,15,26,183,,30,01,291,,0*7C
$GNRMC,041743.00,A,3726.9296971,N,12639.2519051,E,0.002,,210622,,,R,V*0A
$GNVTG,,T,,M,0.002,N,0.003,K,D*39
$GNGNS,041743.00,3726.9296971,N,12639.2519051,E,RRRR,28,0.60,15.597,17.838,1.0,4095,V*09
$GNGGA,041743.00,3726.9296971,N,12639.2519051,E,4,12,0.60,15.597,M,17.838,M,1.0,4095*55
$GNGSA,A,3,03,09,19,17,04,06,14,,,,,,1.30,0.60,1.15,1*03
$GNGSA,A,3,77,85,71,87,,,,,,,,,1.30,0.60,1.15,2*07
$GNGSA,A,3,21,08,27,03,13,26,15,,,,,,1.30,0.60,1.15,3*0D
$GNGSA,A,3,04,28,08,01,33,10,27,13,03,07,,,1.30,0.60,1.15,4*00
$GPGSV,3,1,10,03,41,049,43,04,20,102,41,06,47,283,44,09,17,135,39,1*65
$GPGSV,3,2,10,11,12,260,39,14,36,190,38,17,77,038,45,19,61,329,41,1*64
$GPGSV,3,3,10,28,,,46,50,47,179,38,1*5F
$GPGSV,2,1,07,01,14,065,19,03,41,049,40,04,20,102,37,06,47,283,41,6*6F
$GPGSV,2,2,07,09,17,135,31,14,36,190,41,17,77,038,37,6*5A
$GPGSV,1,1,02,02,09,266,,12,05,325,,0*6C
$GLGSV,2,1,07,70,36,051,25,71,46,121,43,72,16,168,42,76,30,245,42,1*70
$GLGSV,2,2,07,77,27,302,35,85,30,069,44,87,19,298,45,1*49
$GLGSV,1,1,04,71,46,121,39,76,30,245,37,77,27,302,32,85,30,069,38,3*78
$GLGSV,1,1,02,75,02,198,,86,53,007,,0*74
$GAGSV,3,1,09,01,19,317,26,03,24,074,40,08,24,130,42,13,63,323,46,2*7A
$GAGSV,3,2,09,15,40,056,44,18,41,111,45,21,47,268,45,26,20,272,38,2*76
$GAGSV,3,3,09,27,33,198,44,2*4A
$GAGSV,3,1,09,01,19,317,25,03,24,074,36,08,24,130,40,13,63,323,45,7*7C
$GAGSV,3,2,09,15,40,056,43,18,41,111,42,21,47,268,44,26,20,272,40,7*7D
$GAGSV,3,3,09,27,33,198,40,7*4B
$GAGSV,1,1,02,05,02,030,,07,01,175,,0*77
$GBGSV,3,1,12,01,43,152,41,02,27,236,37,03,44,206,42,04,35,132,40,1*71
$GBGSV,3,2,12,07,70,220,45,08,52,250,42,10,68,259,44,13,42,246,41,1*7B
$GBGSV,3,3,12,27,47,310,47,28,63,056,44,33,49,080,42,37,14,222,39,1*74
$GBGSV,2,1,06,03,44,206,41,04,35,132,42,07,70,220,44,08,52,250,43,3*78
$GBGSV,2,2,06,10,68,259,42,13,42,246,37,3*75
$GBGSV,1,1,04,05,08,256,,14,30,052,,15,26,183,,30,01,291,,0*7C
$GNRMC,041744.00,A,3726.9297285,N,12639.2518822,E,0.001,,210622,,,R,V*02
$GNVTG,,T,,M,0.001,N,0.002,K,D*3B
$GNGNS,041744.00,3726.9297285,N,12639.2518822,E,RRRR,28,0.60,15.642,17.838,2.0,4095,V*0A
$GNGGA,041744.00,3726.9297285,N,12639.2518822,E,4,12,0.60,15.642,M,17.838,M,2.0,4095*56
$GNGSA,A,3,03,09,19,17,04,06,14,,,,,,1.30,0.60,1.15,1*03
$GNGSA,A,3,77,85,71,87,,,,,,,,,1.30,0.60,1.15,2*07
$GNGSA,A,3,21,08,27,03,13,26,15,,,,,,1.30,0.60,1.15,3*0D
$GNGSA,A,3,04,28,08,01,33,10,27,13,03,07,,,1.30,0.60,1.15,4*00
$GPGSV,3,1,10,03,41,049,43,04,20,102,41,06,47,283,43,09,17,135,39,1*62
$GPGSV,3,2,10,11,12,260,38,14,36,190,38,17,77,038,45,19,61,329,42,1*66
$GPGSV,3,3,10,28,,,46,50,47,179,38,1*5F
$GPGSV,2,1,07,01,14,065,19,03,41,049,40,04,20,102,37,06,47,283,41,6*6F
$GPGSV,2,2,07,09,17,135,31,14,36,190,41,17,77,038,37,6*5A
$GPGSV,1,1,02,02,09,266,,12,05,325,,0*6C
$GLGSV,2,1,07,70,36,051,25,71,46,121,43,72,16,168,42,76,30,245,42,1*70
$GLGSV,2,2,07,77,27,302,34,85,30,069,44,87,19,298,45,1*48
$GLGSV,1,1,04,71,46,121,39,76,30,245,38,77,27,302,31,85,30,069,38,3*74
$GLGSV,1,1,02,75,02,198,,86,53,007,,0*74
$GAGSV,3,1,09,01,19,317,26,03,24,074,40,08,24,130,42,13,63,323,46,2*7A
$GAGSV,3,2,09,15,40,056,44,18,41,111,45,21,47,268,45,26,20,272,38,2*76
$GAGSV,3,3,09,27,33,198,44,2*4A
$GAGSV,3,1,09,01,19,317,25,03,24,074,36,08,24,130,40,13,63,323,45,7*7C
$GAGSV,3,2,09,15,40,056,43,18,41,111,42,21,47,268,44,26,20,272,40,7*7D
$GAGSV,3,3,09,27,33,198,40,7*4B
$GAGSV,1,1,02,05,02,030,,07,01,175,,0*77
$GBGSV,3,1,12,01,43,152,40,02,27,236,37,03,44,206,42,04,35,132,40,1*70
$GBGSV,3,2,12,07,70,220,45,08,52,250,41,10,68,259,44,13,42,246,41,1*78
$GBGSV,3,3,12,27,47,310,46,28,63,056,43,33,49,080,42,37,14,222,39,1*72
$GBGSV,2,1,06,03,44,206,41,04,35,132,42,07,70,220,44,08,52,250,43,3*78
$GBGSV,2,2,06,10,68,259,42,13,42,246,37,3*75
$GNRMC,041745.00,A,3726.9297284,N,12639.2518820,E,0.007,,210622,,,R,V*06
$GNVTG,,T,,M,0.007,N,0.013,K,D*3D
$GNGNS,041745.00,3726.9297284,N,12639.2518820,E,RRRR,28,0.60,15.646,17.838,2.0,4095,V*0C
$GNGGA,041745.00,3726.9297284,N,12639.2518820,E,4,12,0.60,15.646,M,17.838,M,2.0,4095*50
$GNGSA,A,3,03,09,19,17,04,06,14,,,,,,1.30,0.60,1.15,1*03
$GNGSA,A,3,77,85,71,87,,,,,,,,,1.30,0.60,1.15,2*07
$GNGSA,A,3,21,08,27,03,13,26,15,,,,,,1.30,0.60,1.15,3*0D
$GNGSA,A,3,04,28,08,01,33,10,27,13,03,07,,,1.30,0.60,1.15,4*00
$GPGSV,3,1,10,03,41,049,43,04,20,102,41,06,47,283,43,09,17,135,39,1*62
$GPGSV,3,2,10,11,12,260,38,14,36,190,38,17,77,038,45,19,61,329,42,1*66
$GPGSV,3,3,10,28,,,46,50,47,179,38,1*5F
$GPGSV,2,1,07,01,14,065,20,03,41,049,40,04,20,102,37,06,47,283,41,6*65
$GPGSV,2,2,07,09,17,135,31,14,36,190,40,17,77,038,37,6*5B
$GPGSV,1,1,02,02,09,266,,12,06,325,,0*6F
$GLGSV,2,1,07,70,36,051,25,71,46,121,43,72,16,168,41,76,30,245,42,1*73
$GLGSV,2,2,07,77,27,302,34,85,30,069,44,87,19,298,44,1*49
$GLGSV,1,1,04,71,46,121,39,76,30,245,38,77,27,302,31,85,30,069,38,3*74
$GLGSV,1,1,02,75,02,198,,86,53,007,,0*74
$GAGSV,3,1,09,01,19,317,26,03,24,074,40,08,24,130,42,13,63,323,46,2*7A
$GAGSV,3,2,09,15,40,056,44,18,41,111,45,21,47,268,45,26,20,272,38,2*76
$GAGSV,3,3,09,27,33,198,44,2*4A
$GAGSV,3,1,09,01,19,317,23,03,24,074,36,08,24,130,40,13,63,323,45,7*7A
$GAGSV,3,2,09,15,40,056,43,18,41,111,42,21,47,268,44,26,20,272,40,7*7D
$GAGSV,3,3,09,27,33,198,39,7*45
$GAGSV,1,1,02,05,02,030,,07,01,175,,0*77
$GBGSV,3,1,12,01,43,152,40,02,27,236,37,03,44,206,42,04,35,132,40,1*70
$GBGSV,3,2,12,07,70,220,44,08,52,250,41,10,68,259,44,13,42,246,41,1*79
$GBGSV,3,3,12,27,47,310,46,28,63,056,43,33,49,080,42,37,14,222,38,1*73
$GBGSV,2,1,06,03,44,206,41,04,35,132,42,07,70,220,44,08,52,250,43,3*78
$GBGSV,2,2,06,10,68,259,42,13,42,246,37,3*75
$GBGSV,1,1,04,05,08,256,,14,30,052,,15,26,183,,30,01,291,,0*7C
$GNRMC,041746.00,A,3726.9297254,N,12639.2518821,E,0.004,,210622,,,R,V*0A
$GNVTG,,T,,M,0.004,N,0.007,K,D*3B
$GNGNS,041746.00,3726.9297254,N,12639.2518821,E,RRRR,28,0.60,15.634,17.838,2.0,4095,V*06
$GNGGA,041746.00,3726.9297254,N,12639.2518821,E,4,12,0.60,15.634,M,17.838,M,2.0,4095*5A
$GNGSA,A,3,03,09,19,17,04,06,14,,,,,,1.30,0.60,1.15,1*03
$GNGSA,A,3,77,85,71,87,,,,,,,,,1.30,0.60,1.15,2*07
$GNGSA,A,3,21,08,27,03,13,26,15,,,,,,1.30,0.60,1.15,3*0D
$GNGSA,A,3,04,28,08,01,33,10,27,13,03,07,,,1.30,0.60,1.15,4*00
$GPGSV,3,1,10,03,41,049,43,04,20,102,41,06,47,283,43,09,17,135,39,1*62
$GPGSV,3,2,10,11,12,260,38,14,36,190,38,17,77,038,45,19,61,329,42,1*66
$GPGSV,3,3,10,28,,,46,50,47,179,38,1*5F
$GPGSV,2,1,07,01,14,065,20,03,41,049,40,04,20,102,37,06,47,283,41,6*65
$GPGSV,2,2,07,09,17,135,31,14,36,190,41,17,77,038,37,6*5A
$GPGSV,1,1,02,02,09,266,,12,06,325,,0*6F
$GLGSV,2,1,07,70,36,051,26,71,46,121,43,72,16,168,41,76,30,245,42,1*70
$GLGSV,2,2,07,77,27,302,34,85,30,069,44,87,19,298,44,1*49
$GLGSV,1,1,04,71,46,121,39,76,30,245,38,77,27,302,31,85,30,069,38,3*74
$GLGSV,1,1,02,75,02,198,,86,53,007,,0*74
$GAGSV,3,1,09,01,19,317,27,03,24,074,40,08,24,130,42,13,63,323,46,2*7B
$GAGSV,3,2,09,15,40,056,44,18,41,111,45,21,47,268,45,26,20,272,38,2*76
$GAGSV,3,3,09,27,33,198,44,2*4A
$GAGSV,3,1,09,01,19,317,23,03,24,074,36,08,24,130,40,13,63,323,45,7*7A
$GAGSV,3,2,09,15,40,056,43,18,41,111,42,21,47,268,44,26,20,272,41,7*7C
$GAGSV,3,3,09,27,33,198,39,7*45
$GAGSV,1,1,02,05,02,030,,07,01,175,,0*77
$GBGSV,3,1,12,01,43,152,40,02,27,236,37,03,44,206,42,04,35,132,40,1*70
$GBGSV,3,2,12,07,70,220,44,08,52,250,42,10,68,259,44,13,42,246,41,1*7A
$GBGSV,3,3,12,27,47,310,46,28,63,056,43,33,49,080,42,37,14,222,38,1*73
$GNRMC,041747.00,A,3726.9297260,N,12639.2518815,E,0.002,,210622,,,R,V*0D
$GNVTG,,T,,M,0.002,N,0.004,K,D*3E
$GNGNS,041747.00,3726.9297260,N,12639.2518815,E,RRRR,28,0.60,15.648,17.838,2.0,4095,V*0C
$GNGGA,041747.00,3726.9297260,N,12639.2518815,E,4,12,0.60,15.648,M,17.838,M,2.0,4095*50
$GNGSA,A,3,03,09,19,17,04,06,14,,,,,,1.30,0.60,1.15,1*03
$GNGSA,A,3,77,85,71,87,,,,,,,,,1.30,0.60,1.15,2*07
$GNGSA,A,3,21,08,27,03,13,26,15,,,,,,1.30,0.60,1.15,3*0D
$GNGSA,A,3,04,28,08,01,33,10,27,13,03,07,,,1.30,0.60,1.15,4*00
$GPGSV,3,1,10,03,41,049,43,04,20,102,41,06,47,283,43,09,17,135,39,1*62
$GPGSV,3,2,10,11,12,260,39,14,35,190,38,17,77,038,45,19,61,329,42,1*64
$GPGSV,3,3,10,28,,,46,50,47,179,38,1*5F
$GPGSV,2,1,07,01,14,065,20,03,41,049,40,04,20,102,37,06,47,283,41,6*65
$GPGSV,2,2,07,09,17,135,30,14,35,190,41,17,77,038,37,6*58
$GPGSV,1,1,02,02,09,266,,12,06,325,,0*6F
$GLGSV,2,1,07,70,36,051,26,71,46,121,43,72,16,168,41,76,30,245,42,1*70
$GLGSV,2,2,07,77,27,302,35,85,30,069,44,87,19,298,45,1*49
$GLGSV,1,1,04,71,46,121,38,76,30,245,37,77,27,302,30,85,30,069,37,3*74
$GLGSV,1,1,02,75,02,198,,86,53,007,,0*74
$GAGSV,3,1,09,01,19,317,27,03,24,074,40,08,24,130,42,13,63,323,46,2*7B
$GAGSV,3,2,09,15,40,056,44,18,41,111,45,21,47,268,45,26,20,272,38,2*76
$GAGSV,3,3,09,27,33,198,44,2*4A
$GAGSV,3,1,09,01,19,317,23,03,24,074,36,08,24,130,40,13,63,323,45,7*7A
$GAGSV,3,2,09,15,40,056,43,18,41,111,42,21,47,268,44,26,20,272,41,7*7C
$GAGSV,3,3,09,27,33,198,39,7*45
$GAGSV,1,1,02,05,02,030,,07,01,175,,0*77
$GBGSV,3,1,12,01,43,152,40,02,27,236,37,03,44,206,42,04,35,132,40,1*70
$GBGSV,3,2,12,07,70,220,45,08,52,250,42,10,68,259,44,13,42,246,41,1*7B
$GBGSV,3,3,12,27,47,310,46,28,63,056,43,33,49,080,42,37,14,222,39,1*72
$GBGSV,2,1,06,03,44,206,41,04,35,132,42,07,70,220,44,08,52,250,43,3*78
$GBGSV,2,2,06,10,68,259,42,13,42,246,37,3*75
$GBGSV,1,1,04,05,08,256,,14,30,052,,15,26,183,,30,01,291,,0*7C
$GNRMC,041748.00,A,3726.9297242,N,12639.2518778,E,0.004,,210622,,,R,V*00
$GNVTG,,T,,M,0.004,N,0.007,K,D*3B
$GNGNS,041748.00,3726.9297242,N,12639.2518778,E,RRRR,28,0.60,15.652,17.838,2.0,4095,V*0C
$GNGGA,041748.00,3726.9297242,N,12639.2518778,E,4,12,0.60,15.652,M,17.838,M,2.0,4095*50
$GNGSA,A,3,03,09,19,17,04,06,14,,,,,,1.30,0.60,1.15,1*03
$GNGSA,A,3,77,85,71,87,,,,,,,,,1.30,0.60,1.15,2*07
$GNGSA,A,3,21,08,27,03,13,26,15,,,,,,1.30,0.60,1.15,3*0D
$GNGSA,A,3,04,28,08,01,33,10,27,13,03,07,,,1.30,0.60,1.15,4*00
$GPGSV,3,1,10,03,41,049,43,04,20,102,41,06,47,283,43,09,17,135,39,1*62
$GPGSV,3,2,10,11,12,260,39,14,35,190,38,17,77,038,45,19,61,329,42,1*64
$GPGSV,3,3,10,28,,,46,50,47,179,38,1*5F
$GPGSV,2,1,07,01,14,065,19,03,41,049,40,04,20,102,37,06,47,283,42,6*6C
$GPGSV,2,2,07,09,17,135,30,14,35,190,41,17,77,038,37,6*58
$GNRMC,041749.00,A,3726.9297230,N,12639.2518781,E,0.012,,210622,,,R,V*05
$GNVTG,,T,,M,0.012,N,0.022,K,D*3B
$GNGNS,041749.00,3726.9297230,N,12639.2518781,E,RRRR,28,0.60,15.659,17.838,2.0,4095,V*05
$GNGGA,041749.00,3726.9297230,N,12639.2518781,E,4,12,0.60,15.659,M,17.838,M,2.0,4095*59
$GNGSA,A,3,03,09,19,17,04,06,14,,,,,,1.30,0.60,1.15,1*03
$GNGSA,A,3,77,85,71,87,,,,,,,,,1.30,0.60,1.15,2*07
$GNGSA,A,3,21,08,27,03,13,26,15,,,,,,1.30,0.60,1.15,3*0D
$GNGSA,A,3,04,28,08,01,33,10,27,13,03,07,,,1.30,0.60,1.15,4*00
$GPGSV,3,1,10,03,41,049,43,04,20,102,41,06,47,283,43,09,17,135,38,1*63
$GPGSV,3,2,10,11,12,260,39,14,35,190,38,17,77,038,45,19,61,329,42,1*64
$GPGSV,3,3,10,28,,,46,50,47,179,38,1*5F
$GPGSV,2,1,07,01,14,065,19,03,41,049,42,04,20,102,39,06,47,283,44,6*66
$GPGSV,2,2,07,09,17,135,31,14,35,190,42,17,77,038,39,6*54
$GPGSV,1,1,02,02,09,266,,12,06,325,,0*6F
$GLGSV,2,1,07,70,36,051,26,71,46,121,43,72,16,168,41,76,30,245,43,1*71
$GLGSV,2,2,07,77,27,302,34,85,30,069,44,87,19,298,45,1*48
$GLGSV,1,1,04,71,46,121,40,76,30,245,40,77,27,302,32,85,30,069,40,3*79
$GLGSV,1,1,02,75,02,198,,86,53,007,,0*74
$GAGSV,3,1,09,01,19,317,26,03,24,074,41,08,24,130,43,13,63,323,48,2*74
$GAGSV,3,2,09,15,40,056,46,18,41,111,46,21,47,268,46,26,20,272,38,2*74
$GAGSV,3,3,09,27,33,198,45,2*4B
$GAGSV,3,1,09,01,19,317,24,03,24,074,36,08,24,130,40,13,63,323,45,7*7D
$GAGSV,3,2,09,15,40,056,43,18,41,111,42,21,47,268,44,26,20,272,40,7*7D
$GAGSV,3,3,09,27,33,198,39,7*45
$GAGSV,1,1,02,05,02,030,,07,01,175,,0*77
$GBGSV,3,1,12,01,43,152,41,02,27,236,37,03,44,206,42,04,35,132,40,1*71
$GBGSV,3,2,12,07,70,220,44,08,52,250,42,10,68,259,44,13,42,246,41,1*7A
$GBGSV,3,3,12,27,47,310,46,28,63,056,44,33,49,080,42,37,14,222,39,1*75
$GBGSV,2,1,06,03,44,206,42,04,35,132,43,07,70,220,45,08,52,250,44,3*7C
$GBGSV,2,2,06,10,68,259,44,13,42,246,37,3*73
$GBGSV,1,1,04,05,08,256,,14,30,052,,15,26,183,,30,01,291,,0*7C
$GNRMC,041750.00,A,3726.9297226,N,12639.2518774,E,0.004,,210622,,,R,V*07
$GNVTG,,T,,M,0.004,N,0.007,K,D*3B
$GNGNS,041750.00,3726.9297226,N,12639.2518774,E,RRRR,28,0.60,15.656,17.838,2.0,4095,V*0F
$GNGGA,041750.00,3726.9297226,N,12639.2518774,E,4,12,0.60,15.656,M,17.838,M,2.0,4095*53
$GNGSA,A,3,03,09,19,17,04,06,14,,,,,,1.30,0.60,1.15,1*03
$GNGSA,A,3,77,85,71,87,,,,,,,,,1.30,0.60,1.15,2*07
$GNGSA,A,3,21,08,27,03,13,26,15,,,,,,1.30,0.60,1.15,3*0D
$GNGSA,A,3,04,28,08,01,33,10,27,13,03,07,,,1.30,0.60,1.15,4*00
$GPGSV,3,1,10,03,41,049,44,04,20,102,42,06,47,283,44,09,17,135,39,1*61
$GPGSV,3,2,10,11,12,260,39,14,35,190,38,17,77,042,46,19,61,329,43,1*6B
$GPGSV,3,3,10,28,,,47,50,47,179,39,1*5F
$GPGSV,2,1,07,01,14,065,19,03,41,049,41,04,20,102,38,06,47,283,43,6*63
$GPGSV,2,2,07,09,17,135,32,14,35,190,42,17,77,042,38,6*5B
$GPGSV,1,1,02,02,09,266,,12,06,325,,0*6F
$GLGSV,2,1,07,70,36,051,26,71,46,121,43,72,16,168,41,76,30,245,43,1*71
$GLGSV,2,2,07,77,27,302,34,85,30,069,44,87,19,298,45,1*48
$GLGSV,1,1,04,71,46,121,40,76,30,245,39,77,27,302,32,85,30,069,39,3*79
$GLGSV,1,1,02,75,02,198,,86,53,007,,0*74
$GAGSV,3,1,09,01,19,317,25,03,24,074,40,08,24,130,42,13,63,323,47,2*78
$GAGSV,3,2,09,15,40,056,44,18,41,111,45,21,47,268,45,26,20,272,39,2*77
$GAGSV,3,3,09,27,33,198,45,2*4B
$GAGSV,3,1,09,01,19,317,25,03,24,074,36,08,24,130,40,13,63,323,46,7*7F
$GAGSV,3,2,09,15,40,056,44,18,41,111,43,21,47,268,45,26,20,272,42,7*78
$GAGSV,3,3,09,27,33,198,40,7*4B
$GAGSV,1,1,02,05,02,030,,07,01,175,,0*77
$GBGSV,3,1,12,01,43,152,41,02,27,236,37,03,44,206,42,04,35,132,40,1*71
$GBGSV,3,2,12,07,70,220,44,08,52,250,42,10,68,259,44,13,42,246,41,1*7A
$GBGSV,3,3,12,27,47,310,46,28,63,056,44,33,49,080,42,37,14,222,39,1*75
$GBGSV,2,1,06,03,44,206,42,04,35,132,43,07,70,220,45,08,52,250,44,3*7C
$GBGSV,2,2,06,10,68,259,43,13,42,246,38,3*7B
$GNRMC,041751.00,A,3726.9297209,N,12639.2518782,E,0.004,,210622,,,R,V*02
$GNVTG,,T,,M,0.004,N,0.007,K,D*3B
$GNGNS,041751.00,3726.9297209,N,12639.2518782,E,RRRR,28,0.60,15.644,17.838,2.0,4095,V*09
$GNGSA,A,3,03,09,19,17,04,06,14,,,,,,1.30,0.60,1.15,1*03
$GNGSA,A,3,77,85,71,87,,,,,,,,,1.30,0.60,1.15,2*07
$GNGSA,A,3,21,08,27,03,13,26,15,,,,,,1.30,0.60,1.15,3*0D
$GNGSA,A,3,04,28,08,01,33,10,27,13,03,07,,,1.30,0.60,1.15,4*00
$GPGSV,3,1,10,03,41,049,44,04,20,102,42,06,47,283,43,09,17,135,39,1*66
$GPGSV,3,2,10,11,12,260,39,14,35,190,38,17,77,042,45,19,61,329,43,1*68
$GPGSV,3,3,10,28,,,46,50,47,179,39,1*5E
$GPGSV,2,1,07,01,14,065,19,03,41,049,41,04,20,102,38,06,47,283,42,6*62
$GPGSV,2,2,07,09,17,135,31,14,35,190,42,17,77,042,37,6*57
$GPGSV,1,1,02,02,09,266,,12,06,325,,0*6F
$GLGSV,2,1,07,70,36,051,26,71,46,121,43,72,16,168,40,76,30,245,43,1*70
$GLGSV,2,2,07,77,27,302,34,85,30,069,44,87,19,298,45,1*48
$GLGSV,1,1,04,71,46,121,40,76,30,245,38,77,27,302,32,85,30,069,39,3*78
$GLGSV,1,1,02,75,02,198,,86,53,007,,0*74
$GAGSV,3,1,09,01,19,317,25,03,24,074,40,08,24,130,42,13,63,323,46,2*79
$GAGSV,3,2,09,15,40,056,44,1$GAGSV,3,3,09,27,33,198,44,2*4A
$GAGSV,3,1,09,01,19,317,24,03,24,074,36,08,24,130,40,13,63,323,45,7*7D
$GAGSV,3,2,09,15,40,056,43,18,41,111,42,21,47,268,44,26,20,272,41,7*7C
$GAGSV,3,3,09,27,33,198,39,7*45
$GAGSV,1,1,02,05,02,030,,07,01,175,,0*77
$GBGSV,3,1,12,01,43,152,41,02,27,236,37,03,44,206,42,04,35,132,40,1*71
$GBGSV,3,2,12,07,70,220,44,08,52,250,42,10,68,259,44,13,42,246,41,1*7A
$GBGSV,3,3,12,27,47,310,46,28,63,056,43,33,49,080,42,37,14,222,39,1*72
$GBGSV,2,1,06,03,44,206,41,04,35,132,42,07,70,220,44,08,52,250,43,3*78
$GBGSV,2,2,06,10,68,259,43,13,42,246,38,3*7B
$GBGSV,1,1,04,05,08,256,,14,30,052,,15,26,183,,30,01,291,,0*7C
$GNRMC,041752.00,A,3726.9297209,N,12639.2518784,E,0.003,,210622,,,R,V*00
$GNVTG,,T,,M,0.003,N,0.006,K,D*3D
$GNGNS,041752.00,3726.9297209,N,12639.2518784,E,RRRR,28,0.60,15.638,17.838,2.0,4095,V*07
$GNGGA,041752.00,3726.9297209,N,12639.2518784,E,4,12,0.60,15.638,M,17.838,M,2.0,4095*5B
$GNGSA,A,3,03,09,19,17,04,06,14,,,,,,1.30,0.60,1.15,1*03
$GNGSA,A,3,77,85,71,87,,,,,,,,,1.30,0.60,1.15,2*07
$GNGSA,A,3,21,08,27,03,13,26,15,,,,,,1.30,0.60,1.15,3*0D
$GNGSA,A,3,04,28,08,01,33,10,27,13,03,07,,,1.30,0.60,1.15,4*00
$GPGSV,3,1,10,03,41,049,44,04,20,102,42,06,47,283,43,09,17,135,39,1*66
$GPGSV,3,2,10,11,12,260,39,14,35,190,39,17,77,042,45,19,62,330,43,1*62
$GPGSV,3,3,10,28,,,46,50,47,179,39,1*5E
$GPGSV,2,1,07,01,14,065,19,03,41,049,41,04,20,102,38,06,47,283,42,6*62
$GPGSV,2,2,07,09,17,135,31,14,35,190,41,17,77,042,37,6*54
$GPGSV,1,1,02,02,09,266,,12,06,325,,0*6F
$GLGSV,2,1,07,70,36,051,26,71,46,121,43,72,16,168,40,76,30,245,43,1*70
$GAGSV,3,1,09,01,19,317,24,03,24,074,40,08,24,130,42,13,63,323,46,2*78
$GAGSV,3,2,09,15,40,056,44,18,41,111,45,21,47,268,45,26,20,272,38,2*76
$GAGSV,3,3,09,27,33,198,44,2*4A
$GAGSV,3,1,09,01,19,317,25,03,24,074,36,08,24,130,40,13,63,323,45,7*7C
$GAGSV,3,2,09,15,40,056,43,18,41,111,43,21,47,268,44,26,20,272,41,7*7D
$GAGSV,3,3,09,27,33,198,39,7*45
$GAGSV,1,1,02,05,02,030,,07,01,175,,0*77
$GBGSV,3,1,12,01,43,152,41,02,27,236,37,03,44,206,42,04,35,132,40,1*71
$GBGSV,3,2,12,07,70,220,45,08,52,250,42,10,68,259,44,13,42,246,41,1*7B
$GNRMC,041753.00,A,3726.9297205,N,12639.2518785,E,0.004,,210622,,,R,V*0B
$GNVTG,,T,,M,0.004,N,0.007,K,D*3B
$GNGNS,041753.00,3726.9297205,N,12639.2518785,E,RRRR,28,0.60,15.637,17.838,1.0,4095,V*07
$GNGGA,041753.00,3726.9297205,N,12639.2518785,E,4,12,0.60,15.637,M,17.838,M,1.0,4095*5B
$GNGSA,A,3,03,09,19,17,04,06,14,,,,,,1.30,0.60,1.15,1*03
$GNGSA,A,3,77,85,71,87,,,,,,,,,1.30,0.60,1.15,2*07
$GNGSA,A,3,21,08,27,03,13,26,15,,,,,,1.30,0.60,1.15,3*0D
$GNGSA,A,3,04,28,08,01,33,10,27,13,03,07,,,1.30,0.60,1.15,4*00
$GPGSV,3,1,10,03,41,049,44,04,20,102,42,06,47,283,43,09,17,135,38,1*67
$GPGSV,3,2,10,11,12,260,39,14,35,190,38,17,77,042,45,19,62,330,43,1*63
$GPGSV,3,3,10,28,,,46,50,47,179,38,1*5F
$GPGSV,2,1,07,01,14,065,19,03,41,049,41,04,20,102,38,06,47,283,42,6*62
$GPGSV,2,2,07,09,17,135,31,14,35,190,42,17,77,042,37,6*57
$GPGSV,1,1,02,02,09,266,,12,06,325,,0*6F
$GLGSV,2,1,07,70,36,051,26,71,46,121,43,72,16,168,39,76,30,245,42,1*7F
$GLGSV,2,2,07,77,27,302,34,85,30,069,44,87,19,298,45,1*48
$GLGSV,1,1,04,71,46,121,39,76,30,245,38,77,27,302,32,85,30,069,38,3*77
$GLGSV,1,1,02,75,02,198,,86,53,007,,0*74
$GAGSV,3,1,09,01,19,317,23,03,24,074,40,08,24,130,42,13,63,323,46,2*7F
$GAGSV,3,2,09,15,40,056,44,18,41,111,45,21,47,268,45,26,20,272,38,2*76
$GAGSV,3,3,09,27,33,198,44,2*4A
$GAGSV,3,1,09,01,19,317,24,03,24,074,36,08,24,130,40,13,63,323,45,7*7D
$GAGSV,3,2,09,15,40,056,43,18,41,111,43,21,47,268,44,26,20,272,41,7*7D
$GAGSV,3,3,09,27,33,198,39,7*45
$GAGSV,1,1,02,05,02,030,,07,01,175,,0*77
$GBGSV,3,1,12,01,43,152,41,02,27,236,37,03,44,206,42,04,35,132,40,1*71
$GBGSV,3,2,12,07,70,220,45,08,52,250,42,10,68,259,44,13,42,246,41,1*7B
$GBGSV,3,3,12,27,47,310,46,28,63,056,43,33,49,080,42,37,14,222,39,1*72
$GBGSV,2,1,06,03,44,206,41,04,35,132,42,07,70,220,44,08,52,250,43,3*78
$GBGSV,2,2,06,10,68,259,42,13,42,246,38,3*7A
$GBGSV,1,1,04,05,08,256,,14,30,052,,15,26,183,,30,01,291,,0*7C
$GNRMC,041754.00,A,3726.9297189,N,12639.2518792,E,0.004,,210622,,,R,V*0D
$GNVTG,,T,,M,0.004,N,0.007,K,D*3B
$GNGNS,041754.00,3726.9297189,N,12639.2518792,E,RRRR,28,0.60,15.643,17.838,2.0,4095,V*01
$GNGGA,041754.00,3726.9297189,N,12639.2518792,E,4,12,0.60,15.643,M,17.838,M,2.0,4095*5D
$GNGSA,A,3,03,09,19,17,04,06,14,,,,,,1.30,0.60,1.15,1*03
$GNGSA,A,3,77,85,71,87,,,,,,,,,1.30,0.60,1.15,2*07
$GNGSA,A,3,21,08,27,03,13,26,15,,,,,,1.30,0.60,1.15,3*0D
$GNGSA,A,3,04,28,08,01,33,10,27,13,03,07,,,1.30,0.60,1.15,4*00
$GPGSV,3,1,10,03,41,049,44,04,20,102,42,06,47,283,43,09,17,135,38,1*67
$GPGSV,3,2,10,11,12,260,40,14,35,190,38,17,77,042,45,19,62,330,43,1*6D
$GPGSV,3,3,10,28,,,46,50,47,179,38,1*5F
$GPGSV,2,1,07,01,14,065,18,03,41,049,41,04,20,102,38,06,47,283,42,6*63
$GPGSV,2,2,07,09,17,135,31,14,35,190,42,17,77,042,37,6*57
$GPGSV,1,1,02,02,09,266,,12,06,325,,0*6F
$GLGSV,2,1,07,70,36,051,26,71,46,121,43,72,16,168,38,76,30,245,42,1*7E
$GLGSV,2,2,07,77,27,302,34,85,30,069,44,87,19,298,45,1*48
$GLGSV,1,1,04,71,46,121,39,76,30,245,38,77,27,302,32,85,30,069,38,3*77
$GLGSV,1,1,02,75,02,198,,86,53,007,,0*74
$GAGSV,3,1,09,01,19,317,24,03,24,074,40,08,24,130,42,13,63,323,46,2*78
$GAGSV,3,2,09,15,40,056,44,18,41,111,45,21,47,268,45,26,20,272,39,2*77
$GAGSV,3,3,09,27,33,198,45,2*4B
$GAGSV,3,1,09,01,19,317,25,03,24,074,36,08,24,130,40,13,63,323,45,7*7C
$GAGSV,3,2,09,15,40,056,43,18,41,111,42,21,47,268,44,26,20,272,41,7*7C
$GAGSV,3,3,09,27,33,198,39,7*45
$GAGSV,1,1,02,05,02,030,,07,01,175,,0*77
$GBGSV,3,1,12,01,43,152,41,02,27,236,37,03,44,206,42,04,35,132,40,1*71
$GBGSV,3,2,12,07,70,220,44,08,52,250,42,10,68,259,44,13,42,246,41,1*7A
$GBGSV,3,3,12,27,47,310,46,28,63,056,43,33,49,080,42,37,14,222,39,1*72
$GBGSV,2,1,06,03,44,206,41,04,35,132,42,07,70,220,44,08,52,250,43,3*78
$GBGSV,2,2,06,10,68,259,43,13,42,246,37,3*74
$GNRMC,041755.00,A,3726.9297193,N,12639.2518781,E,0.003,,210622,,,R,V*02
$GNVTG,,T,,M,0.003,N,0.006,K,D*3D
$GNGNS,041755.00,3726.9297193,N,12639.2518781,E,RRRR,28,0.60,15.665,17.838,2.0,4095,V*0D
$GNGGA,041755.00,3726.9297193,N,12639.2518781,E,4,12,0.60,15.665,M,17.838,M,2.0,4095*51
$GNGSA,A,3,03,09,19,17,04,06,14,,,,,,1.30,0.60,1.15,1*03
$GNGSA,A,3,77,85,71,87,,,,,,,,,1.30,0.60,1.15,2*07
$GNGSA,A,3,21,08,27,03,13,26,15,,,,,,1.30,0.60,1.15,3*0D
$GNGSA,A,3,04,28,08,01,33,10,27,13,03,07,,,1.30,0.60,1.15,4*00
$GPGSV,3,1,10,03,41,049,44,04,20,102,42,06,47,283,43,09,17,135,38,1*67
$GPGSV,3,2,10,11,12,260,40,14,35,190,38,17,77,042,45,19,62,330,43,1*6D
$GPGSV,3,3,10,28,,,46,50,47,179,38,1*5F
$GPGSV,2,1,07,01,14,065,18,03,41,049,41,04,20,102,38,06,47,283,42,6*63
$GPGSV,2,2,07,09,17,135,31,14,35,190,41,17,77,042,37,6*54
$GPGSV,1,1,02,02,09,266,,12,06,325,,0*6F
$GLGSV,2,1,07,70,36,051,26,71,46,121,43,72,16,168,38,76,30,245,42,1*7E
$GLGSV,2,2,07,77,27,302,34,85,30,069,44,87,19,298,45,1*48
$GLGSV,1,1,04,71,46,121,39,76,30,245,38,77,27,302,32,85,30,069,38,3*77
$GLGSV,1,1,02,75,02,198,,86,53,007,,0*74
$GAGSV,3,1,09,01,19,317,24,03,24,074,40,08,24,130,42,13,63,323,46,2*78
$GAGSV,3,2,09,15,40,056,44,18,41,111,45,21,47,268,45,26,20,272,39,2*77
$GAGSV,3,3,09,27,33,198,45,2*4B
$GAGSV,3,1,09,01,19,317,25,03,24,074,36,08,24,130,40,13,63,323,45,7*7C
$GAGSV,3,2,09,15,40,056,43,18,41,111,42,21,47,268,44,26,20,272,41,7*7C
$GAGSV,3,3,09,27,33,198,39,7*45
$GAGSV,1,1,02,05,02,030,,07,01,175,,0*77
$GBGSV,3,1,12,01,43,152,41,02,27,236,37,03,44,206,42,04,35,132,40,1*71
$GBGSV,3,2,12,07,70,220,45,08,52,250,42,10,68,259,44,13,42,246,41,1*7B
$GBGSV,3,3,12,27,47,310,46,28,63,056,43,33,49,080,42,37,14,222,39,1*72
$GBGSV,2,1,06,03,44,206,41,04,35,132,42,07,70,220,44,08,52,250,43,3*78
$GBGSV,2,2,06,10,68,259,43,13,42,246,37,3*74
$GBGSV,1,1,04,05,08,256,,14,30,052,,15,26,183,,30,01,291,,0*7C
$GNRMC,041756.00,A,3726.9297192,N,12639.2518795,E,0.005,,210622,,,R,V*03
$GNVTG,,T,,M,0.005,N,0.009,K,D*34
$GNGNS,041756.00,3726.9297192,N,12639.2518795,E,RRRR,28,0.60,15.663,17.838,2.0,4095,V*0C
$GNGGA,041756.00,3726.9297192,N,12639.2518795,E,4,12,0.60,15.663,M,17.838,M,2.0,4095*50
$GNGSA,A,3,03,09,19,17,04,06,14,,,,,,1.30,0.60,1.15,1*03
$GNGSA,A,3,77,85,71,87,,,,,,,,,1.30,0.60,1.15,2*07
$GNGSA,A,3,21,08,27,03,13,26,15,,,,,,1.30,0.60,1.15,3*0D
$GNGSA,A,3,04,28,08,01,33,10,27,13,03,07,,,1.30,0.60,1.15,4*00
$GPGSV,3,1,10,03,41,049,44,04,20,102,42,06,47,283,43,09,17,135,38,1*67
$GPGSV,3,2,10,11,12,260,40,14,35,190,38,17,77,042,45,19,62,330,43,1*6D
$GPGSV,3,3,10,28,,,46,50,47,179,38,1*5F
$GPGSV,2,1,07,01,14,065,18,03,41,049,41,04,20,102,38,06,47,283,42,6*63
$GPGSV,2,2,07,09,17,135,31,14,35,190,41,17,77,042,37,6*54
$GPGSV,1,1,02,02,09,266,,12,06,325,,0*6F
$GLGSV,2,1,07,70,36,051,26,71,46,121,43,72,16,168,37,76,30,245,42,1*71
$GLGSV,2,2,07,77,27,302,34,85,30,069,44,87,19,298,45,1*48
$GLGSV,1,1,04,71,46,121,39,76,30,245,38,77,27,302,31,85,30,069,38,3*74
$GLGSV,1,1,02,75,02,198,,86,53,007,,0*74
$GAGSV,3,1,09,01,19,317,25,03,24,074,40,08,24,130,42,13,63,323,46,2*79
$GAGSV,3,2,09,15,40,056,44,18,41,111,45,21,47,268,45,26,20,272,38,2*76
$GAGSV,3,3,09,27,33,198,44,2*4A
$GAGSV,3,1,09,01,19,317,24,03,24,074,36,08,24,130,40,13,63,323,45,7*7D
$GAGSV,3,2,09,15,40,056,43,18,41,111,43,21,47,268,44,26,20,272,41,7*7D
$GAGSV,3,3,09,27,33,198,39,7*45
$GNRMC,041757.00,A,3726.9297196,N,12639.2518794,E,0.007,,210622,,,R,V*05
$GNVTG,,T,,M,0.007,N,0.014,K,D*3A
$GNGNS,041757.00,3726.9297196,N,12639.2518794,E,RRRR,28,0.60,15.666,17.838,2.0,4095,V*0D
$GNGGA,041757.00,3726.9297196,N,12639.2518794,E,4,12,0.60,15.666,M,17.838,M,2.0,4095*51
$GNGSA,A,3,03,09,19,17,04,06,14,,,,,,1.30,0.60,1.15,1*03
$GNGSA,A,3,77,85,71,87,,,,,,,,,1.30,0.60,1.15,2*07
$GNGSA,A,3,21,08,27,03,13,26,15,,,,,,1.30,0.60,1.15,3*0D
$GNGSA,A,3,04,28,08,01,33,10,27,13,03,07,,,1.30,0.60,1.15,4*00
$GPGSV,3,1,10,03,41,049,44,04,20,102,42,06,47,283,44,09,17,135,38,1*60
$GPGSV,3,2,10,11,12,260,40,14,35,190,38,17,77,042,45,19,62,330,43,1*6D
$GPGSV,3,3,10,28,,,46,50,47,179,38,1*5F
$GPGSV,2,1,07,01,14,065,17,03,41,049,39,04,20,102,37,06,47,283,41,6*6F
$GPGSV,2,2,07,09,17,135,31,14,35,190,40,17,77,042,37,6*55
$GPGSV,1,1,02,02,09,266,,12,06,325,,0*6F
$GLGSV,2,1,07,70,36,051,26,71,46,121,43,72,16,168,36,76,30,245,42,1*70
$GLGSV,2,2,07,77,27,302,34,85,30,069,44,87,19,298,44,1*49
$GLGSV,1,1,04,71,46,121,36,76,30,245,37,77,27,302,31,85,30,069,35,3*79
$GLGSV,1,1,02,75,02,198,,86,53,007,,0*74
$GAGSV,3,1,09,01,19,317,25,03,24,074,40,08,24,130,42,13,63,323,46,2*79
$GAGSV,3,2,09,15,40,056,44,18,41,111,45,21,47,268,45,26,20,272,38,2*76
$GAGSV,3,3,09,27,33,198,44,2*4A
$GAGSV,3,1,09,01,19,317,25,03,24,074,36,08,24,130,40,13,63,323,45,7*7C
$GAGSV,3,2,09,15,40,056,43,18,41,111,43,21,47,268,44,26,20,272,41,7*7D
$GAGSV,3,3,09,27,33,198,39,7*45
$GAGSV,1,1,02,05,02,030,,07,01,175,,0*77
$GBGSV,3,1,12,01,43,152,41,02,27,236,37,03,44,206,42,04,35,132,40,1*71
$GBGSV,3,2,12,07,70,220,45,08,52,250,42,10,68,259,44,13,42,246,41,1*7B
$GBGSV,3,3,12,27,47,310,46,28,63,056,43,33,49,080,42,37,14,222,39,1*72
$GBGSV,2,1,06,03,44,206,41,04,35,132,42,07,70,220,44,08,52,250,43,3*78
$GBGSV,2,2,06,10,68,259,43,13,42,246,37,3*74
$GBGSV,1,1,04,05,08,256,,14,30,052,,15,26,183,,30,01,291,,0*7C
$GNRMC,041758.00,A,3726.9297195,N,12639.2518784,E,0.006,,210622,,,R,V*09
$GNVTG,,T,,M,0.006,N,0.010,K,D*3F
$GNGNS,041758.00,3726.9297195,N,12639.2518784,E,RRRR,28,0.60,15.644,17.838,2.0,4095,V*00
$GNGGA,041758.00,3726.9297195,N,12639.2518784,E,4,12,0.60,15.644,M,17.838,M,2.0,4095*5C
$GNGSA,A,3,03,09,19,17,04,06,14,,,,,,1.30,0.60,1.15,1*03
$GNGSA,A,3,77,85,71,87,,,,,,,,,1.30,0.60,1.15,2*07
$GNGSA,A,3,21,08,27,03,13,26,15,,,,,,1.30,0.60,1.15,3*0D
$GNGSA,A,3,04,28,08,01,33,10,27,13,03,07,,,1.30,0.60,1.15,4*00
$GPGSV,3,1,10,03,41,049,44,04,20,102,42,06,47,283,44,09,17,135,38,1*60
$GPGSV,3,2,10,11,12,260,40,14,35,190,37,17,77,042,45,19,62,330,43,1*62
$GPGSV,3,3,10,28,,,47,50,47,179,38,1*5E
$GPGSV,2,1,07,01,14,065,18,03,41,049,39,04,20,102,37,06,47,283,41,6*60
$GPGSV,2,2,07,09,17,135,31,14,35,190,40,17,77,042,36,6*54
$GPGSV,1,1,02,02,09,266,,12,06,325,,0*6F
$GLGSV,2,1,07,70,36,051,25,71,46,121,43,72,16,168,35,76,30,245,41,1*73
$GLGSV,2,2,07,77,27,302,34,85,30,069,44,87,19,298,44,1*49
$GLGSV,1,1,04,71,46,121,37,76,30,245,35,77,27,302,27,85,30,069,36,3*7E
$GLGSV,1,1,02,75,02,198,,86,53,007,,0*74
$GAGSV,3,1,09,01,19,317,25,03,24,074,41,08,24,130,42,13,63,323,46,2*78
$GAGSV,3,2,09,15,40,056,44,18,41,111,45,21,47,268,45,26,20,272,38,2*76
$GAGSV,3,3,09,27,33,198,45,2*4B
$GAGSV,3,1,09,01,19,317,25,03,24,074,37,08,24,130,40,13,63,323,45,7*7D
$GAGSV,3,2,09,15,40,056,43,18,41,111,43,21,47,268,44,26,20,272,41,7*7D
$GAGSV,3,3,09,27,33,198,39,7*45
$GAGSV,1,1,02,05,02,030,,07,01,175,,0*77
$GNRMC,041759.00,A,3726.9297214,N,12639.2518783,E,0.003,,210622,,,R,V*00
$GNVTG,,T,,M,0.003,N,0.006,K,D*3D
$GNGNS,041759.00,3726.9297214,N,12639.2518783,E,RRRR,28,0.60,15.637,17.838,2.0,4095,V*08
$GNGGA,041759.00,3726.9297214,N,12639.2518783,E,4,12,0.60,15.637,M,17.838,M,2.0,4095*54
$GNGSA,A,3,03,09,19,17,04,06,14,,,,,,1.30,0.60,1.15,1*03
$GNGSA,A,3,77,85,71,87,,,,,,,,,1.30,0.60,1.15,2*07
$GNGSA,A,3,21,08,27,03,13,26,15,,,,,,1.30,0.60,1.15,3*0D
$GNGSA,A,3,04,28,08,01,33,10,27,13,03,07,,,1.30,0.60,1.15,4*00
$GPGSV,3,1,11,02,09,266,28,03,41,049,44,04,20,102,42,06,47,283,44,1*61
$GPGSV,3,2,11,09,17,135,38,11,12,260,40,14,35,190,37,17,77,042,45,1*6B
$GPGSV,3,3,11,19,62,330,43,28,,,47,50,47,179,38,1*64
$GPGSV,2,1,07,01,14,065,17,03,41,049,39,04,20,102,37,06,47,283,41,6*6F
$GPGSV,2,2,07,09,17,135,30,14,35,190,40,17,77,042,36,6*55
$GPGSV,1,1,01,12,06,325,,0*55
$GLGSV,2,1,07,70,36,051,25,71,46,121,43,72,16,168,34,76,30,245,40,1*73
$GLGSV,2,2,07,77,27,302,34,85,30,069,44,87,19,298,44,1*49
$GLGSV,1,1,04,71,46,121,38,76,30,245,36,77,27,302,29,85,30,069,36,3*7C
$GLGSV,1,1,02,75,02,198,,86,53,007,,0*74
$GAGSV,3,1,09,01,19,317,24,03,24,074,40,08,24,130,42,13,63,323,46,2*78
$GAGSV,3,2,09,15,40,056,44,18,41,111,45,21,47,268,45,26,20,272,38,2*76
$GAGSV,3,3,09,27,33,198,44,2*4A
$GAGSV,3,1,09,01,19,317,24,03,24,074,36,08,24,130,40,13,63,323,45,7*7D
$GAGSV,3,2,09,15,40,056,42,18,41,111,43,21,47,268,44,26,20,272,41,7*7C
$GAGSV,3,3,09,27,33,198,39,7*45
$GAGSV,1,1,02,05,02,030,,07,01,175,,0*77
$GBGSV,3,1,12,01,43,152,41,02,27,236,37,03,44,206,42,04,35,132,40,1*71
$GBGSV,3,2,12,07,70,220,45,08,52,250,42,10,68,259,44,13,42,246,41,1*7B
$GBGSV,3,3,12,27,47,310,46,28,63,056,43,33,49,080,42,37,14,222,39,1*72
$GBGSV,2,1,06,03,44,206,41,04,35,132,42,07,70,220,44,08,52,250,43,3*78
$GBGSV,2,2,06,10,68,259,43,13,42,246,37,3*74
$GBGSV,1,1,04,05,08,256,,14,30,052,,15,26,183,,30,01,291,,0*7C
$GNRMC,041800.00,A,3726.9297214,N,12639.2518777,E,0.001,,210622,,,R,V*0A
$GNVTG,,T,,M,0.001,N,0.002,K,D*3B
$GNGGA,041800.00,3726.9297214,N,12639.2518777,E,4,12,0.60,15.641,M,17.838,M,2.0,4095*5D
$GNGSA,A,3,03,09,19,17,04,06,14,,,,,,1.30,0.60,1.15,1*03
$GNGSA,A,3,21,08,27,03,13,26,15,,,,,,1.30,0.60,1.15,3*0D
$GNGSA,A,3,04,28,08,01,33,10,27,13,03,07,,,1.30,0.60,1.15,4*00
$GPGSV,3,2,11,09,17,135,39,11,12,260,39,14,35,190,37,17,77,042,45,1*64
$GPGSV,3,3,11,19,62,330,43,28,,,47,50,47,179,38,1*64
$GPGSV,2,1,07,01,14,065,17,03,41,049,40,04,20,102,38,06,47,283,43,6*6C
$GPGSV,2,2,07,09,17,135,32,14,35,190,42,17,77,042,37,6*54
$GPGSV,1,1,01,12,06,325,,0*55
$GLGSV,2,1,07,70,36,051,25,71,46,121,43,72,16,168,33,76,30,245,40,1*74
$GLGSV,2,2,07,77,27,302,34,85,30,069,44,87,19,298,44,1*49
$GLGSV,1,1,04,71,46,121,38,76,30,245,36,77,27,302,30,85,30,069,37,3*75
$GLGSV,1,1,02,75,02,198,,86,53,007,,0*74
$GAGSV,3,1,09,01,19,317,23,03,24,074,40,08,24,130,42,13,63,323,46,2*7F
$GAGSV,3,2,09,15,40,056,43,18,41,111,45,21,47,268,45,26,20,272,38,2*71
$GAGSV,3,3,09,27,33,198,44,2*4A
$GAGSV,3,1,09,01,19,317,25,03,24,074,36,08,24,130,40,13,63,323,45,7*7C
$GAGSV,3,2,09,15,40,056,42,18,41,111,43,21,47,268,44,26,20,272,41,7*7C
$GAGSV,3,3,09,27,33,198,39,7*45
$GAGSV,1,1,02,05,02,030,,07,01,175,,0*77
$GBGSV,3,1,12,01,43,152,40,02,27,236,37,03,44,206,42,04,35,132,40,1*70
$GBGSV,3,2,12,07,70,220,45,08,52,250,41,10,68,259,44,13,42,246,41,1*78
$GBGSV,3,3,12,27,47,310,46,28,63,056,43,33,49,080,42,37,14,222,39,1*72
$GBGSV,2,1,06,03,44,206,41,04,35,132,42,07,70,220,45,08,52,250,43,3*79
$GBGSV,2,2,06,10,68,259,43,13,42,246,37,3*74
$GBGSV,1,1,04,05,08,256,,14,30,052,,15,26,183,,30,01,291,,0*7C
$GNRMC,041801.00,A,3726.9297198,N,12639.2518775,E,0.006,,210622,,,R,V*09
$GNVTG,,T,,M,0.006,N,0.010,K,D*3F
$GNGNS,041801.00,3726.9297198,N,12639.2518775,E,RRRR,28,0.60,15.631,17.838,2.0,4095,V*02
$GNGGA,041801.00,3726.9297198,N,12639.2518775,E,4,12,0.60,15.631,M,17.838,M,2.0,4095*5E
$GNGSA,A,3,03,09,19,17,04,06,14,,,,,,1.30,0.60,1.15,1*03
$GNGSA,A,3,77,85,71,87,,,,,,,,,1.30,0.60,1.15,2*07
$GNGSA,A,3,21,08,27,03,13,26,15,,,,,,1.30,0.60,1.15,3*0D
$GNGSA,A,3,04,28,08,01,33,10,27,13,03,07,,,1.30,0.60,1.15,4*00
$GPGSV,3,1,11,02,09,266,31,03,41,049,44,04,20,102,42,06,47,283,44,1*69
$GPGSV,3,2,11,09,17,135,39,11,12,260,39,14,35,190,37,17,77,042,45,1*64
$GPGSV,3,3,11,19,62,330,44,28,,,47,50,47,179,38,1*63
$GPGSV,2,1,07,01,14,065,18,03,41,049,41,04,20,102,38,06,47,283,43,6*62
$GPGSV,2,2,07,09,17,135,32,14,35,190,42,17,77,042,37,6*54
$GPGSV,1,1,01,12,06,325,,0*55
$GLGSV,2,1,07,70,36,051,25,71,46,121,43,72,16,168,33,76,30,245,40,1*74
$GLGSV,2,2,07,77,27,302,34,85,30,069,44,87,19,298,44,1*49
$GLGSV,1,1,04,71,46,121,39,76,30,245,37,77,27,302,31,85,30,069,39,3*7A
$GLGSV,1,1,02,75,02,198,,86,53,007,,0*74
$GAGSV,3,1,09,01,19,317,23,03,24,074,40,08,24,130,42,13,63,323,46,2*7F
$GAGSV,3,2,09,15,40,056,44,18,41,111,45,21,47,268,45,26,20,272,38,2*76
$GAGSV,3,3,09,27,33,198,44,2*4A
$GAGSV,3,1,09,01,19,317,23,03,24,074,36,08,24,130,40,13,63,323,45,7*7A
$GAGSV,3,2,09,15,40,056,42,18,41,111,43,21,47,268,44,26,20,272,41,7*7C
$GAGSV,3,3,09,27,33,198,39,7*45
$GAGSV,1,1,02,05,02,030,,07,01,175,,0*77
$GBGSV,3,1,12,01,43,152,41,02,27,236,37,03,44,206,42,04,35,132,40,1*71
$GBGSV,3,2,12,07,70,220,45,08,52,250,42,10,68,259,44,13,42,246,41,1*7B
$GBGSV,3,3,12,27,47,310,46,28,63,056,43,33,49,080,42,37,14,222,39,1*72
$GBGSV,2,1,06,03,44,206,42,04,35,132,42,07,70,220,45,08,52,250,44,3*7D
$GBGSV,2,2,06,10,68,259,43,13,42,246,38,3*7B
$GBGSV,1,1,04,05,08,256,,14,30,052,,15,26,183,,30,01,291,,0*7C
$GNRMC,041802.00,A,3726.9297204,N,12639.2518774,E,0.007,,210622,,,R,V*0C
$GNVTG,,T,,M,0.007,N,0.013,K,D*3D
$GNGNS,041802.00,3726.9297204,N,12639.2518774,E,RRRR,28,0.60,15.631,17.838,2.0,4095,V*06
$GNGGA,041802.00,3726.9297204,N,12639.2518774,E,4,12,0.60,15.631,M,17.838,M,2.0,4095*5A
$GNGSA,A,3,03,09,19,17,04,06,14,,,,,,1.30,0.60,1.15,1*03
$GNGSA,A,3,77,85,71,87,,,,,,,,,1.30,0.60,1.15,2*07
$GNGSA,A,3,21,08,27,03,13,26,15,,,,,,1.30,0.60,1.15,3*0D
$GNGSA,A,3,04,28,08,01,33,10,27,13,03,07,,,1.30,0.60,1.15,4*00
$GPGSV,3,1,11,02,09,266,31,03,41,049,44,04,20,102,42,06,47,283,44,1*69
$GPGSV,3,2,11,09,17,135,39,11,12,260,40,14,35,190,36,17,77,042,45,1*6B
$GPGSV,3,3,11,19,62,330,44,28,,,47,50,47,179,38,1*63
$GPGSV,2,1,07,01,14,065,18,03,41,049,40,04,20,102,38,06,47,283,43,6*63
$GPGSV,2,2,07,09,17,135,32,14,35,190,42,17,77,042,37,6*54
$GPGSV,1,1,01,12,06,325,,0*55
$GLGSV,2,1,07,70,36,051,24,71,46,121,43,72,16,168,34,76,30,245,40,1*72
$GLGSV,2,2,07,77,27,302,34,85,30,069,44,87,19,298,44,1*49
$GLGSV,1,1,04,71,46,121,39,76,30,245,37,77,27,302,31,85,30,069,38,3*7B
$GLGSV,1,1,02,75,02,198,,86,53,007,,0*74
$GAGSV,3,1,09,01,19,317,24,03,24,074,40,08,24,130,42,13,63,323,46,2*78
$GAGSV,3,2,09,15,40,056,44,18,41,111,45,21,47,268,45,26,20,272,38,2*76
$GAGSV,3,3,09,27,33,198,44,2*4A
$GAGSV,3,1,09,01,19,317,20,03,24,074,35,08,24,130,40,13,63,323,45,7*7A
$GAGSV,3,2,09,15,40,056,42,18,41,111,43,21,47,268,44,26,20,272,41,7*7C
$GAGSV,3,3,09,27,33,198,39,7*45
$GAGSV,1,1,02,05,02,030,,07,01,175,,0*77
$GBGSV,3,1,12,01,43,152,41,02,27,236,37,03,44,206,42,04,35,132,40,1*71
$GBGSV,3,2,12,07,70,220,45,08,52,250,42,10,68,259,44,13,42,246,41,1*7B
$GBGSV,3,3,12,27,47,310,46,28,63,056,43,33,49,080,42,37,14,222,39,1*72
$GBGSV,2,1,07,03,44,206,42,04,35,132,42,07,70,220,44,08,52,250,44,3*7D
$GBGSV,2,2,07,10,68,259,43,13,42,246,38,27,47,310,15,3*4A
$GBGSV,1,1,04,05,08,256,,14,30,052,,15,26,183,,30,01,291,,0*7C
$GNRMC,041803.00,A,3726.9297205,N,12639.2518779,E,0.005,,210622,,,R,V*03
$GNVTG,,T,,M,0.005,N,0.009,K,D*34
$GNGNS,041803.00,3726.9297205,N,12639.2518779,E,RRRR,28,0.60,15.633,17.838,1.0,4095,V*0A
$GNGGA,041803.00,3726.9297205,N,12639.2518779,E,4,12,0.60,15.633,M,17.838,M,1.0,4095*56
$GNGSA,A,3,03,09,19,17,04,06,14,,,,,,1.30,0.60,1.15,1*03
$GNGSA,A,3,77,85,71,87,,,,,,,,,1.30,0.60,1.15,2*07
$GNGSA,A,3,21,08,27,03,13,26,15,,,,,,1.30,0.60,1.15,3*0D
$GNGSA,A,3,04,28,08,01,33,10,27,13,03,07,,,1.30,0.60,1.15,4*00
$GPGSV,3,1,11,02,09,266,31,03,41,049,44,04,20,102,42,06,47,283,44,1*69
$GPGSV,3,2,11,09,17,135,39,11,12,260,39,14,35,190,36,17,77,042,45,1*65
$GPGSV,3,3,11,19,62,330,44,28,,,47,50,47,179,38,1*63
$GPGSV,2,1,07,01,14,065,18,03,41,049,40,04,20,102,38,06,47,283,43,6*63
$GPGSV,2,2,07,09,17,135,32,14,35,190,42,17,77,042,37,6*54
$GPGSV,1,1,01,12,06,325,,0*55
$GLGSV,2,1,07,70,36,051,25,71,46,121,43,72,16,168,34,76,30,245,40,1*73
$GLGSV,2,2,07,77,27,302,34,85,30,069,44,87,19,298,44,1*49
$GLGSV,1,1,04,71,46,121,39,76,30,245,37,77,27,302,31,85,30,069,38,3*7B
$GLGSV,1,1,02,75,02,198,,86,53,007,,0*74
$GAGSV,3,1,09,01,19,317,24,03,24,074,40,08,24,130,42,13,63,323,46,2*78
$GAGSV,3,2,09,15,40,056,44,18,41,111,45,21,47,268,45,26,20,272,38,2*76
$GAGSV,3,3,09,27,33,198,44,2*4A
$GAGSV,3,1,09,01,19,317,18,03,24,074,36,08,24,130,40,13,63,323,45,7*72
$GAGSV,3,2,09,15,40,056,42,18,41,111,43,21,47,268,44,26,20,272,41,7*7C
$GAGSV,3,3,09,27,33,198,39,7*45
$GAGSV,1,1,02,05,02,030,,07,01,175,,0*77
$GBGSV,3,1,12,01,43,152,41,02,27,236,37,03,44,206,42,04,35,132,40,1*71
$GBGSV,3,2,12,07,70,220,45,08,52,250,41,10,68,259,44,13,42,246,41,1*78
$GBGSV,3,3,12,27,47,310,46,28,63,056,43,33,49,080,42,37,14,222,39,1*72
$GBGSV,2,1,06,03,44,206,42,04,35,132,42,07,70,220,44,08,52,250,43,3*7B
$GBGSV,2,2,06,10,68,259,43,13,42,246,38,3*7B
$GBGSV,1,1,04,05,08,256,,14,30,052,,15,26,183,,30,01,291,,0*7C
$GNRMC,041804.00,A,3726.9297211,N,12639.2518781,E,0.002,,210622,,,R,V*01
$GNVTG,,T,,M,0.002,N,0.004,K,D*3E
$GNGNS,041804.00,3726.9297211,N,12639.2518781,E,RRRR,28,0.60,15.634,17.838,2.0,4095,V*0B
$GNGGA,041804.00,3726.9297211,N,12639.2518781,E,4,12,0.60,15.634,M,17.838,M,2.0,4095*57
$GNGSA,A,3,03,09,19,17,04,06,14,,,,,,1.30,0.60,1.15,1*03
$GNGSA,A,3,77,85,71,87,,,,,,,,,1.30,0.60,1.15,2*07
$GNGSA,A,3,21,08,27,03,13,26,15,,,,,,1.30,0.60,1.15,3*0D
$GNGSA,A,3,04,28,08,01,33,10,27,13,03,07,,,1.30,0.60,1.15,4*00
$GPGSV,3,1,11,02,09,266,30,03,41,049,43,04,20,102,41,06,47,283,43,1*6B
$GPGSV,3,2,11,09,17,135,38,11,12,260,39,14,35,190,35,17,77,042,45,1*67
$GPGSV,3,3,11,19,62,330,43,28,,,46,50,47,179,38,1*65
$GPGSV,2,1,07,01,14,065,18,03,41,049,40,04,20,102,38,06,47,283,42,6*62
$GPGSV,2,2,07,09,17,135,32,14,35,190,41,17,77,042,36,6*56
$GPGSV,1,1,01,12,06,325,,0*55
$GLGSV,2,1,07,70,36,051,25,71,46,121,43,72,16,168,35,76,30,245,40,1*72
$GLGSV,2,2,07,77,27,302,34,85,30,069,44,87,19,298,44,1*49
$GLGSV,1,1,04,71,46,121,39,76,30,245,37,77,27,302,31,85,30,069,38,3*7B
$GLGSV,1,1,02,75,02,198,,86,53,007,,0*74
$GAGSV,3,1,09,01,19,317,23,03,24,074,40,08,24,130,42,13,63,323,46,2*7F
$GAGSV,3,2,09,15,40,056,44,18,41,111,45,21,47,268,45,26,20,272,38,2*76
$GAGSV,3,3,09,27,33,198,44,2*4A
$GAGSV,3,1,09,01,19,317,16,03,24,074,35,08,24,130,40,13,63,323,45,7*7F
$GAGSV,3,2,09,15,40,056,42,18,41,111,43,21,47,268,44,26,20,272,41,7*7C
$GAGSV,3,3,09,27,33,198,39,7*45
$GAGSV,1,1,02,05,02,030,,07,01,175,,0*77
$GBGSV,3,1,12,01,43,152,40,02,27,236,37,03,44,206,42,04,35,132,40,1*70
$GBGSV,3,2,12,07,70,220,45,08,52,250,41,10,68,259,44,13,42,246,41,1*78
$GBGSV,3,3,12,27,47,310,46,28,63,056,44,33,49,080,42,37,14,222,39,1*75
$GBGSV,2,1,06,03,44,206,42,04,35,132,42,07,70,220,44,08,52,250,43,3*7B
$GBGSV,2,2,06,10,68,259,43,13,42,246,38,3*7B
$GNRMC,041805.00,A,3726.9297212,N,12639.2518773,E,0.007,,210622,,,R,V*0B
$GNVTG,,T,,M,0.007,N,0.012,K,D*3C
$GNGNS,041805.00,3726.9297212,N,12639.2518773,E,RRRR,28,0.60,15.635,17.838,2.0,4095,V*05
$GNGGA,041805.00,3726.9297212,N,12639.2518773,E,4,12,0.60,15.635,M,17.838,M,2.0,4095*59
$GNGSA,A,3,03,09,19,17,04,06,14,,,,,,1.30,0.60,1.15,1*03
$GNGSA,A,3,77,85,71,87,,,,,,,,,1.30,0.60,1.15,2*07
$GNGSA,A,3,21,08,27,03,13,26,15,,,,,,1.30,0.60,1.15,3*0D
$GNGSA,A,3,04,28,08,01,33,10,27,13,03,07,,,1.30,0.60,1.15,4*00
$GPGSV,3,1,11,02,09,266,30,03,41,049,43,04,20,102,41,06,47,283,43,1*6B
$GPGSV,3,2,11,09,17,135,38,11,12,260,38,14,35,190,36,17,77,042,45,1*65
$GPGSV,3,3,11,19,62,330,43,28,,,46,50,47,179,38,1*65
$GPGSV,2,1,07,01,14,065,16,03,41,049,40,04,20,102,38,06,47,283,42,6*6C
$GPGSV,2,2,07,09,17,135,32,14,35,190,41,17,77,042,36,6*56
$GPGSV,1,1,01,12,06,325,,0*55
$GLGSV,2,1,07,70,36,051,26,71,46,121,43,72,16,168,36,76,30,245,41,1*73
$GLGSV,2,2,07,77,27,302,34,85,30,069,44,87,19,298,44,1*49
$GLGSV,1,1,04,71,46,121,39,76,30,245,37,77,27,302,31,85,30,069,38,3*7B
$GLGSV,1,1,02,75,02,198,,86,53,007,,0*74
$GAGSV,3,1,09,01,19,317,23,03,24,074,40,08,24,130,42,13,63,323,46,2*7F
$GAGSV,3,2,09,15,40,056,44,18,41,111,45,21,47,268,45,26,20,272,38,2*76
$GAGSV,3,3,09,27,33,198,44,2*4A
$GAGSV,3,1,09,01,19,317,16,03,24,074,35,08,24,130,40,13,63,323,45,7*7F
$GAGSV,3,2,09,15,40,056,42,18,41,111,43,21,47,268,44,26,20,272,41,7*7C
$GAGSV,3,3,09,27,33,198,39,7*45
$GAGSV,1,1,02,05,02,030,,07,01,175,,0*77
$GBGSV,3,1,12,01,43,152,40,02,27,236,36,03,44,206,42,04,35,132,40,1*71
$GBGSV,3,2,12,07,70,220,45,08,52,250,41,10,68,259,44,13,42,246,41,1*78
$GBGSV,3,3,12,27,47,310,46,28,63,056,44,33,49,080,42,37,14,222,39,1*75
$GBGSV,2,1,06,03,44,206,42,04,35,132,42,07,70,220,44,08,52,250,43,3*7B
$GBGSV,2,2,06,10,68,259,43,13,42,246,38,3*7B
$GBGSV,1,1,04,05,08,256,,14,30,052,,15,26,183,,30,01,291,,0*7C
$GNRMC,041806.00,A,3726.9297216,N,12639.2518779,E,0.003,,210622,,,R,V*02
$GNVTG,,T,,M,0.003,N,0.006,K,D*3D
$GNGNS,041806.00,3726.9297216,N,12639.2518779,E,RRRR,28,0.60,15.633,17.838,2.0,4095,V*0E
$GNGGA,041806.00,3726.9297216,N,12639.2518779,E,4,12,0.60,15.633,M,17.838,M,2.0,4095*52
$GNGSA,A,3,03,09,19,17,04,06,14,,,,,,1.30,0.60,1.15,1*03
$GNGSA,A,3,77,85,71,87,,,,,,,,,1.30,0.60,1.15,2*07
$GNGSA,A,3,21,08,27,03,13,26,15,,,,,,1.30,0.60,1.15,3*0D
$GNGSA,A,3,04,28,08,01,33,10,27,13,03,07,,,1.30,0.60,1.15,4*00
$GPGSV,3,1,11,02,09,266,29,03,41,049,43,04,20,102,41,06,47,283,43,1*63
$GPGSV,3,2,11,09,17,135,38,11,12,260,38,14,35,190,36,17,77,042,45,1*65
$GPGSV,3,3,11,19,62,330,44,28,,,46,50,47,179,38,1*62
$GPGSV,2,1,07,01,14,065,16,03,41,049,40,04,20,102,38,06,47,283,42,6*6C
$GPGSV,2,2,07,09,17,135,32,14,35,190,41,17,77,042,36,6*56
$GPGSV,1,1,01,12,06,325,,0*55
$GLGSV,2,1,07,70,36,051,25,71,46,121,43,72,16,168,36,76,30,245,42,1*73
$GLGSV,2,2,07,77,27,302,34,85,30,069,44,87,19,298,44,1*49
$GLGSV,1,1,04,71,46,121,39,76,30,245,37,77,27,302,31,85,30,069,38,3*7B
$GLGSV,1,1,02,75,02,198,,86,53,007,,0*74
$GAGSV,3,1,09,01,19,317,23,03,24,074,40,08,24,130,42,13,63,323,46,2*7F
$GAGSV,3,2,09,15,40,056,44,18,41,111,45,21,47,268,45,26,20,272,38,2*76
$GAGSV,3,3,09,27,33,198,44,2*4A
$GAGSV,3,1,09,01,19,317,17,03,24,074,36,08,24,130,40,13,63,323,45,7*7D
$GAGSV,3,2,09,15,40,056,42,18,41,111,43,21,47,268,44,26,20,272,42,7*7F
$GAGSV,3,3,09,27,33,198,39,7*45
$GAGSV,1,1,02,05,02,030,,07,01,175,,0*77
$GBGSV,3,1,12,01,43,152,40,02,27,236,36,03,44,206,42,04,35,132,40,1*71
$GBGSV,3,2,12,07,70,220,45,08,52,250,42,10,68,259,44,13,42,246,41,1*7B
$GBGSV,3,3,12,27,47,310,46,28,63,056,43,33,49,080,42,37,14,222,39,1*72
$GBGSV,2,1,06,03,44,206,42,04,35,132,42,07,70,220,44,08,52,250,43,3*7B
$GBGSV,2,2,06,10,68,259,43,13,42,246,38,3*7B
$GBGSV,1,1,04,05,08,256,,14,30,052,,15,26,183,,30,01,291,,0*7C
$GNRMC,041807.00,A,3726.9297204,N,12639.2518780,E,0.001,,210622,,,R,V*04
$GNVTG,,T,,M,0.001,N,0.002,K,D*3B
$GNGNS,041807.00,3726.9297204,N,12639.2518780,E,RRRR,28,0.60,15.642,17.838,2.0,4095,V*0C
$GNGGA,041807.00,3726.9297204,N,12639.2518780,E,4,12,0.60,15.642,M,17.838,M,2.0,4095*50
$GNGSA,A,3,03,09,19,17,04,06,14,,,,,,1.30,0.60,1.15,1*03
$GNGSA,A,3,77,85,71,87,,,,,,,,,1.30,0.60,1.15,2*07
$GNGSA,A,3,21,08,27,03,13,26,15,,,,,,1.30,0.60,1.15,3*0D
$GNGSA,A,3,04,28,08,01,33,10,27,13,03,07,,,1.30,0.60,1.15,4*00
$GPGSV,3,1,11,02,09,266,29,03,41,049,43,04,20,102,41,06,47,283,44,1*64
$GPGSV,3,2,11,09,17,135,38,11,12,260,38,14,35,190,36,17,77,042,45,1*65
$GPGSV,3,3,11,19,62,330,44,28,,,46,50,47,179,38,1*62
$GPGSV,2,1,07,01,14,065,15,03,41,049,40,04,20,102,38,06,47,283,42,6*6F
$GPGSV,2,2,07,09,17,135,32,14,35,190,41,17,77,042,36,6*56
$GPGSV,1,1,01,12,06,325,,0*55
$GLGSV,2,1,07,70,36,051,25,71,46,121,43,72,16,168,37,76,30,245,42,1*72
$GLGSV,2,2,07,77,27,302,34,85,30,069,44,87,19,298,44,1*49
$GLGSV,1,1,04,71,46,121,38,76,30,245,36,77,27,302,31,85,30,069,38,3*7B
$GLGSV,1,1,02,75,02,198,,86,53,007,,0*74
$GAGSV,3,1,09,01,19,317,22,03,24,074,40,08,24,130,42,13,63,323,46,2*7E
$GAGSV,3,2,09,15,40,056,44,18,41,111,45,21,47,268,45,26,20,272,38,2*76
$GAGSV,3,3,09,27,33,198,44,2*4A
