$GPGSA,A,3,01,02,03,04,05,06,07,08,09,10,11,12,3.2,3.0,0.8*3b
$GPGSV,3,1,12,01,45,045,50,02,45,045,50,03,45,045,50,04,45,045,50*7c
$GPGSV,3,2,12,05,45,045,50,06,45,045,50,07,45,045,50,08,45,045,50*77
$GPGSV,3,3,12,09,45,045,50,10,45,045,50,11,45,045,50,12,45,045,50*71
$GPRMC,042645.99,A,3726.9305,N,12639.2534,E,0.0,91.1,210622,0.0,E,A*08
$GPVTG,91.1,T,0.0,M,0.0,N,0.0,K*77
$GPGGA,042645.99,3726.9305,N,12639.2534,E,12,12,3.0,10.1,M,0.0,M,0.0,0000*71
$GPGSA,A,3,01,02,03,04,05,06,07,08,09,10,11,12,3.1,3.0,0.6*36
$GPGSV,3,1,12,01,45,045,50,02,45,045,50,03,45,045,50,04,45,045,50*7c
$GPGSV,3,2,12,05,45,045,50,06,45,045,50,07,45,045,50,08,45,045,50*77
$GPGSV,3,3,12,09,45,045,50,10,45,045,50,11,45,045,50,12,45,045,50*71
$GPRMC,042646.99,A,3726.9313,N,12639.2530,E,0.0,91.1,210622,0.0,E,A*08
$GPVTG,91.1,T,0.0,M,0.0,N,0.0,K*77
$GPGGA,042646.99,3726.9313,N,12639.2530,E,12,12,3.0,9.2,M,0.0,M,0.0,0000*4a
$GPGSA,A,3,01,02,03,04,05,06,07,08,09,10,11,12,3.0,2.9,0.6*3f
$GPGSV,3,1,12,01,45,045,50,02,45,045,50,03,45,045,50,04,45,045,50*7c
$GPGSV,3,2,12,05,45,045,50,06,45,045,50,07,45,045,50,08,45,045,50*77
$GPGSV,3,3,12,09,45,045,50,10,45,045,50,11,45,045,50,12,45,045,50*71
$GPRMC,042647.99,A,3726.9318,N,12639.2528,E,0.0,91.1,210622,0.0,E,A*0b
$GPVTG,91.1,T,0.0,M,0.0,N,0.0,K*77
$GPGGA,042647.99,3726.9318,N,12639.2528,E,12,12,2.9,9.1,M,0.0,M,0.0,0000*42
$GPGSA,A,3,01,02,03,04,05,06,07,08,09,10,11,12,2.9,2.9,0.6*37
$GPGSV,3,1,12,01,45,045,50,02,45,045,50,03,45,045,50,04,45,045,50*7c
$GPGSV,3,2,12,05,45,045,50,06,45,045,50,07,45,045,50,08,45,045,50*77
$GPGSV,3,3,12,09,45,045,50,10,45,045,50,11,45,045,50,12,45,045,50*71
$GPRMC,042648.99,A,3726.9320,N,12639.2524,E,0.0,91.1,210622,0.0,E,A*03
$GPVTG,91.1,T,0.0,M,0.0,N,0.0,K*77
$GPGGA,042648.99,3726.9320,N,12639.2524,E,12,12,2.9,9.0,M,0.0,M,0.0,0000*4b
$GPGSA,A,3,01,02,03,04,05,06,07,08,09,10,11,12,2.9,2.9,0.6*37
$GPGSV,3,1,12,01,45,045,50,02,45,045,50,03,45,045,50,04,45,045,50*7c
$GPGSV,3,2,12,05,45,045,50,06,45,045,50,07,45,045,50,08,45,045,50*77
$GPGSV,3,3,12,09,45,045,50,10,45,045,50,11,45,045,50,12,45,045,50*71
$GPRMC,042649.99,A,3726.9322,N,12639.2526,E,0.0,91.1,210622,0.0,E,A*02
$GPVTG,91.1,T,0.0,M,0.0,N,0.0,K*77
$GPGGA,042649.99,3726.9322,N,12639.2526,E,12,12,2.9,8.5,M,0.0,M,0.0,0000*4e
$GPGSA,A,3,01,02,03,04,05,06,07,08,09,10,11,12,2.9,2.9,0.6*37
$GPGSV,3,1,12,01,45,045,50,02,45,045,50,03,45,045,50,04,45,045,50*7c
$GPGSV,3,2,12,05,45,045,50,06,45,045,50,07,45,045,50,08,45,045,50*77
$GPGSV,3,3,12,09,45,045,50,10,45,045,50,11,45,045,50,12,45,045,50*71
$GPRMC,042650.99,A,3726.9323,N,12639.2522,E,0.0,91.1,210622,0.0,E,A*0f
$GPVTG,91.1,T,0.0,M,0.0,N,0.0,K*77
$GPGGA,042650.99,3726.9323,N,12639.2522,E,12,12,2.9,8.2,M,0.0,M,0.0,0000*44
$GPGSA,A,3,01,02,03,04,05,06,07,08,09,10,11,12,2.9,2.9,0.6*37
$GPGSV,3,1,12,01,45,045,50,02,45,045,50,03,45,045,50,04,45,045,50*7c
$GPGSV,3,2,12,05,45,045,50,06,45,045,50,07,45,045,50,08,45,045,50*77
$GPGSV,3,3,12,09,45,045,50,10,45,045,50,11,45,045,50,12,45,045,50*71
$GPRMC,042652.00,A,3726.9323,N,12639.2522,E,0.0,91.1,210622,0.0,E,A*0d
$GPVTG,91.1,T,0.0,M,0.0,N,0.0,K*77
$GPGGA,042652.00,3726.9323,N,12639.2522,E,12,12,2.9,8.2,M,0.0,M,0.0,0000*46
$GPGSA,A,3,01,02,03,04,05,06,07,08,09,10,11,12,2.9,2.9,0.6*37
$GPGSV,3,1,12,01,45,045,50,02,45,045,50,03,45,045,50,04,45,045,50*7c
$GPGSV,3,2,12,05,45,045,50,06,45,045,50,07,45,045,50,08,45,045,50*77
$GPGSV,3,3,12,09,45,045,50,10,45,045,50,11,45,045,50,12,45,045,50*71
$GPRMC,042653.00,A,3726.9323,N,12639.2522,E,0.0,91.1,210622,0.0,E,A*0c
$GPVTG,91.1,T,0.0,M,0.0,N,0.0,K*77
$GPGGA,042653.00,3726.9323,N,12639.2522,E,12,12,2.9,8.2,M,0.0,M,0.0,0000*47
$GPGSA,A,3,01,02,03,04,05,06,07,08,09,10,11,12,2.9,2.9,0.6*37
$GPGSV,3,1,12,01,45,045,50,02,45,045,50,03,45,045,50,04,45,045,50*7c
$GPGSV,3,2,12,05,45,045,50,06,45,045,50,07,45,045,50,08,45,045,50*77
$GPGSV,3,3,12,09,45,045,50,10,45,045,50,11,45,045,50,12,45,045,50*71
$GPRMC,042654.00,A,3726.9323,N,12639.2522,E,0.0,91.1,210622,0.0,E,A*0b
$GPVTG,91.1,T,0.0,M,0.0,N,0.0,K*77
$GPGGA,042654.00,3726.9323,N,12639.2522,E,12,12,2.9,8.2,M,0.0,M,0.0,0000*40
$GPGSA,A,3,01,02,03,04,05,06,07,08,09,10,11,12,3.5,3.2,1.3*34
$GPGSV,3,1,12,01,45,045,50,02,45,045,50,03,45,045,50,04,45,045,50*7c
$GPGSV,3,2,12,05,45,045,50,06,45,045,50,07,45,045,50,08,45,045,50*77
$GPGSV,3,3,12,09,45,045,50,10,45,045,50,11,45,045,50,12,45,045,50*71
$GPRMC,042654.99,A,3726.9323,N,12639.2522,E,0.0,90.1,210622,0.0,E,A*0a
$GPVTG,90.1,T,0.0,M,0.0,N,0.0,K*76
$GPGGA,042654.99,3726.9323,N,12639.2522,E,12,12,3.2,8.2,M,0.0,M,0.0,0000*4a
$GPGSA,A,3,01,02,03,04,05,06,07,08,09,10,11,12,3.5,3.2,1.3*34
$GPGSV,3,1,12,01,45,045,50,02,45,045,50,03,45,045,50,04,45,045,50*7c
$GPGSV,3,2,12,05,45,045,50,06,45,045,50,07,45,045,50,08,45,045,50*77
$GPGSV,3,3,12,09,45,045,50,10,45,045,50,11,45,045,50,12,45,045,50*71
$GPRMC,042656.00,A,3726.9323,N,12639.2522,E,0.0,90.1,210622,0.0,E,A*08
$GPVTG,90.1,T,0.0,M,0.0,N,0.0,K*76
$GPGGA,042656.00,3726.9323,N,12639.2522,E,12,12,3.2,8.2,M,0.0,M,0.0,0000*48
$GPGSA,A,3,01,02,03,04,05,06,07,08,09,10,11,12,3.5,3.2,1.3*34
$GPGSV,3,1,12,01,45,045,50,02,45,045,50,03,45,045,50,04,45,045,50*7c
$GPGSV,3,2,12,05,45,045,50,06,45,045,50,07,45,045,50,08,45,045,50*77
$GPGSV,3,3,12,09,45,045,50,10,45,045,50,11,45,045,50,12,45,045,50*71
$GPRMC,042657.00,A,3726.9323,N,12639.2522,E,0.0,90.1,210622,0.0,E,A*09
$GPVTG,90.1,T,0.0,M,0.0,N,0.0,K*76
$GPGGA,042657.00,3726.9323,N,12639.2522,E,12,12,3.2,8.2,M,0.0,M,0.0,0000*49
$GPGSA,A,3,01,02,03,04,05,06,07,08,09,10,11,12,3.5,3.2,1.3*34
$GPGSV,3,1,12,01,45,045,50,02,45,045,50,03,45,045,50,04,45,045,50*7c
$GPGSV,3,2,12,05,45,045,50,06,45,045,50,07,45,045,50,08,45,045,50*77
$GPGSV,3,3,12,09,45,045,50,10,45,045,50,11,45,045,50,12,45,045,50*71
$GPRMC,042658.00,A,3726.9323,N,12639.2522,E,0.0,90.1,210622,0.0,E,A*06
$GPVTG,90.1,T,0.0,M,0.0,N,0.0,K*76
$GPGGA,042658.00,3726.9323,N,12639.2522,E,12,12,3.2,8.2,M,0.0,M,0.0,0000*46
$GPGSA,A,3,01,02,03,04,05,06,07,08,09,10,11,12,3.5,3.2,1.3*34
$GPGSV,3,1,12,01,45,045,50,02,45,045,50,03,45,045,50,04,45,045,50*7c
$GPGSV,3,2,12,05,45,045,50,06,45,045,50,07,45,045,50,08,45,045,50*77
$GPGSV,3,3,12,09,45,045,50,10,45,045,50,11,45,045,50,12,45,045,50*71
$GPRMC,042659.00,A,3726.9323,N,12639.2522,E,0.0,90.1,210622,0.0,E,A*07
$GPVTG,90.1,T,0.0,M,0.0,N,0.0,K*76
$GPGGA,042659.00,3726.9323,N,12639.2522,E,12,12,3.2,8.2,M,0.0,M,0.0,0000*47
$GPGSA,A,3,01,02,03,04,05,06,07,08,09,10,11,12,3.5,3.2,1.3*34
$GPGSV,3,1,12,01,45,045,50,02,45,045,50,03,45,045,50,04,45,045,50*7c
$GPGSV,3,2,12,05,45,045,50,06,45,045,50,07,45,045,50,08,45,045,50*77
$GPGSV,3,3,12,09,45,045,50,10,45,045,50,11,45,045,50,12,45,045,50*71
$GPRMC,042700.00,A,3726.9323,N,12639.2522,E,0.0,90.1,210622,0.0,E,A*0a
$GPVTG,90.1,T,0.0,M,0.0,N,0.0,K*76
$GPGGA,042700.00,3726.9323,N,12639.2522,E,12,12,3.2,8.2,M,0.0,M,0.0,0000*4a
$GPGSA,A,3,01,02,03,04,05,06,07,08,09,10,11,12,3.5,3.2,1.3*34
$GPGSV,3,1,12,01,45,045,50,02,45,045,50,03,45,045,50,04,45,045,50*7c
$GPGSV,3,2,12,05,45,045,50,06,45,045,50,07,45,045,50,08,45,045,50*77
$GPGSV,3,3,12,09,45,045,50,10,45,045,50,11,45,045,50,12,45,045,50*71
$GPRMC,042701.00,A,3726.9323,N,12639.2522,E,0.0,90.1,210622,0.0,E,A*0b
$GPVTG,90.1,T,0.0,M,0.0,N,0.0,K*76
$GPGGA,042701.00,3726.9323,N,12639.2522,E,12,12,3.2,8.2,M,0.0,M,0.0,0000*4b
$GPGSA,A,3,01,02,03,04,05,06,07,08,09,10,11,12,3.5,3.2,1.3*34
$GPGSV,3,1,12,01,45,045,50,02,45,045,50,03,45,045,50,04,45,045,50*7c
$GPGSV,3,2,12,05,45,045,50,06,45,045,50,07,45,045,50,08,45,045,50*77
$GPGSV,3,3,12,09,45,045,50,10,45,045,50,11,45,045,50,12,45,045,50*71
$GPRMC,042702.00,A,3726.9323,N,12639.2522,E,0.0,90.1,210622,0.0,E,A*08
$GPVTG,90.1,T,0.0,M,0.0,N,0.0,K*76
$GPGGA,042702.00,3726.9323,N,12639.2522,E,12,12,3.2,8.2,M,0.0,M,0.0,0000*48
$GPGSA,A,3,01,02,03,04,05,06,07,08,09,10,11,12,3.5,3.2,1.3*34
$GPGSV,3,1,12,01,45,045,50,02,45,045,50,03,45,045,50,04,45,045,50*7c
$GPGSV,3,2,12,05,45,045,50,06,45,045,50,07,45,045,50,08,45,045,50*77
$GPGSV,3,3,12,09,45,045,50,10,45,045,50,11,45,045,50,12,45,045,50*71
$GPRMC,042703.00,A,3726.9323,N,12639.2522,E,0.0,90.1,210622,0.0,E,A*09
$GPVTG,90.1,T,0.0,M,0.0,N,0.0,K*76
$GPGGA,042703.00,3726.9323,N,12639.2522,E,12,12,3.2,8.2,M,0.0,M,0.0,0000*49
$GPGSA,A,3,01,02,03,04,05,06,07,08,09,10,11,12,3.5,3.2,1.3*34
$GPGSV,3,1,12,01,45,045,50,02,45,045,50,03,45,045,50,04,45,045,50*7c
$GPGSV,3,2,12,05,45,045,50,06,45,045,50,07,45,045,50,08,45,045,50*77
$GPGSV,3,3,12,09,45,045,50,10,45,045,50,11,45,045,50,12,45,045,50*71
$GPRMC,042704.00,A,3726.9323,N,12639.2522,E,0.0,90.1,210622,0.0,E,A*0e
$GPVTG,90.1,T,0.0,M,0.0,N,0.0,K*76
$GPGGA,042704.00,3726.9323,N,12639.2522,E,12,12,3.2,8.2,M,0.0,M,0.0,0000*4e
$GPGSA,A,3,01,02,03,04,05,06,07,08,09,10,11,12,3.5,3.2,1.3*34
$GPGSV,3,1,12,01,45,045,50,02,45,045,50,03,45,045,50,04,45,045,50*7c
$GPGSV,3,2,12,05,45,045,50,06,45,045,50,07,45,045,50,08,45,045,50*77
$GPGSV,3,3,12,09,45,045,50,10,45,045,50,11,45,045,50,12,45,045,50*71
$GPRMC,042705.00,A,3726.9323,N,12639.2522,E,0.0,90.1,210622,0.0,E,A*0f
$GPVTG,90.1,T,0.0,M,0.0,N,0.0,K*76
$GPGGA,042705.00,3726.9323,N,12639.2522,E,12,12,3.2,8.2,M,0.0,M,0.0,0000*4f
$GPGSA,A,3,01,02,03,04,05,06,07,08,09,10,11,12,3.5,3.2,1.3*34
$GPGSV,3,1,12,01,45,045,50,02,45,045,50,03,45,045,50,04,45,045,50*7c
$GPGSV,3,2,12,05,45,045,50,06,45,045,50,07,45,045,50,08,45,045,50*77
$GPGSV,3,3,12,09,45,045,50,10,45,045,50,11,45,045,50,12,45,045,50*71
$GPRMC,042706.00,A,3726.9323,N,12639.2522,E,0.0,90.1,210622,0.0,E,A*0c
$GPVTG,90.1,T,0.0,M,0.0,N,0.0,K*76
$GPGGA,042706.00,3726.9323,N,12639.2522,E,12,12,3.2,8.2,M,0.0,M,0.0,0000*4c
$GPGSA,A,3,01,02,03,04,05,06,07,08,09,10,11,12,3.5,3.2,1.3*34
$GPGSV,3,1,12,01,45,045,50,02,45,045,50,03,45,045,50,04,45,045,50*7c
$GPGSV,3,2,12,05,45,045,50,06,45,045,50,07,45,045,50,08,45,045,50*77
$GPGSV,3,3,12,09,45,045,50,10,45,045,50,11,45,045,50,12,45,045,50*71
$GPRMC,042707.00,A,3726.9323,N,12639.2522,E,0.0,90.1,210622,0.0,E,A*0d
$GPVTG,90.1,T,0.0,M,0.0,N,0.0,K*76
$GPGGA,042707.00,3726.9323,N,12639.2522,E,12,12,3.2,8.2,M,0.0,M,0.0,0000*4d
$GPGSA,A,3,01,02,03,04,05,06,07,08,09,10,11,12,3.5,3.2,1.3*34
$GPGSV,3,1,12,01,45,045,50,02,45,045,50,03,45,045,50,04,45,045,50*7c
$GPGSV,3,2,12,05,45,045,50,06,45,045,50,07,45,045,50,08,45,045,50*77
$GPGSV,3,3,12,09,45,045,50,10,45,045,50,11,45,045,50,12,45,045,50*71
$GPRMC,042708.00,A,3726.9323,N,12639.2522,E,0.0,90.1,210622,0.0,E,A*02
$GPVTG,90.1,T,0.0,M,0.0,N,0.0,K*76
$GPGGA,042708.00,3726.9323,N,12639.2522,E,12,12,3.2,8.2,M,0.0,M,0.0,0000*42
$GPGSA,A,3,01,02,03,04,05,06,07,08,09,10,11,12,3.5,3.2,1.3*34
$GPGSV,3,1,12,01,45,045,50,02,45,045,50,03,45,045,50,04,45,045,50*7c
$GPGSV,3,2,12,05,45,045,50,06,45,045,50,07,45,045,50,08,45,045,50*77
$GPGSV,3,3,12,09,45,045,50,10,45,045,50,11,45,045,50,12,45,045,50*71
$GPRMC,042709.00,A,3726.9323,N,12639.2522,E,0.0,90.1,210622,0.0,E,A*03
$GPVTG,90.1,T,0.0,M,0.0,N,0.0,K*76
$GPGGA,042709.00,3726.9323,N,12639.2522,E,12,12,3.2,8.2,M,0.0,M,0.0,0000*43
$GPGSA,A,3,01,02,03,04,05,06,07,08,09,10,11,12,3.5,3.2,1.3*34
$GPGSV,3,1,12,01,45,045,50,02,45,045,50,03,45,045,50,04,45,045,50*7c
$GPGSV,3,2,12,05,45,045,50,06,45,045,50,07,45,045,50,08,45,045,50*77
$GPGSV,3,3,12,09,45,045,50,10,45,045,50,11,45,045,50,12,45,045,50*71
$GPRMC,042710.00,A,3726.9323,N,12639.2522,E,0.0,90.1,210622,0.0,E,A*0b
$GPVTG,90.1,T,0.0,M,0.0,N,0.0,K*76
$GPGGA,042710.00,3726.9323,N,12639.2522,E,12,12,3.2,8.2,M,0.0,M,0.0,0000*4b
$GPGSA,A,3,01,02,03,04,05,06,07,08,09,10,11,12,3.5,3.2,1.3*34
$GPGSV,3,1,12,01,45,045,50,02,45,045,50,03,45,045,50,04,45,045,50*7c
$GPGSV,3,2,12,05,45,045,50,06,45,045,50,07,45,045,50,08,45,045,50*77
$GPGSV,3,3,12,09,45,045,50,10,45,045,50,11,45,045,50,12,45,045,50*71
$GPRMC,042711.00,A,3726.9323,N,12639.2522,E,0.0,90.1,210622,0.0,E,A*0a
$GPVTG,90.1,T,0.0,M,0.0,N,0.0,K*76
$GPGGA,042711.00,3726.9323,N,12639.2522,E,12,12,3.2,8.2,M,0.0,M,0.0,0000*4a
$GPGSA,A,3,01,02,03,04,05,06,07,08,09,10,11,12,3.5,3.2,1.3*34
$GPGSV,3,1,12,01,45,045,50,02,45,045,50,03,45,045,50,04,45,045,50*7c
$GPGSV,3,2,12,05,45,045,50,06,45,045,50,07,45,045,50,08,45,045,50*77
$GPGSV,3,3,12,09,45,045,50,10,45,045,50,11,45,045,50,12,45,045,50*71
$GPRMC,042712.00,A,3726.9323,N,12639.2522,E,0.0,90.1,210622,0.0,E,A*09
$GPVTG,90.1,T,0.0,M,0.0,N,0.0,K*76
$GPGGA,042712.00,3726.9323,N,12639.2522,E,12,12,3.2,8.2,M,0.0,M,0.0,0000*49
$GPGSA,A,3,01,02,03,04,05,06,07,08,09,10,11,12,3.5,3.2,1.3*34
$GPGSV,3,1,12,01,45,045,50,02,45,045,50,03,45,045,50,04,45,045,50*7c
$GPGSV,3,2,12,05,45,045,50,06,45,045,50,07,45,045,50,08,45,045,50*77
$GPGSV,3,3,12,09,45,045,50,10,45,045,50,11,45,045,50,12,45,045,50*71
$GPRMC,042713.00,A,3726.9323,N,12639.2522,E,0.0,90.1,210622,0.0,E,A*08
$GPVTG,90.1,T,0.0,M,0.0,N,0.0,K*76
$GPGGA,042713.00,3726.9323,N,12639.2522,E,12,12,3.2,8.2,M,0.0,M,0.0,0000*48
$GPGSA,A,3,01,02,03,04,05,06,07,08,09,10,11,12,3.5,3.2,1.3*34
$GPGSV,3,1,12,01,45,045,50,02,45,045,50,03,45,045,50,04,45,045,50*7c
$GPGSV,3,2,12,05,45,045,50,06,45,045,50,07,45,045,50,08,45,045,50*77
$GPGSV,3,3,12,09,45,045,50,10,45,045,50,11,45,045,50,12,45,045,50*71
$GPRMC,042714.00,A,3726.9323,N,12639.2522,E,0.0,90.1,210622,0.0,E,A*0f
$GPVTG,90.1,T,0.0,M,0.0,N,0.0,K*76
$GPGGA,042714.00,3726.9323,N,12639.2522,E,12,12,3.2,8.2,M,0.0,M,0.0,0000*4f
$GPGSA,A,3,01,02,03,04,05,06,07,08,09,10,11,12,3.5,2.9,2.0*3e
$GPGSV,3,1,12,01,45,045,50,02,45,045,50,03,45,045,50,04,45,045,50*7c
$GPGSV,3,2,12,05,45,045,50,06,45,045,50,07,45,045,50,08,45,045,50*77
$GPGSV,3,3,12,09,45,045,50,10,45,045,50,11,45,045,50,12,45,045,50*71
$GPRMC,042715.00,A,3726.9308,N,12639.2487,E,0.0,-1.0,210622,0.0,E,A*1d
$GPVTG,-1.0,T,0.0,M,0.0,N,0.1,K*63
$GPGGA,042715.00,3726.9308,N,12639.2487,E,12,12,2.9,14.2,M,0.0,M,0.0,0000*7e
$GPGSA,A,3,01,02,03,04,05,06,07,08,09,10,11,12,3.5,2.9,2.0*3e
$GPGSV,3,1,12,01,45,045,50,02,45,045,50,03,45,045,50,04,45,045,50*7c
$GPGSV,3,2,12,05,45,045,50,06,45,045,50,07,45,045,50,08,45,045,50*77
$GPGSV,3,3,12,09,45,045,50,10,45,045,50,11,45,045,50,12,45,045,50*71
$GPRMC,042716.00,A,3726.9310,N,12639.2493,E,0.0,-1.0,210622,0.0,E,A*12
$GPVTG,-1.0,T,0.0,M,0.0,N,0.0,K*62
$GPGGA,042716.00,3726.9310,N,12639.2493,E,12,12,2.9,14.1,M,0.0,M,0.0,0000*72
$GPGSA,A,3,01,02,03,04,05,06,07,08,09,10,11,12,3.5,2.9,2.0*3e
$GPGSV,3,1,12,01,45,045,50,02,45,045,50,03,45,045,50,04,45,045,50*7c
$GPGSV,3,2,12,05,45,045,50,06,45,045,50,07,45,045,50,08,45,045,50*77
$GPGSV,3,3,12,09,45,045,50,10,45,045,50,11,45,045,50,12,45,045,50*71
$GPRMC,042717.00,A,3726.9310,N,12639.2497,E,0.0,-1.0,210622,0.0,E,A*17
$GPVTG,-1.0,T,0.0,M,0.0,N,0.0,K*62
$GPGGA,042717.00,3726.9310,N,12639.2497,E,12,12,2.9,14.1,M,0.0,M,0.0,0000*77
$GPGSA,A,3,01,02,03,04,05,06,07,08,09,10,11,12,3.5,2.9,2.0*3e
$GPGSV,3,1,12,01,45,045,50,02,45,045,50,03,45,045,50,04,45,045,50*7c
$GPGSV,3,2,12,05,45,045,50,06,45,045,50,07,45,045,50,08,45,045,50*77
$GPGSV,3,3,12,09,45,045,50,10,45,045,50,11,45,045,50,12,45,045,50*71
$GPRMC,042718.00,A,3726.9313,N,12639.2495,E,0.0,-1.0,210622,0.0,E,A*19
$GPVTG,-1.0,T,0.0,M,0.0,N,0.0,K*62
$GPGGA,042718.00,3726.9313,N,12639.2495,E,12,12,2.9,14.1,M,0.0,M,0.0,0000*79
$GPGSA,A,3,01,02,03,04,05,06,07,08,09,10,11,12,3.5,2.9,2.0*3e
$GPGSV,3,1,12,01,45,045,50,02,45,045,50,03,45,045,50,04,45,045,50*7c
$GPGSV,3,2,12,05,45,045,50,06,45,045,50,07,45,045,50,08,45,045,50*77
$GPGSV,3,3,12,09,45,045,50,10,45,045,50,11,45,045,50,12,45,045,50*71
$GPRMC,042719.00,A,3726.9316,N,12639.2496,E,0.0,-1.0,210622,0.0,E,A*1e
$GPVTG,-1.0,T,0.0,M,0.0,N,0.0,K*62
$GPGGA,042719.00,3726.9316,N,12639.2496,E,12,12,2.9,14.0,M,0.0,M,0.0,0000*7f
