$GPGSA,A,3,01,02,03,04,05,06,07,08,09,10,11,12,3.0,2.9,0.8*31
$GPGSV,3,1,12,01,45,045,50,02,45,045,50,03,45,045,50,04,45,045,50*7c
$GPGSV,3,2,12,05,45,045,50,06,45,045,50,07,45,045,50,08,45,045,50*77
$GPGSV,3,3,12,09,45,045,50,10,45,045,50,11,45,045,50,12,45,045,50*71
$GPRMC,043623.00,A,3726.9390,N,12639.2340,E,0.0,307.3,210622,0.0,E,A*3e
$GPVTG,307.3,T,0.0,M,0.0,N,0.0,K*49
$GPGGA,043623.00,3726.9390,N,12639.2340,E,12,12,2.9,-3.4,M,0.0,M,0.0,0000*6b
$GPGSA,A,3,01,02,03,04,05,06,07,08,09,10,11,12,3.0,2.9,0.8*31
$GPGSV,3,1,12,01,45,045,50,02,45,045,50,03,45,045,50,04,45,045,50*7c
$GPGSV,3,2,12,05,45,045,50,06,45,045,50,07,45,045,50,08,45,045,50*77
$GPGSV,3,3,12,09,45,045,50,10,45,045,50,11,45,045,50,12,45,045,50*71
$GPRMC,043624.00,A,3726.9387,N,12639.2338,E,0.0,307.3,210622,0.0,E,A*30
$GPVTG,307.3,T,0.0,M,0.0,N,0.0,K*49
$GPGGA,043624.00,3726.9387,N,12639.2338,E,12,12,2.9,-4.9,M,0.0,M,0.0,0000*6f
$GPGSA,A,3,01,02,03,04,05,06,07,08,09,10,11,12,3.0,2.9,0.8*31
$GPGSV,3,1,12,01,45,045,50,02,45,045,50,03,45,045,50,04,45,045,50*7c
$GPGSV,3,2,12,05,45,045,50,06,45,045,50,07,45,045,50,08,45,045,50*77
$GPGSV,3,3,12,09,45,045,50,10,45,045,50,11,45,045,50,12,45,045,50*71
$GPRMC,043625.00,A,3726.9385,N,12639.2337,E,0.0,307.3,210622,0.0,E,A*3c
$GPVTG,307.3,T,0.0,M,0.0,N,0.0,K*49
$GPGGA,043625.00,3726.9385,N,12639.2337,E,12,12,2.9,-5.5,M,0.0,M,0.0,0000*6e
$GPGSA,A,3,01,02,03,04,05,06,07,08,09,10,11,12,3.5,3.2,1.4*33
$GPGSV,3,1,12,01,45,045,50,02,45,045,50,03,45,045,50,04,45,045,50*7c
$GPGSV,3,2,12,05,45,045,50,06,45,045,50,07,45,045,50,08,45,045,50*77
$GPGSV,3,3,12,09,45,045,50,10,45,045,50,11,45,045,50,12,45,045,50*71
$GPRMC,043626.00,A,3726.9385,N,12639.2337,E,0.0,307.3,210622,0.0,E,A*3f
$GPVTG,307.3,T,0.0,M,0.0,N,0.0,K*49
$GPGGA,043626.00,3726.9385,N,12639.2337,E,12,12,3.2,-5.5,M,0.0,M,0.0,0000*67
$GPGSA,A,3,01,02,03,04,05,06,07,08,09,10,11,12,3.5,3.2,1.4*33
$GPGSV,3,1,12,01,45,045,50,02,45,045,50,03,45,045,50,04,45,045,50*7c
$GPGSV,3,2,12,05,45,045,50,06,45,045,50,07,45,045,50,08,45,045,50*77
$GPGSV,3,3,12,09,45,045,50,10,45,045,50,11,45,045,50,12,45,045,50*71
$GPRMC,043627.00,A,3726.9385,N,12639.2337,E,0.0,307.3,210622,0.0,E,A*3e
$GPVTG,307.3,T,0.0,M,0.0,N,0.0,K*49
$GPGGA,043627.00,3726.9385,N,12639.2337,E,12,12,3.2,-5.5,M,0.0,M,0.0,0000*66
$GPGSA,A,3,01,02,03,04,05,06,07,08,09,10,11,12,3.5,3.2,1.3*34
$GPGSV,3,1,12,01,45,045,50,02,45,045,50,03,45,045,50,04,45,045,50*7c
$GPGSV,3,2,12,05,45,045,50,06,45,045,50,07,45,045,50,08,45,045,50*77
$GPGSV,3,3,12,09,45,045,50,10,45,045,50,11,45,045,50,12,45,045,50*71
$GPRMC,043628.00,A,3726.9385,N,12639.2337,E,0.0,307.3,210622,0.0,E,A*31
$GPVTG,307.3,T,0.0,M,0.0,N,0.0,K*49
$GPGGA,043628.00,3726.9385,N,12639.2337,E,12,12,3.2,-5.5,M,0.0,M,0.0,0000*69
$GPGSA,A,3,01,02,03,04,05,06,07,08,09,10,11,12,3.5,3.2,1.3*34
$GPGSV,3,1,12,01,45,045,50,02,45,045,50,03,45,045,50,04,45,045,50*7c
$GPGSV,3,2,12,05,45,045,50,06,45,045,50,07,45,045,50,08,45,045,50*77
$GPGSV,3,3,12,09,45,045,50,10,45,045,50,11,45,045,50,12,45,045,50*71
$GPRMC,043629.00,A,3726.9385,N,12639.2337,E,0.0,307.3,210622,0.0,E,A*30
$GPVTG,307.3,T,0.0,M,0.0,N,0.0,K*49
$GPGGA,043629.00,3726.9385,N,12639.2337,E,12,12,3.2,-5.5,M,0.0,M,0.0,0000*68
$GPGSA,A,3,01,02,03,04,05,06,07,08,09,10,11,12,3.5,3.2,1.3*34
$GPGSV,3,1,12,01,45,045,50,02,45,045,50,03,45,045,50,04,45,045,50*7c
$GPGSV,3,2,12,05,45,045,50,06,45,045,50,07,45,045,50,08,45,045,50*77
$GPGSV,3,3,12,09,45,045,50,10,45,045,50,11,45,045,50,12,45,045,50*71
$GPRMC,043630.00,A,3726.9385,N,12639.2337,E,0.0,307.3,210622,0.0,E,A*38
$GPVTG,307.3,T,0.0,M,0.0,N,0.0,K*49
$GPGGA,043630.00,3726.9385,N,12639.2337,E,12,12,3.2,-5.5,M,0.0,M,0.0,0000*60
$GPGSA,A,3,01,02,03,04,05,06,07,08,09,10,11,12,3.5,3.2,1.3*34
$GPGSV,3,1,12,01,45,045,50,02,45,045,50,03,45,045,50,04,45,045,50*7c
$GPGSV,3,2,12,05,45,045,50,06,45,045,50,07,45,045,50,08,45,045,50*77
$GPGSV,3,3,12,09,45,045,50,10,45,045,50,11,45,045,50,12,45,045,50*71
$GPRMC,043631.00,A,3726.9385,N,12639.2337,E,0.0,307.3,210622,0.0,E,A*39
$GPVTG,307.3,T,0.0,M,0.0,N,0.0,K*49
$GPGGA,043631.00,3726.9385,N,12639.2337,E,12,12,3.2,-5.5,M,0.0,M,0.0,0000*61
$GPGSA,A,3,01,02,03,04,05,06,07,08,09,10,11,12,3.5,3.2,1.3*34
$GPGSV,3,1,12,01,45,045,50,02,45,045,50,03,45,045,50,04,45,045,50*7c
$GPGSV,3,2,12,05,45,045,50,06,45,045,50,07,45,045,50,08,45,045,50*77
$GPGSV,3,3,12,09,45,045,50,10,45,045,50,11,45,045,50,12,45,045,50*71
$GPRMC,043632.00,A,3726.9385,N,12639.2337,E,0.0,307.3,210622,0.0,E,A*3a
$GPVTG,307.3,T,0.0,M,0.0,N,0.0,K*49
$GPGGA,043632.00,3726.9385,N,12639.2337,E,12,12,3.2,-5.5,M,0.0,M,0.0,0000*62
$GPGSA,A,3,01,02,03,04,05,06,07,08,09,10,11,12,3.5,3.2,1.3*34
$GPGSV,3,1,12,01,45,045,50,02,45,045,50,03,45,045,50,04,45,045,50*7c
$GPGSV,3,2,12,05,45,045,50,06,45,045,50,07,45,045,50,08,45,045,50*77
$GPGSV,3,3,12,09,45,045,50,10,45,045,50,11,45,045,50,12,45,045,50*71
$GPRMC,043633.00,A,3726.9385,N,12639.2337,E,0.0,307.3,210622,0.0,E,A*3b
$GPVTG,307.3,T,0.0,M,0.0,N,0.0,K*49
$GPGGA,043633.00,3726.9385,N,12639.2337,E,12,12,3.2,-5.5,M,0.0,M,0.0,0000*63
$GPGSA,A,3,01,02,03,04,05,06,07,08,09,10,11,12,3.5,3.2,1.3*34
$GPGSV,3,1,12,01,45,045,50,02,45,045,50,03,45,045,50,04,45,045,50*7c
$GPGSV,3,2,12,05,45,045,50,06,45,045,50,07,45,045,50,08,45,045,50*77
$GPGSV,3,3,12,09,45,045,50,10,45,045,50,11,45,045,50,12,45,045,50*71
$GPRMC,043634.00,A,3726.9385,N,12639.2337,E,0.0,307.3,210622,0.0,E,A*3c
$GPVTG,307.3,T,0.0,M,0.0,N,0.0,K*49
$GPGGA,043634.00,3726.9385,N,12639.2337,E,12,12,3.2,-5.5,M,0.0,M,0.0,0000*64
$GPGSA,A,3,01,02,03,04,05,06,07,08,09,10,11,12,3.5,3.2,1.3*34
$GPGSV,3,1,12,01,45,045,50,02,45,045,50,03,45,045,50,04,45,045,50*7c
$GPGSV,3,2,12,05,45,045,50,06,45,045,50,07,45,045,50,08,45,045,50*77
$GPGSV,3,3,12,09,45,045,50,10,45,045,50,11,45,045,50,12,45,045,50*71
$GPRMC,043635.00,A,3726.9385,N,12639.2337,E,0.0,307.3,210622,0.0,E,A*3d
$GPVTG,307.3,T,0.0,M,0.0,N,0.0,K*49
$GPGGA,043635.00,3726.9385,N,12639.2337,E,12,12,3.2,-5.5,M,0.0,M,0.0,0000*65
$GPGSA,A,3,01,02,03,04,05,06,07,08,09,10,11,12,3.5,3.2,1.3*34
$GPGSV,3,1,12,01,45,045,50,02,45,045,50,03,45,045,50,04,45,045,50*7c
$GPGSV,3,2,12,05,45,045,50,06,45,045,50,07,45,045,50,08,45,045,50*77
$GPGSV,3,3,12,09,45,045,50,10,45,045,50,11,45,045,50,12,45,045,50*71
$GPRMC,043636.00,A,3726.9385,N,12639.2337,E,0.0,307.3,210622,0.0,E,A*3e
$GPVTG,307.3,T,0.0,M,0.0,N,0.0,K*49
$GPGGA,043636.00,3726.9385,N,12639.2337,E,12,12,3.2,-5.5,M,0.0,M,0.0,0000*66
$GPGSA,A,3,01,02,03,04,05,06,07,08,09,10,11,12,3.5,3.2,1.3*34
$GPGSV,3,1,12,01,45,045,50,02,45,045,50,03,45,045,50,04,45,045,50*7c
$GPGSV,3,2,12,05,45,045,50,06,45,045,50,07,45,045,50,08,45,045,50*77
$GPGSV,3,3,12,09,45,045,50,10,45,045,50,11,45,045,50,12,45,045,50*71
$GPRMC,043637.00,A,3726.9385,N,12639.2337,E,0.0,307.3,210622,0.0,E,A*3f
$GPVTG,307.3,T,0.0,M,0.0,N,0.0,K*49
$GPGGA,043637.00,3726.9385,N,12639.2337,E,12,12,3.2,-5.5,M,0.0,M,0.0,0000*67
$GPGSA,A,3,01,02,03,04,05,06,07,08,09,10,11,12,3.5,3.2,1.3*34
$GPGSV,3,1,12,01,45,045,50,02,45,045,50,03,45,045,50,04,45,045,50*7c
$GPGSV,3,2,12,05,45,045,50,06,45,045,50,07,45,045,50,08,45,045,50*77
$GPGSV,3,3,12,09,45,045,50,10,45,045,50,11,45,045,50,12,45,045,50*71
$GPRMC,043638.00,A,3726.9385,N,12639.2337,E,0.0,307.3,210622,0.0,E,A*30
$GPVTG,307.3,T,0.0,M,0.0,N,0.0,K*49
$GPGGA,043638.00,3726.9385,N,12639.2337,E,12,12,3.2,-5.5,M,0.0,M,0.0,0000*68
$GPGSA,A,3,01,02,03,04,05,06,07,08,09,10,11,12,3.5,3.2,1.3*34
$GPGSV,3,1,12,01,45,045,50,02,45,045,50,03,45,045,50,04,45,045,50*7c
$GPGSV,3,2,12,05,45,045,50,06,45,045,50,07,45,045,50,08,45,045,50*77
$GPGSV,3,3,12,09,45,045,50,10,45,045,50,11,45,045,50,12,45,045,50*71
$GPRMC,043639.00,A,3726.9385,N,12639.2337,E,0.0,307.3,210622,0.0,E,A*31
$GPVTG,307.3,T,0.0,M,0.0,N,0.0,K*49
$GPGGA,043639.00,3726.9385,N,12639.2337,E,12,12,3.2,-5.5,M,0.0,M,0.0,0000*69
$GPGSA,A,3,01,02,03,04,05,06,07,08,09,10,11,12,3.5,3.2,1.3*34
$GPGSV,3,1,12,01,45,045,50,02,45,045,50,03,45,045,50,04,45,045,50*7c
$GPGSV,3,2,12,05,45,045,50,06,45,045,50,07,45,045,50,08,45,045,50*77
$GPGSV,3,3,12,09,45,045,50,10,45,045,50,11,45,045,50,12,45,045,50*71
$GPRMC,043640.00,A,3726.9385,N,12639.2337,E,0.0,307.3,210622,0.0,E,A*3f
$GPVTG,307.3,T,0.0,M,0.0,N,0.0,K*49
$GPGGA,043640.00,3726.9385,N,12639.2337,E,12,12,3.2,-5.5,M,0.0,M,0.0,0000*67
$GPGSA,A,3,01,02,03,04,05,06,07,08,09,10,11,12,3.5,3.2,1.3*34
$GPGSV,3,1,12,01,45,045,50,02,45,045,50,03,45,045,50,04,45,045,50*7c
$GPGSV,3,2,12,05,45,045,50,06,45,045,50,07,45,045,50,08,45,045,50*77
$GPGSV,3,3,12,09,45,045,50,10,45,045,50,11,45,045,50,12,45,045,50*71
$GPRMC,043641.00,A,3726.9385,N,12639.2337,E,0.0,307.3,210622,0.0,E,A*3e
$GPVTG,307.3,T,0.0,M,0.0,N,0.0,K*49
$GPGGA,043641.00,3726.9385,N,12639.2337,E,12,12,3.2,-5.5,M,0.0,M,0.0,0000*66
$GPGSA,A,3,01,02,03,04,05,06,07,08,09,10,11,12,3.5,3.2,1.3*34
$GPGSV,3,1,12,01,45,045,50,02,45,045,50,03,45,045,50,04,45,045,50*7c
$GPGSV,3,2,12,05,45,045,50,06,45,045,50,07,45,045,50,08,45,045,50*77
$GPGSV,3,3,12,09,45,045,50,10,45,045,50,11,45,045,50,12,45,045,50*71
$GPRMC,043642.00,A,3726.9385,N,12639.2337,E,0.0,307.3,210622,0.0,E,A*3d
$GPVTG,307.3,T,0.0,M,0.0,N,0.0,K*49
$GPGGA,043642.00,3726.9385,N,12639.2337,E,12,12,3.2,-5.5,M,0.0,M,0.0,0000*65
$GPGSA,A,3,01,02,03,04,05,06,07,08,09,10,11,12,3.5,3.2,1.3*34
$GPGSV,3,1,12,01,45,045,50,02,45,045,50,03,45,045,50,04,45,045,50*7c
$GPGSV,3,2,12,05,45,045,50,06,45,045,50,07,45,045,50,08,45,045,50*77
$GPGSV,3,3,12,09,45,045,50,10,45,045,50,11,45,045,50,12,45,045,50*71
$GPRMC,043643.00,A,3726.9385,N,12639.2337,E,0.0,307.3,210622,0.0,E,A*3c
$GPVTG,307.3,T,0.0,M,0.0,N,0.0,K*49
$GPGGA,043643.00,3726.9385,N,12639.2337,E,12,12,3.2,-5.5,M,0.0,M,0.0,0000*64
$GPGSA,A,3,01,02,03,04,05,06,07,08,09,10,11,12,3.5,3.2,1.3*34
$GPGSV,3,1,12,01,45,045,50,02,45,045,50,03,45,045,50,04,45,045,50*7c
$GPGSV,3,2,12,05,45,045,50,06,45,045,50,07,45,045,50,08,45,045,50*77
$GPGSV,3,3,12,09,45,045,50,10,45,045,50,11,45,045,50,12,45,045,50*71
$GPRMC,043644.00,A,3726.9385,N,12639.2337,E,0.0,307.3,210622,0.0,E,A*3b
$GPVTG,307.3,T,0.0,M,0.0,N,0.0,K*49
$GPGGA,043644.00,3726.9385,N,12639.2337,E,12,12,3.2,-5.5,M,0.0,M,0.0,0000*63
$GPGSA,A,3,01,02,03,04,05,06,07,08,09,10,11,12,3.5,3.2,1.3*34
$GPGSV,3,1,12,01,45,045,50,02,45,045,50,03,45,045,50,04,45,045,50*7c
$GPGSV,3,2,12,05,45,045,50,06,45,045,50,07,45,045,50,08,45,045,50*77
$GPGSV,3,3,12,09,45,045,50,10,45,045,50,11,45,045,50,12,45,045,50*71
$GPRMC,043645.00,A,3726.9385,N,12639.2337,E,0.0,307.3,210622,0.0,E,A*3a
$GPVTG,307.3,T,0.0,M,0.0,N,0.0,K*49
$GPGGA,043645.00,3726.9385,N,12639.2337,E,12,12,3.2,-5.5,M,0.0,M,0.0,0000*62
$GPGSA,A,3,01,02,03,04,05,06,07,08,09,10,11,12,3.5,3.2,1.3*34
$GPGSV,3,1,12,01,45,045,50,02,45,045,50,03,45,045,50,04,45,045,50*7c
$GPGSV,3,2,12,05,45,045,50,06,45,045,50,07,45,045,50,08,45,045,50*77
$GPGSV,3,3,12,09,45,045,50,10,45,045,50,11,45,045,50,12,45,045,50*71
$GPRMC,043646.00,A,3726.9385,N,12639.2337,E,0.0,307.3,210622,0.0,E,A*39
$GPVTG,307.3,T,0.0,M,0.0,N,0.0,K*49
$GPGGA,043646.00,3726.9385,N,12639.2337,E,12,12,3.2,-5.5,M,0.0,M,0.0,0000*61
$GPGSA,A,3,01,02,03,04,05,06,07,08,09,10,11,12,3.5,2.8,2.0*3f
$GPGSV,3,1,12,01,45,045,50,02,45,045,50,03,45,045,50,04,45,045,50*7c
$GPGSV,3,2,12,05,45,045,50,06,45,045,50,07,45,045,50,08,45,045,50*77
$GPGSV,3,3,12,09,45,045,50,10,45,045,50,11,45,045,50,12,45,045,50*71
$GPRMC,043647.00,A,3726.9385,N,12639.2337,E,0.0,307.3,210622,0.0,E,A*38
$GPVTG,307.3,T,0.0,M,0.0,N,0.0,K*49
$GPGGA,043647.00,3726.9385,N,12639.2337,E,12,12,2.8,-5.5,M,0.0,M,0.0,0000*6b
$GPGSA,A,3,01,02,03,04,05,06,07,08,09,10,11,12,3.5,2.8,2.0*3f
$GPGSV,3,1,12,01,45,045,50,02,45,045,50,03,45,045,50,04,45,045,50*7c
$GPGSV,3,2,12,05,45,045,50,06,45,045,50,07,45,045,50,08,45,045,50*77
$GPGSV,3,3,12,09,45,045,50,10,45,045,50,11,45,045,50,12,45,045,50*71
$GPRMC,043648.00,A,3726.9385,N,12639.2337,E,0.0,307.3,210622,0.0,E,A*37
$GPVTG,307.3,T,0.0,M,0.0,N,0.0,K*49
$GPGGA,043648.00,3726.9385,N,12639.2337,E,12,12,2.8,-5.5,M,0.0,M,0.0,0000*64
$GPGSA,A,3,01,02,03,04,05,06,07,08,09,10,11,12,3.0,2.9,0.8*31
$GPGSV,3,1,12,01,45,045,50,02,45,045,50,03,45,045,50,04,45,045,50*7c
$GPGSV,3,2,12,05,45,045,50,06,45,045,50,07,45,045,50,08,45,045,50*77
$GPGSV,3,3,12,09,45,045,50,10,45,045,50,11,45,045,50,12,45,045,50*71
$GPRMC,043649.00,A,3726.9383,N,12639.2336,E,0.0,307.3,210622,0.0,E,A*31
$GPVTG,307.3,T,0.0,M,0.0,N,0.0,K*49
$GPGGA,043649.00,3726.9383,N,12639.2336,E,12,12,2.9,-4.1,M,0.0,M,0.0,0000*66
$GPGSA,A,3,01,02,03,04,05,06,07,08,09,10,11,12,3.5,2.8,2.0*3f
$GPGSV,3,1,12,01,45,045,50,02,45,045,50,03,45,045,50,04,45,045,50*7c
$GPGSV,3,2,12,05,45,045,50,06,45,045,50,07,45,045,50,08,45,045,50*77
$GPGSV,3,3,12,09,45,045,50,10,45,045,50,11,45,045,50,12,45,045,50*71
$GPRMC,043650.00,A,3726.9385,N,12639.2337,E,0.0,307.3,210622,0.0,E,A*3e
$GPVTG,307.3,T,0.0,M,0.0,N,0.0,K*49
$GPGGA,043650.00,3726.9385,N,12639.2337,E,12,12,2.8,-5.5,M,0.0,M,0.0,0000*6d
$GPGSA,A,3,01,02,03,04,05,06,07,08,09,10,11,12,3.5,2.8,2.0*3f
$GPGSV,3,1,12,01,45,045,50,02,45,045,50,03,45,045,50,04,45,045,50*7c
$GPGSV,3,2,12,05,45,045,50,06,45,045,50,07,45,045,50,08,45,045,50*77
$GPGSV,3,3,12,09,45,045,50,10,45,045,50,11,45,045,50,12,45,045,50*71
$GPRMC,043651.00,A,3726.9385,N,12639.2337,E,0.0,307.3,210622,0.0,E,A*3f
$GPVTG,307.3,T,0.0,M,0.0,N,0.0,K*49
$GPGGA,043651.00,3726.9385,N,12639.2337,E,12,12,2.8,-5.5,M,0.0,M,0.0,0000*6c
$GPGSA,A,3,01,02,03,04,05,06,07,08,09,10,11,12,3.5,2.8,2.0*3f
$GPGSV,3,1,12,01,45,045,50,02,45,045,50,03,45,045,50,04,45,045,50*7c
$GPGSV,3,2,12,05,45,045,50,06,45,045,50,07,45,045,50,08,45,045,50*77
$GPGSV,3,3,12,09,45,045,50,10,45,045,50,11,45,045,50,12,45,045,50*71
$GPRMC,043652.00,A,3726.9385,N,12639.2337,E,0.0,307.3,210622,0.0,E,A*3c
$GPVTG,307.3,T,0.0,M,0.0,N,0.0,K*49
$GPGGA,043652.00,3726.9385,N,12639.2337,E,12,12,2.8,-5.5,M,0.0,M,0.0,0000*6f
$GPGSA,A,3,01,02,03,04,05,06,07,08,09,10,11,12,3.5,2.8,2.0*3f
$GPGSV,3,1,12,01,45,045,50,02,45,045,50,03,45,045,50,04,45,045,50*7c
$GPGSV,3,2,12,05,45,045,50,06,45,045,50,07,45,045,50,08,45,045,50*77
$GPGSV,3,3,12,09,45,045,50,10,45,045,50,11,45,045,50,12,45,045,50*71
$GPRMC,043653.00,A,3726.9385,N,12639.2337,E,0.0,307.3,210622,0.0,E,A*3d
$GPVTG,307.3,T,0.0,M,0.0,N,0.0,K*49
$GPGGA,043653.00,3726.9385,N,12639.2337,E,12,12,2.8,-5.5,M,0.0,M,0.0,0000*6e
$GPGSA,A,3,01,02,03,04,05,06,07,08,09,10,11,12,3.5,3.2,1.4*33
$GPGSV,3,1,12,01,45,045,50,02,45,045,50,03,45,045,50,04,45,045,50*7c
$GPGSV,3,2,12,05,45,045,50,06,45,045,50,07,45,045,50,08,45,045,50*77
$GPGSV,3,3,12,09,45,045,50,10,45,045,50,11,45,045,50,12,45,045,50*71
$GPRMC,043654.00,A,3726.9385,N,12639.2337,E,0.0,307.3,210622,0.0,E,A*3a
$GPVTG,307.3,T,0.0,M,0.0,N,0.0,K*49
$GPGGA,043654.00,3726.9385,N,12639.2337,E,12,12,3.2,-5.5,M,0.0,M,0.0,0000*62
