$GPGSA,A,3,01,02,03,04,05,06,07,08,09,10,11,12,3.2,2.9,1.2*38
$GPGSV,3,1,12,01,45,045,50,02,45,045,50,03,45,045,50,04,45,045,50*7c
$GPGSV,3,2,12,05,45,045,50,06,45,045,50,07,45,045,50,08,45,045,50*77
$GPGSV,3,3,12,09,45,045,50,10,45,045,50,11,45,045,50,12,45,045,50*71
$GPRMC,041032.00,A,3726.8746,N,12639.2164,E,0.0,177.5,210622,0.0,E,A*33
$GPVTG,177.5,T,0.0,M,0.0,N,0.0,K*4a
$GPGGA,041032.00,3726.8746,N,12639.2164,E,12,12,2.9,8.7,M,0.0,M,0.0,0000*40
$GPGSA,A,3,01,02,03,04,05,06,07,08,09,10,11,12,3.2,2.9,1.2*38
$GPGSV,3,1,12,01,45,045,50,02,45,045,50,03,45,045,50,04,45,045,50*7c
$GPGSV,3,2,12,05,45,045,50,06,45,045,50,07,45,045,50,08,45,045,50*77
$GPGSV,3,3,12,09,45,045,50,10,45,045,50,11,45,045,50,12,45,045,50*71
$GPRMC,041033.00,A,3726.8746,N,12639.2164,E,0.0,177.5,210622,0.0,E,A*32
$GPVTG,177.5,T,0.0,M,0.0,N,0.0,K*4a
$GPGGA,041033.00,3726.8746,N,12639.2164,E,12,12,2.9,8.7,M,0.0,M,0.0,0000*41
$GPGSA,A,3,01,02,03,04,05,06,07,08,09,10,11,12,3.1,2.9,1.2*3b
$GPGSV,3,1,12,01,45,045,50,02,45,045,50,03,45,045,50,04,45,045,50*7c
$GPGSV,3,2,12,05,45,045,50,06,45,045,50,07,45,045,50,08,45,045,50*77
$GPGSV,3,3,12,09,45,045,50,10,45,045,50,11,45,045,50,12,45,045,50*71
$GPRMC,041034.00,A,3726.8746,N,12639.2164,E,0.0,177.5,210622,0.0,E,A*35
$GPVTG,177.5,T,0.0,M,0.0,N,0.0,K*4a
$GPGGA,041034.00,3726.8746,N,12639.2164,E,12,12,2.9,8.6,M,0.0,M,0.0,0000*47
$GPGSA,A,3,01,02,03,04,05,06,07,08,09,10,11,12,3.0,2.9,0.8*31
$GPGSV,3,1,12,01,45,045,50,02,45,045,50,03,45,045,50,04,45,045,50*7c
$GPGSV,3,2,12,05,45,045,50,06,45,045,50,07,45,045,50,08,45,045,50*77
$GPGSV,3,3,12,09,45,045,50,10,45,045,50,11,45,045,50,12,45,045,50*71
$GPRMC,041035.00,A,3726.8746,N,12639.2164,E,0.0,177.5,210622,0.0,E,A*34
$GPVTG,177.5,T,0.0,M,0.0,N,0.0,K*4a
$GPGGA,041035.00,3726.8746,N,12639.2164,E,12,12,2.9,8.6,M,0.0,M,0.0,0000*46
$GPGSA,A,3,01,02,03,04,05,06,07,08,09,10,11,12,3.0,2.9,0.8*31
$GPGSV,3,1,12,01,45,045,50,02,45,045,50,03,45,045,50,04,45,045,50*7c
$GPGSV,3,2,12,05,45,045,50,06,45,045,50,07,45,045,50,08,45,045,50*77
$GPGSV,3,3,12,09,45,045,50,10,45,045,50,11,45,045,50,12,45,045,50*71
$GPRMC,041036.00,A,3726.8746,N,12639.2163,E,0.0,177.5,210622,0.0,E,A*30
$GPVTG,177.5,T,0.0,M,0.0,N,0.0,K*4a
$GPGGA,041036.00,3726.8746,N,12639.2163,E,12,12,2.9,8.5,M,0.0,M,0.0,0000*41
$GPGSA,A,3,01,02,03,04,05,06,07,08,09,10,11,12,3.2,2.9,1.2*38
$GPGSV,3,1,12,01,45,045,50,02,45,045,50,03,45,045,50,04,45,045,50*7c
$GPGSV,3,2,12,05,45,045,50,06,45,045,50,07,45,045,50,08,45,045,50*77
$GPGSV,3,3,12,09,45,045,50,10,45,045,50,11,45,045,50,12,45,045,50*71
$GPRMC,041037.00,A,3726.8745,N,12639.2162,E,0.0,177.5,210622,0.0,E,A*33
$GPVTG,177.5,T,0.0,M,0.0,N,0.0,K*4a
$GPGGA,041037.00,3726.8745,N,12639.2162,E,12,12,2.9,8.4,M,0.0,M,0.0,0000*43
$GPGSA,A,3,01,02,03,04,05,06,07,08,09,10,11,12,3.2,2.9,1.2*38
$GPGSV,3,1,12,01,45,045,50,02,45,045,50,03,45,045,50,04,45,045,50*7c
$GPGSV,3,2,12,05,45,045,50,06,45,045,50,07,45,045,50,08,45,045,50*77
$GPGSV,3,3,12,09,45,045,50,10,45,045,50,11,45,045,50,12,45,045,50*71
$GPRMC,041038.00,A,3726.8745,N,12639.2162,E,0.0,177.5,210622,0.0,E,A*3c
$GPVTG,177.5,T,0.0,M,0.0,N,0.0,K*4a
$GPGGA,041038.00,3726.8745,N,12639.2162,E,12,12,2.9,8.4,M,0.0,M,0.0,0000*4c
$GPGSA,A,3,01,02,03,04,05,06,07,08,09,10,11,12,3.2,2.9,1.2*38
$GPGSV,3,1,12,01,45,045,50,02,45,045,50,03,45,045,50,04,45,045,50*7c
$GPGSV,3,2,12,05,45,045,50,06,45,045,50,07,45,045,50,08,45,045,50*77
$GPGSV,3,3,12,09,45,045,50,10,45,045,50,11,45,045,50,12,45,045,50*71
$GPRMC,041039.00,A,3726.8745,N,12639.2162,E,0.0,177.5,210622,0.0,E,A*3d
$GPVTG,177.5,T,0.0,M,0.0,N,0.0,K*4a
$GPGGA,041039.00,3726.8745,N,12639.2162,E,12,12,2.9,8.4,M,0.0,M,0.0,0000*4d
$GPGSA,A,3,01,02,03,04,05,06,07,08,09,10,11,12,3.2,2.9,1.2*38
$GPGSV,3,1,12,01,45,045,50,02,45,045,50,03,45,045,50,04,45,045,50*7c
$GPGSV,3,2,12,05,45,045,50,06,45,045,50,07,45,045,50,08,45,045,50*77
$GPGSV,3,3,12,09,45,045,50,10,45,045,50,11,45,045,50,12,45,045,50*71
$GPRMC,041040.00,A,3726.8745,N,12639.2162,E,0.0,177.5,210622,0.0,E,A*33
$GPVTG,177.5,T,0.0,M,0.0,N,0.0,K*4a
$GPGGA,041040.00,3726.8745,N,12639.2162,E,12,12,2.9,8.4,M,0.0,M,0.0,0000*43
$GPGSA,A,3,01,02,03,04,05,06,07,08,09,10,11,12,3.2,2.9,1.2*38
$GPGSV,3,1,12,01,45,045,50,02,45,045,50,03,45,045,50,04,45,045,50*7c
$GPGSV,3,2,12,05,45,045,50,06,45,045,50,07,45,045,50,08,45,045,50*77
$GPGSV,3,3,12,09,45,045,50,10,45,045,50,11,45,045,50,12,45,045,50*71
$GPRMC,041041.00,A,3726.8745,N,12639.2162,E,0.0,177.5,210622,0.0,E,A*32
$GPVTG,177.5,T,0.0,M,0.0,N,0.0,K*4a
$GPGGA,041041.00,3726.8745,N,12639.2162,E,12,12,2.9,8.4,M,0.0,M,0.0,0000*42
$GPGSA,A,3,01,02,03,04,05,06,07,08,09,10,11,12,3.5,3.2,1.5*32
$GPGSV,3,1,12,01,45,045,50,02,45,045,50,03,45,045,50,04,45,045,50*7c
$GPGSV,3,2,12,05,45,045,50,06,45,045,50,07,45,045,50,08,45,045,50*77
$GPGSV,3,3,12,09,45,045,50,10,45,045,50,11,45,045,50,12,45,045,50*71
$GPRMC,041042.00,A,3726.8745,N,12639.2162,E,0.0,177.5,210622,0.0,E,A*31
$GPVTG,177.5,T,0.0,M,0.0,N,0.0,K*4a
$GPGGA,041042.00,3726.8745,N,12639.2162,E,12,12,3.2,8.4,M,0.0,M,0.0,0000*4b
$GPGSA,A,3,01,02,03,04,05,06,07,08,09,10,11,12,3.5,3.2,1.5*32
$GPGSV,3,1,12,01,45,045,50,02,45,045,50,03,45,045,50,04,45,045,50*7c
$GPGSV,3,2,12,05,45,045,50,06,45,045,50,07,45,045,50,08,45,045,50*77
$GPGSV,3,3,12,09,45,045,50,10,45,045,50,11,45,045,50,12,45,045,50*71
$GPRMC,041043.00,A,3726.8745,N,12639.2162,E,0.0,177.5,210622,0.0,E,A*30
$GPVTG,177.5,T,0.0,M,0.0,N,0.0,K*4a
$GPGGA,041043.00,3726.8745,N,12639.2162,E,12,12,3.2,8.4,M,0.0,M,0.0,0000*4a
$GPGSA,A,3,01,02,03,04,05,06,07,08,09,10,11,12,3.5,3.2,1.5*32
$GPGSV,3,1,12,01,45,045,50,02,45,045,50,03,45,045,50,04,45,045,50*7c
$GPGSV,3,2,12,05,45,045,50,06,45,045,50,07,45,045,50,08,45,045,50*77
$GPGSV,3,3,12,09,45,045,50,10,45,045,50,11,45,045,50,12,45,045,50*71
$GPRMC,041044.00,A,3726.8745,N,12639.2162,E,0.0,177.5,210622,0.0,E,A*37
$GPVTG,177.5,T,0.0,M,0.0,N,0.0,K*4a
$GPGGA,041044.00,3726.8745,N,12639.2162,E,12,12,3.2,8.4,M,0.0,M,0.0,0000*4d
$GPGSA,A,3,01,02,03,04,05,06,07,08,09,10,11,12,3.5,3.2,1.5*32
$GPGSV,3,1,12,01,45,045,50,02,45,045,50,03,45,045,50,04,45,045,50*7c
$GPGSV,3,2,12,05,45,045,50,06,45,045,50,07,45,045,50,08,45,045,50*77
$GPGSV,3,3,12,09,45,045,50,10,45,045,50,11,45,045,50,12,45,045,50*71
$GPRMC,041045.00,A,3726.8745,N,12639.2162,E,0.0,177.5,210622,0.0,E,A*36
$GPVTG,177.5,T,0.0,M,0.0,N,0.0,K*4a
$GPGGA,041045.00,3726.8745,N,12639.2162,E,12,12,3.2,8.4,M,0.0,M,0.0,0000*4c
$GPGSA,A,3,01,02,03,04,05,06,07,08,09,10,11,12,3.5,3.2,1.5*32
$GPGSV,3,1,12,01,45,045,50,02,45,045,50,03,45,045,50,04,45,045,50*7c
$GPGSV,3,2,12,05,45,045,50,06,45,045,50,07,45,045,50,08,45,045,50*77
$GPGSV,3,3,12,09,45,045,50,10,45,045,50,11,45,045,50,12,45,045,50*71
$GPRMC,041046.00,A,3726.8745,N,12639.2162,E,0.0,177.5,210622,0.0,E,A*35
$GPVTG,177.5,T,0.0,M,0.0,N,0.0,K*4a
$GPGGA,041046.00,3726.8745,N,12639.2162,E,12,12,3.2,8.4,M,0.0,M,0.0,0000*4f
$GPGSA,A,3,01,02,03,04,05,06,07,08,09,10,11,12,3.5,3.2,1.5*32
$GPGSV,3,1,12,01,45,045,50,02,45,045,50,03,45,045,50,04,45,045,50*7c
$GPGSV,3,2,12,05,45,045,50,06,45,045,50,07,45,045,50,08,45,045,50*77
$GPGSV,3,3,12,09,45,045,50,10,45,045,50,11,45,045,50,12,45,045,50*71
$GPRMC,041047.00,A,3726.8745,N,12639.2162,E,0.0,177.5,210622,0.0,E,A*34
$GPVTG,177.5,T,0.0,M,0.0,N,0.0,K*4a
$GPGGA,041047.00,3726.8745,N,12639.2162,E,12,12,3.2,8.4,M,0.0,M,0.0,0000*4e
$GPGSA,A,3,01,02,03,04,05,06,07,08,09,10,11,12,3.5,3.2,1.5*32
$GPGSV,3,1,12,01,45,045,50,02,45,045,50,03,45,045,50,04,45,045,50*7c
$GPGSV,3,2,12,05,45,045,50,06,45,045,50,07,45,045,50,08,45,045,50*77
$GPGSV,3,3,12,09,45,045,50,10,45,045,50,11,45,045,50,12,45,045,50*71
$GPRMC,041048.00,A,3726.8745,N,12639.2162,E,0.0,177.5,210622,0.0,E,A*3b
$GPVTG,177.5,T,0.0,M,0.0,N,0.0,K*4a
$GPGGA,041048.00,3726.8745,N,12639.2162,E,12,12,3.2,8.4,M,0.0,M,0.0,0000*41
$GPGSA,A,3,01,02,03,04,05,06,07,08,09,10,11,12,3.5,3.2,1.5*32
$GPGSV,3,1,12,01,45,045,50,02,45,045,50,03,45,045,50,04,45,045,50*7c
$GPGSV,3,2,12,05,45,045,50,06,45,045,50,07,45,045,50,08,45,045,50*77
$GPGSV,3,3,12,09,45,045,50,10,45,045,50,11,45,045,50,12,45,045,50*71
$GPRMC,041049.00,A,3726.8745,N,12639.2162,E,0.0,177.5,210622,0.0,E,A*3a
$GPVTG,177.5,T,0.0,M,0.0,N,0.0,K*4a
$GPGGA,041049.00,3726.8745,N,12639.2162,E,12,12,3.2,8.4,M,0.0,M,0.0,0000*40
$GPGSA,A,3,01,02,03,04,05,06,07,08,09,10,11,12,3.5,3.2,1.5*32
$GPGSV,3,1,12,01,45,045,50,02,45,045,50,03,45,045,50,04,45,045,50*7c
$GPGSV,3,2,12,05,45,045,50,06,45,045,50,07,45,045,50,08,45,045,50*77
$GPGSV,3,3,12,09,45,045,50,10,45,045,50,11,45,045,50,12,45,045,50*71
$GPRMC,041050.00,A,3726.8745,N,12639.2162,E,0.0,177.5,210622,0.0,E,A*32
$GPVTG,177.5,T,0.0,M,0.0,N,0.0,K*4a
$GPGGA,041050.00,3726.8745,N,12639.2162,E,12,12,3.2,8.4,M,0.0,M,0.0,0000*48
$GPGSA,A,3,01,02,03,04,05,06,07,08,09,10,11,12,3.5,3.2,1.5*32
$GPGSV,3,1,12,01,45,045,50,02,45,045,50,03,45,045,50,04,45,045,50*7c
$GPGSV,3,2,12,05,45,045,50,06,45,045,50,07,45,045,50,08,45,045,50*77
$GPGSV,3,3,12,09,45,045,50,10,45,045,50,11,45,045,50,12,45,045,50*71
$GPRMC,041051.00,A,3726.8745,N,12639.2162,E,0.0,177.5,210622,0.0,E,A*33
$GPVTG,177.5,T,0.0,M,0.0,N,0.0,K*4a
$GPGGA,041051.00,3726.8745,N,12639.2162,E,12,12,3.2,8.4,M,0.0,M,0.0,0000*49
$GPGSA,A,3,01,02,03,04,05,06,07,08,09,10,11,12,3.5,3.2,1.5*32
$GPGSV,3,1,12,01,45,045,50,02,45,045,50,03,45,045,50,04,45,045,50*7c
$GPGSV,3,2,12,05,45,045,50,06,45,045,50,07,45,045,50,08,45,045,50*77
$GPGSV,3,3,12,09,45,045,50,10,45,045,50,11,45,045,50,12,45,045,50*71
$GPRMC,041052.00,A,3726.8745,N,12639.2162,E,0.0,177.5,210622,0.0,E,A*30
$GPVTG,177.5,T,0.0,M,0.0,N,0.0,K*4a
$GPGGA,041052.00,3726.8745,N,12639.2162,E,12,12,3.2,8.4,M,0.0,M,0.0,0000*4a
$GPGSA,A,3,01,02,03,04,05,06,07,08,09,10,11,12,3.5,3.2,1.5*32
$GPGSV,3,1,12,01,45,045,50,02,45,045,50,03,45,045,50,04,45,045,50*7c
$GPGSV,3,2,12,05,45,045,50,06,45,045,50,07,45,045,50,08,45,045,50*77
$GPGSV,3,3,12,09,45,045,50,10,45,045,50,11,45,045,50,12,45,045,50*71
$GPRMC,041053.00,A,3726.8745,N,12639.2162,E,0.0,177.5,210622,0.0,E,A*31
$GPVTG,177.5,T,0.0,M,0.0,N,0.0,K*4a
$GPGGA,041053.00,3726.8745,N,12639.2162,E,12,12,3.2,8.4,M,0.0,M,0.0,0000*4b
$GPGSA,A,3,01,02,03,04,05,06,07,08,09,10,11,12,3.5,3.2,1.5*32
$GPGSV,3,1,12,01,45,045,50,02,45,045,50,03,45,045,50,04,45,045,50*7c
$GPGSV,3,2,12,05,45,045,50,06,45,045,50,07,45,045,50,08,45,045,50*77
$GPGSV,3,3,12,09,45,045,50,10,45,045,50,11,45,045,50,12,45,045,50*71
$GPRMC,041054.00,A,3726.8745,N,12639.2162,E,0.0,177.5,210622,0.0,E,A*36
$GPVTG,177.5,T,0.0,M,0.0,N,0.0,K*4a
$GPGGA,041054.00,3726.8745,N,12639.2162,E,12,12,3.2,8.4,M,0.0,M,0.0,0000*4c
$GPGSA,A,3,01,02,03,04,05,06,07,08,09,10,11,12,3.5,3.1,1.5*31
$GPGSV,3,1,12,01,45,045,50,02,45,045,50,03,45,045,50,04,45,045,50*7c
$GPGSV,3,2,12,05,45,045,50,06,45,045,50,07,45,045,50,08,45,045,50*77
$GPGSV,3,3,12,09,45,045,50,10,45,045,50,11,45,045,50,12,45,045,50*71
$GPRMC,041055.00,A,3726.8745,N,12639.2162,E,0.0,177.5,210622,0.0,E,A*37
$GPVTG,177.5,T,0.0,M,0.0,N,0.0,K*4a
$GPGGA,041055.00,3726.8745,N,12639.2162,E,12,12,3.1,8.4,M,0.0,M,0.0,0000*4e
$GPGSA,A,3,01,02,03,04,05,06,07,08,09,10,11,12,3.5,3.2,1.3*34
$GPGSV,3,1,12,01,45,045,50,02,45,045,50,03,45,045,50,04,45,045,50*7c
$GPGSV,3,2,12,05,45,045,50,06,45,045,50,07,45,045,50,08,45,045,50*77
$GPGSV,3,3,12,09,45,045,50,10,45,045,50,11,45,045,50,12,45,045,50*71
$GPRMC,041056.00,A,3726.8745,N,12639.2162,E,0.0,177.5,210622,0.0,E,A*34
$GPVTG,177.5,T,0.0,M,0.0,N,0.0,K*4a
$GPGGA,041056.00,3726.8745,N,12639.2162,E,12,12,3.2,8.4,M,0.0,M,0.0,0000*4e
$GPGSA,A,3,01,02,03,04,05,06,07,08,09,10,11,12,3.5,3.2,1.3*34
$GPGSV,3,1,12,01,45,045,50,02,45,045,50,03,45,045,50,04,45,045,50*7c
$GPGSV,3,2,12,05,45,045,50,06,45,045,50,07,45,045,50,08,45,045,50*77
$GPGSV,3,3,12,09,45,045,50,10,45,045,50,11,45,045,50,12,45,045,50*71
$GPRMC,041057.00,A,3726.8745,N,12639.2162,E,0.0,177.5,210622,0.0,E,A*35
$GPVTG,177.5,T,0.0,M,0.0,N,0.0,K*4a
$GPGGA,041057.00,3726.8745,N,12639.2162,E,12,12,3.2,8.4,M,0.0,M,0.0,0000*4f
$GPGSA,A,3,01,02,03,04,05,06,07,08,09,10,11,12,3.5,3.2,1.3*34
$GPGSV,3,1,12,01,45,045,50,02,45,045,50,03,45,045,50,04,45,045,50*7c
$GPGSV,3,2,12,05,45,045,50,06,45,045,50,07,45,045,50,08,45,045,50*77
$GPGSV,3,3,12,09,45,045,50,10,45,045,50,11,45,045,50,12,45,045,50*71
$GPRMC,041058.00,A,3726.8745,N,12639.2162,E,0.0,177.5,210622,0.0,E,A*3a
$GPVTG,177.5,T,0.0,M,0.0,N,0.0,K*4a
$GPGGA,041058.00,3726.8745,N,12639.2162,E,12,12,3.2,8.4,M,0.0,M,0.0,0000*40
$GPGSA,A,3,01,02,03,04,05,06,07,08,09,10,11,12,3.5,3.2,1.3*34
$GPGSV,3,1,12,01,45,045,50,02,45,045,50,03,45,045,50,04,45,045,50*7c
$GPGSV,3,2,12,05,45,045,50,06,45,045,50,07,45,045,50,08,45,045,50*77
$GPGSV,3,3,12,09,45,045,50,10,45,045,50,11,45,045,50,12,45,045,50*71
$GPRMC,041059.00,A,3726.8745,N,12639.2162,E,0.0,177.5,210622,0.0,E,A*3b
$GPVTG,177.5,T,0.0,M,0.0,N,0.0,K*4a
$GPGGA,041059.00,3726.8745,N,12639.2162,E,12,12,3.2,8.4,M,0.0,M,0.0,0000*41
$GPGSA,A,3,01,02,03,04,05,06,07,08,09,10,11,12,3.5,3.2,1.3*34
$GPGSV,3,1,12,01,45,045,50,02,45,045,50,03,45,045,50,04,45,045,50*7c
$GPGSV,3,2,12,05,45,045,50,06,45,045,50,07,45,045,50,08,45,045,50*77
$GPGSV,3,3,12,09,45,045,50,10,45,045,50,11,45,045,50,12,45,045,50*71
$GPRMC,041100.00,A,3726.8745,N,12639.2162,E,0.0,177.5,210622,0.0,E,A*36
$GPVTG,177.5,T,0.0,M,0.0,N,0.0,K*4a
$GPGGA,041100.00,3726.8745,N,12639.2162,E,12,12,3.2,8.4,M,0.0,M,0.0,0000*4c
$GPGSA,A,3,01,02,03,04,05,06,07,08,09,10,11,12,3.5,3.2,1.3*34
$GPGSV,3,1,12,01,45,045,50,02,45,045,50,03,45,045,50,04,45,045,50*7c
$GPGSV,3,2,12,05,45,045,50,06,45,045,50,07,45,045,50,08,45,045,50*77
$GPGSV,3,3,12,09,45,045,50,10,45,045,50,11,45,045,50,12,45,045,50*71
$GPRMC,041101.00,A,3726.8745,N,12639.2162,E,0.0,177.5,210622,0.0,E,A*37
$GPVTG,177.5,T,0.0,M,0.0,N,0.0,K*4a
$GPGGA,041101.00,3726.8745,N,12639.2162,E,12,12,3.2,8.4,M,0.0,M,0.0,0000*4d
$GPGSA,A,3,01,02,03,04,05,06,07,08,09,10,11,12,3.5,2.9,2.0*3e
$GPGSV,3,1,12,01,45,045,50,02,45,045,50,03,45,045,50,04,45,045,50*7c
$GPGSV,3,2,12,05,45,045,50,06,45,045,50,07,45,045,50,08,45,045,50*77
$GPGSV,3,3,12,09,45,045,50,10,45,045,50,11,45,045,50,12,45,045,50*71
$GPRMC,041102.00,A,3726.8745,N,12639.2131,E,0.1,-1.0,210622,0.0,E,A*1b
$GPVTG,-1.0,T,0.0,M,0.1,N,0.1,K*62
$GPGGA,041102.00,3726.8745,N,12639.2131,E,12,12,2.9,7.0,M,0.0,M,0.0,0000*49
$GPGSA,A,3,01,02,03,04,05,06,07,08,09,10,11,12,3.5,2.9,2.0*3e
$GPGSV,3,1,12,01,45,045,50,02,45,045,50,03,45,045,50,04,45,045,50*7c
$GPGSV,3,2,12,05,45,045,50,06,45,045,50,07,45,045,50,08,45,045,50*77
$GPGSV,3,3,12,09,45,045,50,10,45,045,50,11,45,045,50,12,45,045,50*71
$GPRMC,041103.00,A,3726.8746,N,12639.2133,E,0.0,-1.0,210622,0.0,E,A*1a
$GPVTG,-1.0,T,0.0,M,0.0,N,0.0,K*62
$GPGGA,041103.00,3726.8746,N,12639.2133,E,12,12,2.9,7.1,M,0.0,M,0.0,0000*48
