$GNRMC,042436.00,A,3727.0689753,N,12639.3444822,E,0.015,,220622,,,R,V*05
$GNVTG,,T,,M,0.015,N,0.028,K,D*36
$GNGNS,042436.00,3727.0689753,N,12639.3444822,E,RRRR,27,0.70,26.834,17.840,,4095,V*29
$GNGGA,042436.00,3727.0689753,N,12639.3444822,E,4,12,0.70,26.834,M,17.840,M,,4095*7A
$GNGSA,A,3,17,03,09,19,06,01,04,,,,,,1.44,0.70,1.26,1*05
$GNGSA,A,3,65,78,88,72,71,87,77,,,,,,1.44,0.70,1.26,2*01
$GNGSA,A,3,34,09,30,02,36,05,,,,,,,1.44,0.70,1.26,3*0F
$GNGSA,A,3,04,28,07,34,11,14,10,08,,,,,1.44,0.70,1.26,4*05
$GPGSV,2,1,07,01,11,068,21,03,37,047,44,04,22,097,43,06,50,289,43,1*62
$GPGSV,2,2,07,09,20,132,36,17,77,064,41,19,67,335,44,1*50
$GPGSV,1,1,01,14,31,188,15,5*53
$GPGSV,2,1,06,01,11,068,31,03,37,047,41,04,22,097,32,06,50,289,35,6*67
$GPGSV,2,2,06,09,20,132,30,17,77,064,34,6*6E
$GPGSV,2,1,07,02,12,270,,11,15,264,,12,09,323,,20,03,221,,0*69
$GPGSV,2,2,07,20,03,221,,40,06,259,,41,27,238,,0*57
$GLGSV,2,1,06,65,24,166,15,71,31,043,35,72,51,109,46,78,26,299,29,1*71
$GLGSV,2,2,06,87,53,002,45,88,28,306,42,1*7D
$GAGSV,2,1,06,02,39,214,17,05,20,148,21,09,30,093,42,30,40,286,39,2*74
$GAGSV,2,2,06,34,51,298,36,36,55,041,26,2*71
$GNRMC,042437.00,A,3727.0689721,N,12639.3444851,E,0.014,,220622,,,R,V*04
$GNVTG,,T,,M,0.014,N,0.025,K,D*3A
$GNGNS,042437.00,3727.0689721,N,12639.3444851,E,RRRR,28,0.66,26.858,17.840,,4095,V*2B
$GNGGA,042437.00,3727.0689721,N,12639.3444851,E,4,12,0.66,26.858,M,17.840,M,,4095*77
$GNGSA,A,3,17,03,09,19,06,01,04,,,,,,1.41,0.66,1.24,1*05
$GNGSA,A,3,65,78,88,72,71,87,77,,,,,,1.41,0.66,1.24,2*01
$GNGSA,A,3,34,09,30,02,36,05,,,,,,,1.41,0.66,1.24,3*0F
$GNGSA,A,3,04,28,07,34,11,14,10,08,,,,,1.41,0.66,1.24,4*05
$GPGSV,2,1,07,01,11,068,21,03,37,047,43,04,22,097,44,06,50,289,43,1*62
$GPGSV,2,2,07,09,20,132,37,17,77,064,41,19,67,335,45,1*50
$GPGSV,2,1,07,01,11,068,31,03,37,047,41,04,22,097,32,06,50,289,36,6*65
$GPGSV,2,2,07,09,20,132,29,14,31,188,14,17,77,064,35,6*55
$GPGSV,2,1,07,02,12,270,,11,15,264,,12,09,323,,20,03,221,,0*69
$GPGSV,2,2,07,20,03,221,,40,06,259,,41,27,238,,0*57
$GLGSV,2,1,06,65,24,166,12,71,31,043,36,72,51,109,46,78,26,299,30,1*7D
$GLGSV,2,2,06,87,53,002,45,88,28,306,38,1*70
$GLGSV,2,1,06,65,24,166,07,71,31,043,34,72,51,109,37,77,24,237,08,3*7D
$GLGSV,2,2,06,78,26,299,32,88,28,306,32,3*7A
$GLGSV,1,1,03,76,00,197,,79,02,343,,86,23,077,,0*43
$GAGSV,2,1,06,02,39,214,17,05,20,148,22,09,30,093,43,30,40,286,39,2*76
$GAGSV,2,2,06,34,51,298,38,36,55,041,23,2*7A
$GAGSV,2,1,07,02,39,214,21,05,20,148,19,09,30,093,44,18,47,307,45,7*76
$GAGSV,2,2,07,30,40,286,38,34,51,298,40,36,55,041,42,7*46
$GAGSV,2,1,05,04,11,042,,11,13,074,,15,07,270,,25,07,175,,0*74
$GAGSV,2,2,05,25,07,175,,0*42
$GBGSV,2,1,08,04,35,132,38,07,68,219,38,08,52,254,28,10,67,255,34,1*7F
$GBGSV,2,2,08,11,42,084,40,14,55,130,39,28,42,308,44,34,23,098,40,1*79
$GBGSV,2,1,06,04,35,132,39,07,68,219,40,08,52,254,27,10,67,255,38,3*7E
$GBGSV,2,2,06,11,42,084,46,14,55,130,34,3*7A
$GBGSV,2,1,08,01,43,152,,02,28,236,,03,44,206,,05,08,256,,0*78
$GBGSV,2,2,08,05,08,256,,13,43,250,,21,15,039,,23,14,227,,0*7F
$GNRMC,042438.00,A,3727.0689771,N,12639.3444864,E,0.025,,220622,,,R,V*0A
$GNVTG,,T,,M,0.025,N,0.046,K,D*3D
$GNGNS,042438.00,3727.0689771,N,12639.3444864,E,RRRR,28,0.66,26.847,17.840,,4095,V*29
$GNGGA,042438.00,3727.0689771,N,12639.3444864,E,4,12,0.66,26.847,M,17.840,M,,4095*75
$GNGSA,A,3,17,03,09,19,06,01,04,,,,,,1.41,0.66,1.24,1*05
$GNGSA,A,3,65,78,88,72,71,87,77,,,,,,1.41,0.66,1.24,2*01
$GNGSA,A,3,34,09,30,02,36,05,,,,,,,1.41,0.66,1.24,3*0F
$GNGSA,A,3,04,28,07,34,11,14,10,08,,,,,1.41,0.66,1.24,4*05
$GPGSV,2,1,07,01,11,068,22,03,37,047,42,04,22,097,41,06,50,289,45,1*63
$GPGSV,2,2,07,09,20,132,35,17,77,064,43,19,67,335,45,1*50
$GPGSV,2,1,07,01,11,068,28,03,37,047,40,04,22,097,31,06,50,289,37,6*6E
$GPGSV,2,2,07,09,20,132,28,14,31,188,12,17,77,064,35,6*52
$GPGSV,2,1,07,02,12,270,,11,15,264,,12,09,323,,20,03,221,,0*69
$GPGSV,2,2,07,20,03,221,,40,06,259,,41,27,238,,0*57
$GLGSV,2,1,06,65,24,166,16,71,31,043,36,72,51,109,46,78,26,299,20,1*78
$GLGSV,2,2,06,87,53,002,45,88,28,306,39,1*71
$GLGSV,2,1,06,65,24,166,07,71,31,043,33,72,51,109,37,77,24,237,10,3*73
$GLGSV,2,2,06,78,26,299,35,88,28,306,32,3*7D
$GLGSV,1,1,03,76,00,197,,79,02,343,,86,23,077,,0*43
$GAGSV,2,1,06,02,39,214,15,05,20,148,21,09,30,093,43,30,40,286,41,2*78
$GAGSV,2,2,06,34,51,298,38,36,55,041,20,2*79
$GAGSV,2,1,07,02,39,214,20,05,20,148,19,09,30,093,45,18,47,307,47,7*74
$GAGSV,2,2,07,30,40,286,42,34,51,298,42,36,55,041,43,7*48
$GAGSV,2,1,05,04,11,042,,11,13,074,,15,07,270,,25,07,175,,0*74
$GAGSV,2,2,05,25,07,175,,0*42
$GBGSV,3,1,09,04,35,132,39,07,68,219,39,08,52,254,27,10,67,255,37,1*73
$GBGSV,3,2,09,11,42,084,38,14,55,130,41,28,42,308,46,34,23,098,39,1*75
$GBGSV,3,3,09,37,18,277,24,1*46
$GNRMC,042439.00,A,3727.0689768,N,12639.3444864,E,0.016,,220622,,,R,V*03
$GNVTG,,T,,M,0.016,N,0.029,K,D*34
$GNGNS,042439.00,3727.0689768,N,12639.3444864,E,RRRR,28,0.66,26.853,17.840,,4095,V*25
$GNGGA,042439.00,3727.0689768,N,12639.3444864,E,4,12,0.66,26.853,M,17.840,M,,4095*79
$GNGSA,A,3,17,03,09,19,06,01,04,,,,,,1.41,0.66,1.24,1*05
$GNGSA,A,3,65,78,88,72,71,87,77,,,,,,1.41,0.66,1.24,2*01
$GNGSA,A,3,34,09,30,02,36,05,,,,,,,1.41,0.66,1.24,3*0F
$GNGSA,A,3,04,28,07,34,11,14,10,08,,,,,1.41,0.66,1.24,4*05
$GPGSV,2,1,07,01,11,068,22,03,37,047,41,04,22,097,43,06,50,289,43,1*64
$GPGSV,2,2,07,09,20,132,37,17,77,064,43,19,67,335,45,1*52
$GPGSV,2,1,07,01,11,068,29,03,37,047,41,04,22,097,31,06,50,289,34,6*6D
$GPGSV,2,2,07,09,20,132,28,14,31,188,13,17,77,064,35,6*53
$GPGSV,2,1,07,02,12,270,,11,15,264,,12,09,323,,20,03,221,,0*69
$GPGSV,2,2,07,20,03,221,,40,06,259,,41,27,238,,0*57
$GLGSV,2,1,06,65,24,166,13,71,31,043,32,72,51,109,47,78,26,299,31,1*78
$GLGSV,2,2,06,87,53,002,45,88,28,306,41,1*7E
$GLGSV,2,1,06,65,24,166,10,71,31,043,33,72,51,109,37,77,24,237,08,3*7C
$GLGSV,2,2,06,78,26,299,32,88,28,306,32,3*7A
$GLGSV,1,1,03,76,00,197,,79,02,343,,86,23,077,,0*43
$GAGSV,2,1,06,02,39,214,14,05,20,148,21,09,30,093,43,30,40,286,41,2*79
$GAGSV,2,2,06,34,51,298,36,36,55,041,31,2*77
$GAGSV,2,1,07,02,39,214,20,05,20,148,19,09,30,093,44,18,47,307,45,7*77
$GAGSV,2,2,07,30,40,286,40,34,51,298,42,36,55,041,43,7*4A
$GAGSV,2,1,05,04,11,042,,11,13,074,,15,07,270,,25,07,175,,0*74
$GAGSV,2,2,05,25,07,175,,0*42
$GBGSV,3,1,09,04,35,132,40,07,68,219,39,08,52,254,27,10,67,255,35,1*7F
$GBGSV,3,2,09,11,42,084,40,14,55,130,41,28,42,308,45,34,23,098,39,1*79
$GBGSV,3,3,09,37,18,277,22,1*40
$GBGSV,2,1,06,04,35,132,39,07,68,219,41,08,52,254,27,10,67,255,40,3*70
$GBGSV,2,2,06,11,42,084,46,14,55,130,33,3*7D
$GBGSV,2,1,07,01,43,152,,02,28,236,,03,44,206,,05,08,256,,0*77
$GBGSV,2,2,07,05,08,256,,13,43,250,,21,15,039,,0*43
$GNRMC,042440.00,A,3727.0689777,N,12639.3444887,E,0.029,,220622,,,R,V*02
$GNVTG,,T,,M,0.029,N,0.053,K,D*35
$GNGNS,042440.00,3727.0689777,N,12639.3444887,E,RRRR,27,0.66,26.849,17.840,,4095,V*2C
$GNGSA,A,3,17,03,09,19,06,01,04,,,,,,1.41,0.66,1.24,1*05
$GNGSA,A,3,65,78,88,72,71,87,77,,,,,,1.41,0.66,1.24,2*01
$GNGSA,A,3,34,09,30,02,36,05,,,,,,,1.41,0.66,1.24,3*0F
$GNGSA,A,3,04,28,07,34,11,14,10,08,,,,,1.41,0.66,1.24,4*05
$GPGSV,2,1,06,03,37,047,38,04,22,097,42,06,50,289,43,09,20,132,38,1*65
$GPGSV,2,2,06,17,77,064,43,19,67,335,44,1*6D
$GPGSV,2,1,07,01,11,068,27,03,37,047,40,04,22,097,32,06,50,289,37,6*62
$GPGSV,2,2,07,09,20,132,27,14,31,188,10,17,77,064,36,6*5C
$GPGSV,2,1,07,02,12,270,,11,15,264,,12,09,323,,20,03,221,,0*69
$GPGSV,2,2,07,20,03,221,,40,06,259,,41,27,238,,0*57
$GLGSV,2,1,06,65,24,166,13,71,31,043,27,72,51,109,47,78,26,299,25,1*79
$GLGSV,2,2,06,87,53,002,45,88,28,306,42,1*7D
$GLGSV,2,1,06,65,24,166,08,71,31,043,33,72,51,109,35,77,24,237,12,3*7C
$GLGSV,2,2,06,78,26,299,33,88,28,306,31,3*78
$GLGSV,1,1,03,76,00,197,,79,02,343,,86,23,077,,0*43
$GAGSV,2,1,06,02,39,214,14,05,20,148,21,09,30,093,4$GAGSV,2,2,06,34,51,298,37,36,55,041,33,2*74
$GAGSV,2,1,07,02,39,214,21,05,20,148,18,09,30,093,44,18,47,307,46,7*74
$GAGSV,2,2,07,30,40,286,41,34,51,298,42,36,55,041,44,7*4C
$GAGSV,2,1,05,04,11,042,,11,13,074,,15,07,270,,25,07,175,,0*74
$GAGSV,2,2,05,25,07,175,,0*42
$GBGSV,3,1,09,04,35,132,40,07,68,219,39,08,52,254,27,10,67,255,36,1*7C
$GBGSV,3,2,09,11,42,084,39,14,55,130,40,28,42,308,46,34,23,098,38,1*74
$GBGSV,3,3,09,37,18,277,21,1*43
$GBGSV,2,1,06,04,35,132,39,07,68,219,41,08,52,254,27,10,67,255,40,3*70
$GBGSV,2,2,06,11,42,084,46,14,55,130,31,3*7F
$GBGSV,2,1,07,01,43,152,,02,28,236,,03,44,206,,05,08,256,,0*77
$GBGSV,2,2,07,05,08,256,,13,43,250,,21,15,039,,0*43
$GNRMC,042441.00,A,3727.0689807,N,12639.3444853,E,0.019,,220622,,,R,V*01
$GNVTG,,T,,M,0.019,N,0.035,K,D*36
$GNGNS,042441.00,3727.0689807,N,12639.3444853,E,RRRR,27,0.66,26.845,17.840,,4095,V*20
$GNGGA,042441.00,3727.0689807,N,12639.3444853,E,4,12,0.66,26.845,M,17.840,M,,4095*73
$GNGSA,A,3,17,03,09,19,06,01,04,,,,,,1.41,0.66,1.24,1*05
$GNGSA,A,3,65,78,88,72,71,87,77,,,,,,1.41,0.66,1.24,2*01
$GNGSA,A,3,34,09,30,02,36,05,,,,,,,1.41,0.66,1.24,3*0F
$GNGSA,A,3,04,28,07,34,11,14,10,08,,,,,1.41,0.66,1.24,4*05
$GPGSV,2,1,06,03,37,047,38,04,22,097,42,06,50,289,42,09,20,132,38,1*64
$GPGSV,2,2,06,17,77,064,43,19,67,335,45,1*6C
$GPGSV,2,1,07,01,11,068,27,03,37,047,38,04,22,097,32,06,50,289,37,6*6D
$GPGSV,2,2,07,09,20,132,28,14,31,188,10,17,77,064,36,6*53
$GPGSV,2,1,07,02,12,270,,11,15,264,,12,09,323,,20,03,221,,0*69
$GPGSV,2,2,07,20,03,221,,40,06,259,,41,27,238,,0*57
$GLGSV,2,1,06,65,24,166,11,71,31,043,33,72,51,109,47,78,26,299,35,1*7F
$GLGSV,2,2,06,87,53,002,45,88,28,306,42,1*7D
$GLGSV,2,1,06,65,24,166,12,71,31,043,33,72,51,109,35,77,24,237,09,3*7D
$GLGSV,2,2,06,78,26,299,32,88,28,306,31,3*79
$GLGSV,1,1,03,76,00,197,,79,02,343,,86,23,077,,0*43
$GAGSV,2,1,06,02,39,214,15,05,20,148,20,09,30,093,43,30,40,286,41,2*79
$GAGSV,2,2,06,34,51,298,37,36,55,041,31,2*76
$GAGSV,2,1,07,02,39,214,21,05,20,148,16,09,30,093,44,18,47,307,46,7*7A
$GAGSV,2,2,07,30,40,286,41,34,51,298,41,36,55,041,44,7*4F
$GAGSV,2,1,05,04,11,042,,11,13,074,,15,07,270,,25,06,175,,0*75
$GAGSV,2,2,05,25,06,175,,0*43
$GBGSV,3,1,09,04,35,132,39,07,68,219,39,08,52,254,26,10,67,255,37,1*72
$GBGSV,3,2,09,11,42,084,35,14,55,130,39,28,42,308,47,34,23,098,38,1*77
$GBGSV,3,3,09,37,18,277,21,1*43
$GBGSV,2,1,06,04,35,132,40,07,68,219,41,08,52,254,26,10,67,255,39,3*71
$GBGSV,2,2,06,11,42,084,45,14,55,130,25,3*79
$GBGSV,2,1,07,01,43,152,,02,28,236,,03,44,206,,05,08,256,,0*77
$GBGSV,2,2,07,05,08,256,,13,43,250,,21,15,039,,0*43
$GNRMC,042442.00,A,3727.0689865,N,12639.3444891,E,0.014,,220622,,,R,V*05
$GNGSA,A,3,65,78,88,72,71,87,77,,,,,,1.41,0.66,1.24,2*01
$GNGSA,A,3,34,09,30,02,36,05,,,,,,,1.41,0.66,1.24,3*0F
$GNGSA,A,3,04,28,07,34,11,14,10,08,,,,,1.41,0.66,1.24,4*05
$GPGSV,2,1,06,03,37,047,37,04,22,097,41,06,50,289,41,09,20,132,38,1*6B
$GPGSV,2,2,06,17,77,064,43,19,67,335,45,1*6C
$GPGSV,2,1,07,01,11,068,27,03,37,047,38,04,22,097,33,06,50,289,36,6*6D
$GPGSV,2,2,07,09,20,132,28,14,31,188,08,17,77,064,36,6*5A
$GPGSV,2,2,07,20,03,221,,40,06,259,,41,27,238,,0*57
$GLGSV,2,1,06,65,24,166,14,71,31,043,29,72,51,109,46,78,26,299,33,1*76
$GLGSV,2,2,06,87,53,002,44,88,28,306,43,1*7D
$GLGSV,2,1,06,65,24,166,11,71,31,043,34,72,51,109,36,77,24,237,08,3*7B
$GLGSV,2,2,06,78,26,299,31,88,28,306,31,3*7A
$GLGSV,1,1,03,76,00,197,,79,02,343,,86,23,077,,0*43
$GAGSV,2,1,06,02,39,214,15,05,20,148,20,09,30,093,44,30,40,286,42,2*7D
$GAGSV,2,2,06,34,51,298,38,36,55,041,31,2*79
$GAGSV,2,1,07,02,39,214,22,05,20,148,17,09,30,093,44,18,47,307,46,7*78
$GAGSV,2,2,07,30,40,286,40,34,51,298,42,36,55,041,44,7*4D
$GAGSV,2,1,05,04,11,042,,11,13,074,,15,07,270,,25,06,175,,0*75
$GAGSV,2,2,05,25,06,175,,0*43
$GBGSV,3,1,09,04,35,132,39,07,68,219,39,08,52,254,26,10,67,255,36,1*73
$GBGSV,3,2,09,11,42,084,37,14,55,130,41,28,42,308,47,34,23,098,38,1*7A
$GBGSV,3,3,09,37,18,277,21,1*43
$GBGSV,2,1,06,04,35,132,40,07,68,219,41,08,52,254,25,10,67,255,39,3*72
$GBGSV,2,2,06,11,42,084,45,14,55,130,32,3*7F
$GNRMC,042443.00,A,3727.0689927,N,12639.3444842,E,0.005,,220622,,,R,V*0D
$GNVTG,,T,,M,0.005,N,0.010,K,D*3C
$GNGNS,042443.00,3727.0689927,N,12639.3444842,E,RRRR,27,0.66,26.832,17.840,,4095,V*21
$GNGGA,042443.00,3727.0689927,N,12639.3444842,E,4,12,0.66,26.832,M,17.840,M,,4095*72
$GNGSA,A,3,17,03,09,19,06,01,04,14,,,,,1.41,0.66,1.24,1*00
$GNGSA,A,3,65,78,88,72,71,87,,,,,,,1.41,0.66,1.24,2*01
$GNGSA,A,3,34,09,30,02,36,05,,,,,,,1.41,0.66,1.24,3*0F
$GNGSA,A,3,04,28,07,34,11,14,10,08,,,,,1.41,0.66,1.24,4*05
$GPGSV,2,1,06,03,37,047,36,04,22,097,42,06,50,289,42,09,20,132,39,1*6B
$GPGSV,2,2,06,17,77,064,42,19,67,335,45,1*6D
$GPGSV,2,1,07,01,11,068,27,03,37,047,39,04,22,097,32,06,50,289,36,6*6D
$GPGSV,2,2,07,09,20,132,28,14,31,188,08,17,77,064,35,6*59
$GPGSV,2,1,07,02,12,270,,11,15,264,,12,09,323,,20,03,221,,0*69
$GPGSV,2,2,07,20,03,221,,40,06,259,,41,27,238,,0*57
$GLGSV,2,1,06,65,24,166,15,71,31,043,29,72,51,109,46,78,26,299,36,1*72
$GLGSV,2,2,06,87,53,002,44,88,28,306,45,1*7B
$GLGSV,2,1,06,65,24,166,07,71,31,043,34,72,51,109,36,77,24,237,10,3*75
$GLGSV,2,2,06,78,26,299,32,88,28,306,32,3*7A
$GLGSV,1,1,03,76,00,197,,79,02,343,,86,23,077,,0*43
$GAGSV,2,1,06,02,39,214,14,05,20,148,20,09,30,093,44,30,40,286,42,2*7C
$GAGSV,2,2,06,34,51,298,37,36,55,041,32,2*75
$GAGSV,2,1,07,02,39,214,21,05,20,148,18,09,30,093,44,18,47,307,46,7*74
$GAGSV,2,2,07,30,40,286,41,34,51,298,42,36,55,041,44,7*4C
$GAGSV,2,1,05,04,11,042,,11,13,074,,15,07,270,,25,06,175,,0*75
$GAGSV,2,2,05,25,06,175,,0*43
$GBGSV,3,1,09,04,35,132,38,07,68,219,39,08,52,254,27,10,67,255,36,1*73
$GBGSV,3,2,09,11,42,084,36,14,55,130,41,28,42,308,47,34,23,098,37,1*74
$GBGSV,3,3,09,37,18,277,20,1*42
$GBGSV,2,1,06,04,35,132,40,07,68,219,41,08,52,254,26,10,67,255,40,3*7F
$GBGSV,2,2,06,11,42,084,45,14,55,130,31,3*7C
$GBGSV,2,1,07,01,43,152,,02,28,236,,03,44,206,,05,08,256,,0*77
$GBGSV,2,2,07,05,08,256,,13,43,250,,21,15,039,,0*43
$GNRMC,042444.00,A,3727.0689937,N,12639.3444827,E,0.011,,220622,,,R,V*0D
$GNVTG,,T,,M,0.011,N,0.020,K,D*3A
$GNGNS,042444.00,3727.0689937,N,12639.3444827,E,RRRR,27,0.66,26.841,17.840,,4095,V*20
$GNGGA,042444.00,3727.0689937,N,12639.3444827,E,4,12,0.66,26.841,M,17.840,M,,4095*73
$GNGSA,A,3,17,03,09,19,06,01,04,,,,,,1.41,0.66,1.24,1*05
$GNGSA,A,3,65,78,88,72,71,87,,,,,,,1.41,0.66,1.24,2*01
$GNGSA,A,3,34,09,30,02,36,05,,,,,,,1.41,0.66,1.24,3*0F
$GNGSA,A,3,04,28,07,34,11,14,10,08,37,,,,1.41,0.66,1.24,4*01
$GPGSV,2,1,06,03,37,047,31,04,22,097,42,06,50,289,43,09,20,132,39,1*6D
$GPGSV,2,2,06,17,77,064,43,19,67,335,45,1*6C
$GPGSV,2,1,07,01,11,068,26,03,37,047,37,04,22,097,31,06,50,289,37,6*60
$GPGSV,2,2,07,09,20,132,28,14,31,188,08,17,77,064,35,6*59
$GPGSV,2,1,07,02,12,270,,11,15,264,,12,09,323,,20,03,221,,0*69
$GPGSV,2,2,07,20,03,221,,40,06,259,,41,27,238,,0*57
$GLGSV,2,1,06,65,24,166,13,71,31,043,27,72,51,109,46,78,26,299,35,1*79
$GLGSV,2,2,06,87,53,002,45,88,28,306,45,1*7A
$GLGSV,2,1,06,65,24,166,08,71,31,043,33,72,51,109,36,77,24,237,09,3*75
$GLGSV,2,2,06,78,26,299,32,88,28,306,33,3*7B
$GLGSV,1,1,03,76,00,197,,79,02,343,,86,23,077,,0*43
$GAGSV,2,1,06,02,39,214,14,05,20,148,21,09,30,093,44,30,40,285,42,2*7E
$GAGSV,2,2,06,34,51,298,37,36,55,041,32,2*75
$GAGSV,2,1,07,02,39,214,21,05,20,148,18,09,30,093,44,18,47,307,47,7*75
$GAGSV,2,2,07,30,40,285,41,34,51,298,42,36,55,041,44,7*4F
$GAGSV,2,1,05,04,11,042,,11,13,074,,15,07,270,,25,06,175,,0*75
$GAGSV,2,2,05,25,06,175,,0*43
$GBGSV,3,1,09,04,35,132,38,07,68,219,40,08,52,254,27,10,67,255,37,1*7C
$GBGSV,3,2,09,11,42,084,36,14,55,130,42,28,42,308,47,34,23,098,37,1*77
$GBGSV,3,3,09,37,18,277,19,1*48
$GBGSV,2,1,06,04,35,132,41,07,68,219,42,08,52,254,26,10,67,255,41,3*7C
$GBGSV,2,2,06,11,42,084,44,14,55,130,31,3*7D
$GBGSV,2,1,07,01,43,152,,02,28,236,,03,44,206,,05,08,256,,0*77
$GBGSV,2,2,07,05,08,256,,13,43,250,,21,15,039,,0*43
$GNRMC,042445.00,A,3727.0689902,N,12639.3444828,E,0.015,,220622,,,R,V*01
$GNVTG,,T,,M,0.015,N,0.028,K,D*36
$GNGNS,042445.00,3727.0689902,N,12639.3444828,E,RRRR,28,0.66,26.848,17.840,,4095,V*2E
$GNGGA,042445.00,3727.0689902,N,12639.3444828,E,4,12,0.66,26.848,M,17.840,M,,4095*72
$GNGSA,A,3,17,03,09,19,06,01,04,,,,,,1.41,0.66,1.24,1*05
$GNGSA,A,3,65,78,88,72,71,87,,,,,,,1.41,0.66,1.24,2*01
$GNGSA,A,3,34,09,30,02,36,05,,,,,,,1.41,0.66,1.24,3*0F
$GNGSA,A,3,04,28,07,34,11,14,10,08,37,,,,1.41,0.66,1.24,4*01
$GPGSV,2,1,06,03,37,047,33,04,22,097,42,06,50,289,44,09,20,132,38,1*69
$GPGSV,2,2,06,17,77,064,42,19,67,335,45,1*6D
$GPGSV,2,1,06,01,11,068,25,03,37,047,38,04,22,097,30,06,50,289,38,6*63
$GPGSV,2,2,06,09,20,132,28,17,77,064,36,6*65
$GPGSV,2,1,08,02,12,270,,11,15,264,,12,09,323,,14,31,188,,0*60
$GPGSV,2,2,08,14,31,188,,20,03,221,,40,06,259,,41,27,238,,0*6E
$GLGSV,2,1,06,65,24,166,17,71,31,043,28,72,51,109,46,78,26,299,37,1*70
$GLGSV,2,2,06,87,53,002,45,88,28,306,45,1*7A
$GLGSV,2,1,06,65,24,166,09,71,31,043,32,72,51,109,36,77,24,237,09,3*75
$GLGSV,2,2,06,78,26,299,33,88,28,306,33,3*7A
$GLGSV,1,1,03,76,00,197,,79,02,343,,86,23,077,,0*43
$GAGSV,2,1,06,02,39,214,13,05,20,148,21,09,30,093,44,30,40,285,42,2*79
$GAGSV,2,2,06,34,51,298,37,36,55,041,31,2*76
$GAGSV,2,1,07,02,39,214,21,05,20,148,19,09,30,093,44,18,47,307,47,7*74
$GAGSV,2,2,07,30,40,285,41,34,51,298,42,36,55,041,44,7*4F
$GAGSV,2,1,05,04,11,042,,11,13,074,,15,07,270,,25,06,175,,0*75
$GAGSV,2,2,05,25,06,175,,0*43
$GBGSV,3,1,09,04,35,132,37,07,68,219,40,08,52,254,27,10,67,255,38,1*7C
$GBGSV,3,2,09,11,42,084,35,14,55,130,42,28,42,308,47,34,23,098,37,1*74
$GBGSV,3,3,09,37,18,277,19,1*48
$GBGSV,2,1,06,04,35,132,41,07,68,219,42,08,52,254,26,10,67,255,41,3*7C
$GBGSV,2,2,06,11,42,084,45,14,55,130,31,3*7C
$GBGSV,2,1,07,01,43,152,,02,28,236,,03,44,206,,05,08,256,,0*77
$GBGSV,2,2,07,05,08,256,,13,43,250,,21,15,039,,0*43
$GNRMC,042446.00,A,3727.0689941,N,12639.3444826,E,0.018,,220622,,,R,V*06
$GNVTG,,T,,M,0.018,N,0.034,K,D*36
$GNGGA,042446.00,3727.0689941,N,12639.3444826,E,4,12,0.66,26.844,M,17.840,M,,4095*74
$GNGSA,A,3,17,03,09,19,06,01,04,,,,,,1.41,0.66,1.24,1*05
$GNGSA,A,3,65,78,88,72,71,87,,,,,,,1.41,0.66,1.24,2*01
$GNGSA,A,3,34,09,30,02,36,05,,,,,,,1.41,0.66,1.24,3*0F
$GNGSA,A,3,04,28,07,34,11,14,10,08,37,,,,1.41,0.66,1.24,4*01
$GPGSV,2,1,06,03,37,047,32,04,22,097,42,06,50,289,44,09,20,132,39,1*69
$GPGSV,2,2,06,17,77,064,42,19,67,335,45,1*6D
$GPGSV,2,1,06,01,11,068,25,03,37,047,37,04,22,097,31,06,50,289,37,6*62
$GPGSV,2,2,06,09,20,132,28,17,77,064,36,6*65
$GPGSV,2,1,08,02,12,270,,11,15,264,,12,09,323,,14,31,188,,0*60
$GPGSV,2,2,08,14,31,188,,20,03,221,,40,06,259,,41,27,238,,0*6E
$GLGSV,2,1,06,65,24,166,13,71,31,043,32,72,51,109,46,78,26,299,36,1*7E
$GLGSV,2,2,06,87,53,002,45,88,28,306,45,1*7A
$GLGSV,2,1,06,65,24,166,07,71,31,043,33,72,51,109,36,77,24,237,08,3*7B
$GLGSV,2,2,06,78,26,299,34,88,28,306,34,3*7A
$GLGSV,1,1,03,76,00$GAGSV,2,1,06,02,39,214,11,05,20,148,21,09,30,093,44,30,40,285,42,2*7B
$GAGSV,2,2,06,34,51,298,37,36,55,041,32,2*75
$GAGSV,2,1,07,02,39,214,20,05,20,148,20,09,30,093,44,18,47,307,47,7*7F
$GAGSV,2,2,07,30,40,285,42,34,51,298,42,36,55,041,44,7*4C
$GAGSV,2,1,05,04,11,042,,11,13,074,,15,07,270,,25,06,175,,0*75
$GAGSV,2,2,05,25,06,175,,0*43
$GBGSV,3,1,09,04,35,132,37,07,68,219,39,08,52,254,26,10,67,255,38,1*73
$GBGSV,3,2,09,11,42,084,31,14,55,130,42,28,42,308,47,34,23,098,37,1*70
$GBGSV,3,3,09,37,18,277,20,1*42
$GBGSV,2,1,06,04,35,132,41,07,68,219,42,08,52,254,26,10,67,255,42,3*7F
$GBGSV,2,2,06,11,42,084,45,14,55,130,31,3*7C
$GBGSV,2,1,07,01,43,152,,02,28,236,,03,44,206,,05,08,256,,0*77
$GBGSV,2,2,07,05,08,256,,13,43,250,,21,15,039,,0*43
$GNRMC,042447.00,A,3727.0689939,N,12639.3444852,E,0.018,,220622,,,R,V*0B
$GNVTG,,T,,M,0.018,N,0.033,K,D*31
$GNGNS,042447.00,3727.0689939,N,12639.3444852,E,RRRR,26,0.71,26.842,17.840,,4095,V*2B
$GNGGA,042447.00,3727.0689939,N,12639.3444852,E,4,12,0.71,26.842,M,17.840,M,,4095*79
$GNGSA,A,3,17,03,09,19,06,01,04,,,,,,1.44,0.71,1.25,1*07
$GNGSA,A,3,65,78,88,72,71,87,,,,,,,1.44,0.71,1.25,2*03
$GNGSA,A,3,34,09,30,02,36,05,,,,,,,1.44,0.71,1.25,3*0D
$GNGSA,A,3,04,28,07,34,11,14,10,08,37,,,,1.44,0.71,1.25,4*03
$GPGSV,2,1,06,03,37,047,33,04,22,097,41,06,50,289,43,09,20,132,38,1*6D
$GPGSV,2,2,06,17,77,064,42,19,67,335,45,1*6D
$GPGSV,2,1,06,01,11,068,23,03,37,047,38,04,22,097,30,06,50,289,37,6*6A
$GPGSV,2,2,06,09,20,132,28,17,77,064,36,6*65
$GPGSV,2,1,08,02,12,270,,11,15,264,,12,09,323,,14,31,188,,0*60
$GPGSV,2,2,08,14,31,188,,20,03,221,,40,06,259,,41,27,238,,0*6E
$GLGSV,2,1,06,65,24,166,14,71,31,043,31,72,51,109,47,78,26,299,35,1*78
$GLGSV,2,2,06,87,53,002,45,88,28,306,45,1*7A
$GLGSV,2,1,06,65,24,166,11,71,31,043,33,72,51,109,36,77,24,237,09,3*7D
$GLGSV,2,2,06,78,26,299,34,88,28,306,34,3*7A
$GLGSV,1,1,03,76,00,197,,79,02,343,,86,23,077,,0*43
$GAGSV,2,1,06,02,39,214,09,05,20,148,21,09,30,093,44,30,40,285,42,2*72
$GAGSV,2,2,06,34,51,299,37,36,55,041,33,2*75
$GAGSV,2,1,07,02,39,214,20,05,20,148,19,09,30,093,44,18,47,307,46,7*74
$GAGSV,2,2,07,30,40,285,42,34,51,299,42,36,55,041,44,7*4D
$GAGSV,2,1,05,04,11,042,,11,13,074,,15,07,270,,25,06,175,,0*75
$GAGSV,2,2,05,25,06,175,,0*43
$GBGSV,3,1,09,04,35,132,37,07,68,219,40,08,52,254,26,10,67,255,38,1*7D
$GBGSV,3,2,09,11,42,084,33,14,55,130,42,28,42,308,47,34,23,098,37,1*72
$GBGSV,3,3,09,37,18,277,21,1*43
$GBGSV,2,1,06,04,35,132,41,07,68,219,42,08,52,254,26,10,67,255,42,3*7F
$GBGSV,2,2,06,11,42,084,45,14,55,130,32,3*7F
$GBGSV,2,1,07,01,43,152,,02,28,236,,03,44,206,,05,08,256,,0*77
$GBGSV,2,2,07,05,08,256,,13,43,250,,21,15,039,,0*43
$GNRMC,042448.00,A,3727.0689907,N,12639.3444846,E,0.019,,220622,,,R,V*0D
$GNVTG,,T,,M,0.019,N,0.035,K,D*36
$GNGNS,042448.00,3727.0689907,N,12639.3444846,E,RRRR,27,0.77,26.854,17.840,,4095,V*2C
$GNGGA,042448.00,3727.0689907,N,12639.3444846,E,4,12,0.77,26.854,M,17.840,M,,4095*7F
$GNGSA,A,3,17,03,09,19,06,01,04,,,,,,1.48,0.77,1.26,1*0E
$GNGSA,A,3,65,78,88,72,71,87,,,,,,,1.48,0.77,1.26,2*0A
$GNGSA,A,3,34,09,30,02,36,05,,,,,,,1.48,0.77,1.26,3*04
$GNGSA,A,3,04,28,07,34,11,14,10,08,37,,,,1.48,0.77,1.26,4*0A
$GPGSV,2,1,06,03,37,047,36,04,22,097,41,06,50,289,45,09,20,132,39,1*6F
$GPGSV,2,2,06,17,77,064,42,19,67,335,45,1*6D
$GPGSV,2,1,06,01,11,068,21,03,37,047,37,04,22,097,30,06,50,289,38,6*68
$GLGSV,2,1,06,65,24,166,06,71,31,043,33,72,51,109,36,77,24,237,09,3*7B
$GLGSV,2,2,06,78,26,299,34,88,28,306,34,3*7A
$GLGSV,1,1,03,76,00,197,,79,02,343,,86,23,077,,0*43
$GAGSV,2,2,06,34,51,299,39,36,55,041,33,2*7B
$GAGSV,2,1,07,02,39,214,21,05,20,148,20,09,30,093,44,18,47,307,47,7*7E
$GAGSV,2,2,07,30,40,285,41,34,51,299,43,36,55,041,45,7*4E
$GAGSV,2,1,05,04,11,042,,11,13,074,,15,07,270,,25,06,175,,0*75
$GAGSV,2,2,05,25,06,175,,0*43
$GBGSV,3,1,09,04,35,132,38,07,68,219,39,08,52,254,26,10,67,255,38,1*7C
$GBGSV,3,2,09,11,42,084,30,14,55,130,43,28,42,308,47,34,23,098,35,1*72
$GBGSV,3,3,09,37,18,277,20,1*42
$GBGSV,2,1,06,04,35,132,41,07,68,219,42,08,52,254,24,10,67,255,41,3*7E
$GBGSV,2,2,06,11,42,084,45,14,55,130,24,3*78
$GBGSV,2,1,07,01,43,152,,02,28,236,,03,44,206,,05,08,256,,0*77
$GNRMC,042449.00,A,3727.0689862,N,12639.3444847,E,0.024,,220622,,,R,V*01
$GNVTG,,T,,M,0.024,N,0.044,K,D*3E
$GNGGA,042449.00,3727.0689862,N,12639.3444847,E,4,12,0.71,26.859,M,17.840,M,,4095*76
$GNGSA,A,3,17,03,09,19,06,01,04,,,,,,1.44,0.71,1.25,1*07
$GNGSA,A,3,65,78,88,72,71,87,77,,,,,,1.44,0.71,1.25,2*03
$GNGSA,A,3,34,09,30,02,36,05,,,,,,,1.44,0.71,1.25,3*0D
$GNGSA,A,3,04,28,07,34,11,14,10,08,,,,,1.44,0.71,1.25,4*07
$GPGSV,2,1,07,01,11,068,21,03,37,047,33,04,22,097,41,06,50,289,45,1*66
$GPGSV,2,2,07,09,20,132,39,17,77,064,42,19,67,335,44,1*5C
$GPGSV,2,1,06,01,11,068,19,03,37,047,37,04,22,097,29,06,50,289,39,6*6A
$GPGSV,2,2,06,09,20,132,31,17,77,064,37,6*6C
$GPGSV,2,1,08,02,12,270,,11,15,264,,12,09,323,,14,31,188,,0*60
$GPGSV,2,2,08,14,31,188,,20,03,221,,40,06,259,,41,27,238,,0*6E
$GLGSV,2,1,06,65,24,166,19,71,31,043,26,72,51,109,46,78,26,299,30,1*77
$GLGSV,2,2,06,87,53,002,45,88,28,306,45,1*7A
$GLGSV,2,1,06,65,24,166,11,71,31,043,32,72,51,109,35,77,24,237,08,3*7E
$GLGSV,2,2,06,78,26,299,31,88,28,306,36,3*7D
$GLGSV$GAGSV,2,1,06,02,39,214,08,05,20,148,20,09,30,093,43,30,40,285,43,2*74
$GAGSV,2,2,06,34,51,299,40,36,55,041,34,2*72
$GAGSV,2,1,07,02,39,214,21,05,20,148,20,09,30,093,44,18,47,307,49,7*70
$GAGSV,2,2,07,30,40,285,40,34,51,299,43,36,55,041,45,7*4F
$GAGSV,2,1,05,04,11,042,,11,13,074,,15,07,270,,25,06,175,,0*75
$GAGSV,2,2,05,25,06,175,,0*43
$GBGSV,3,1,09,04,35,132,38,07,68,219,40,08,52,254,27,10,67,255,38,1*73
$GBGSV,3,2,09,11,42,084,24,14,55,130,43,28,42,308,48,34,23,098,36,1*7B
$GBGSV,3,3,09,37,18,277,20,1*42
$GBGSV,2,1,06,04,35,132,42,07,68,219,42,08,52,254,24,10,67,255,42,3*7E
$GBGSV,2,2,06,11,42,084,45,14,55,130,32,3*7F
$GBGSV,2,1,07,01,43,152,,02,28,236,,03,44,206,,05,08,256,,0*77
$GBGSV,2,2,07,05,08,256,,13,43,250,,21,15,039,,0*43
$GNRMC,042450.00,A,3727.0689890,N,12639.3444869,E,0.005,,220622,,,R,V*0B
$GNVTG,,T,,M,0.005,N,0.009,K,D*34
$GNGNS,042450.00,3727.0689890,N,12639.3444869,E,RRRR,27,0.71,26.872,17.840,,4095,V*25
$GNGGA,042450.00,3727.0689890,N,12639.3444869,E,4,12,0.71,26.872,M,17.840,M,,4095*76
$GNGSA,A,3,17,03,09,19,06,01,04,,,,,,1.44,0.71,1.25,1*07
$GNGSA,A,3,65,78,88,72,71,87,77,,,,,,1.44,0.71,1.25,2*03
$GNGSA,A,3,34,09,30,02,36,05,,,,,,,1.44,0.71,1.25,3*0D
$GNGSA,A,3,04,28,07,34,11,14,10,08,,,,,1.44,0.71,1.25,4*07
$GPGSV,2,1,07,01,11,068,20,03,37,047,33,04,22,097,40,06,50,289,42,1*61
$GPGSV,2,2,07,09,20,132,39,17,77,064,43,19,67,335,45,1*5C
$GPGSV,2,1,06,01,11,068,19,03,37,047,37,04,22,097,29,06,50,289,38,6*6B
$GPGSV,2,2,06,09,20,132,30,17,77,064,36,6*6C
$GPGSV,2,1,08,02,12,270,,11,15,264,,12,09,323,,14,31,188,,0*60
$GLGSV,2,1,06,65,24,166,17,71,31,043,27,72,51,109,47,78,26,299,21,1*79
$GLGSV,2,2,06,87,53,002,45,88,28,306,44,1*7B
$GLGSV,2,1,06,65,24,166,06,71,31,043,33,72,51,109,35,77,24,237,11,3*71
$GLGSV,2,2,06,78,26,299,36,88,28,306,33,3*7F
$GLGSV,1,1,03,76,00,197,,79,02,343,,86,23,077,,0*43
$GAGSV,2,1,05,05,20,148,19,09,30,093,43,30,40,285,45,34,51,299,35,2*7B
$GAGSV,2,2,05,36,55,041,36,2*46
$GAGSV,2,1,07,02,39,214,21,05,20,148,20,09,30,093,43,18,47,307,49,7*77
$GAGSV,2,2,07,30,40,285,42,34,51,299,43,36,55,041,44,7*4C
$GAGSV,2,1,05,04,11,042,,11,13,074,,15,07,270,,25,06,175,,0*75
$GAGSV,2,2,05,25,06,175,,0*43
$GBGSV,2,1,08,04,35,132,38,07,68,219,41,08,52,254,27,10,67,255,40,1*7D
$GBGSV,2,2,08,11,42,084,31,14,55,130,43,28,42,308,47,34,23,098,39,1*7F
$GBGSV,2,1,06,04,35,132,43,07,68,219,43,08,52,254,25,10,67,255,42,3*7F
$GBGSV,2,2,06,11,42,084,44,14,55,130,34,3*78
$GBGSV,2,1,08,01,43,152,,02,28,236,,03,44,206,,05,08,256,,0*78
$GBGSV,2,2,08,$GNRMC,042451.00,A,3727.0689863,N,12639.3444906,E,0.018,,220622,,,R,V*02
$GNVTG,,T,,M,0.018,N,0.034,K,D*36
$GNGNS,042451.00,3727.0689863,N,12639.3444906,E,RRRR,26,0.71,26.886,17.840,,4095,V*2A
$GNGGA,042451.00,3727.0689863,N,12639.3444906,E,4,12,0.71,26.886,M,17.840,M,,4095*78
$GNGSA,A,3,17,03,09,19,06,01,04,,,,,,1.44,0.71,1.25,1*07
$GNGSA,A,3,65,78,88,72,71,87,77,,,,,,1.44,0.71,1.25,2*03
$GNGSA,A,3,34,09,30,02,36,05,,,,,,,1.44,0.71,1.25,3*0D
$GNGSA,A,3,04,28,07,34,11,14,10,08,,,,,1.44,0.71,1.25,4*07
$GPGSV,2,1,07,01,11,068,19,03,37,047,33,04,22,097,40,06,50,289,44,1*6D
$GPGSV,2,2,07,09,20,132,39,17,77,064,43,19,67,335,45,1*5C
$GPGSV,2,1,06,01,11,068,18,03,37,047,37,04,22,097,29,06,50,289,39,6*6B
$GPGSV,2,2,06,09,20,132,29,17,77,064,36,6*64
$GPGSV,2,1,08,02,12,270,,11,15,264,,12,09,323,,14,31,188,,0*60
$GPGSV,2,2,08,14,31,188,,20,03,221,,40,06,259,,41,27,238,,0*6E
$GLGSV,2,1,06,65,24,166,17,71,31,043,28,72,51,109,46,78,26,299,21,1*77
$GLGSV,2,2,06,87,53,002,45,88,28,306,44,1*7B
$GLGSV,2,1,06,65,24,166,08,71,31,043,32,72,51,109,35,77,24,237,08,3*76
$GLGSV,2,2,06,78,26,299,34,88,28,306,34,3*7A
$GLGSV,1,1,03,76,00,197,,79,02,343,,86,23,077,,0*43
$GAGSV,2,1,05,05,20,148,19,09,30,093,43,30,40,285,44,34,51,299,38,2*77
$GAGSV,2,2,05,36,55,041,36,2*46
$GAGSV,2,1,07,02,39,214,20,05,20,148,19,09,30,093,43,18,47,307,48,7*7D
$GAGSV,2,2,07,30,40,285,42,34,51,299,42,36,55,041,44,7*4D
$GAGSV,2,1,05,04,11,042,,11,13,074,,15,07,270,,25,06,175,,0*75
$GAGSV,2,2,05,25,06,175,,0*43
$GBGSV,3,1,09,04,35,132,38,07,68,219,41,08,52,254,27,10,67,255,39,1*73
$GBGSV,3,2,09,11,42,084,32,14,55,130,43,28,42,308,47,34,23,098,39,1*7C
$GBGSV,3,3,09,37,18,277,18,1*49
$GBGSV,2,1,06,04,35,132,43,07,68,219,43,08,52,254,25,10,67,255,42,3*7F
$GBGSV,2,2,06,11,42,084,45,14,55,130,33,3*7E
$GBGSV,2,1,07,01,43,152,,02,28,236,,03,44,206,,05,08,256,,0*77
$GBGSV,2,2,07,05,08,256,,13,43,250,,21,15,039,,0*43
$GNRMC,042452.00,A,3727.0689896,N,12639.3444902,E,0.031,,220622,,,R,V*04
$GNVTG,,T,,M,0.031,N,0.057,K,D*38
$GNGNS,042452.00,3727.0689896,N,12639.3444902,E,RRRR,27,0.71,26.881,17.840,,4095,V*21
$GNGSA,A,3,17,03,09,19,06,01,04,,,,,,1.44,0.71,1.25,1*07
$GNGSA,A,3,65,78,88,72,71,87,77,,,,,,1.44,0.71,1.25,2*03
$GNGSA,A,3,34,09,30,02,36,05,,,,,,,1.44,0.71,1.25,3*0D
$GNGSA,A,3,04,28,07,34,11,14,10,08,,,,,1.44,0.71,1.25,4*07
$GPGSV,2,1,07,01,11,068,24,03,37,047,36,04,22,097,40,06,50,289,44,1*66
$GPGSV,2,2,07,09,20,132,40,17,77,064,44,19,67,335,45,1*55
$GPGSV,2,1,06,01,11,068,21,03,37,047,37,04,22,097,29,06,50,289,39,6*61
$GPGSV,2,2,06,09,20,132,33,17,77,064,36,6*6F
$GPGSV,2,1,08,02,12,270,,11,15,264,,12,09,323,,14,31,188,,0*60
$GPGSV,2,2,08,14,31,188,,20,03,221,,40,06,259,,41,27,238,,0*6E
$GLGSV,2,1,06,65,24,166,17,71,31,043,32,72,51,109,49,78,26,299,24,1*76
$GLGSV,2,2,06,87,53,002,45,88,28,306,45,1*7A
$GLGSV,2,1,06,65,24,166,13,71,31,043,33,72,51,109,32,77,24,237,09,3*7B
$GLGSV,2,2,06,78,26,299,35,88,28,306,35,3*7A
$GLGSV,1,1,03,76,00,197,,79,02,343,,86,23,077,,0*43
$GAGSV,2,1,05,05,20,148,21,09,30,093,44,$GAGSV,2,2,05,36,55,041,37,2*47
$GAGSV,2,1,06,02,39,214,20,09,30,093,43,18,47,307,48,30,40,285,42,7*70
$GAGSV,2,2,06,34,51,299,43,36,55,041,44,7*73
$GAGSV,2,1,05,04,11,042,,11,13,074,,15,07,270,,25,06,175,,0*75
$GAGSV,2,2,05,25,06,175,,0*43
$GBGSV,3,1,09,04,35,132,39,07,68,219,40,08,52,254,26,10,67,255,39,1*72
$GBGSV,3,2,09,11,42,084,34,14,55,130,44,28,42,308,47,34,23,098,40,1*73
$GBGSV,3,3,09,37,18,277,20,1*42
$GBGSV,2,1,06,04,35,132,42,07,68,219,43,08,52,254,24,10,67,255,42,3*7F
$GBGSV,2,2,06,11,42,084,44,14,55,130,36,3*7A
$GBGSV,2,1,07,01,43,152,,02,28,236,,03,44,206,,05,08,256,,0*77
$GBGSV,2,2,07,05,08,256,,13,43,250,,21,15,039,,0*43
$GNRMC,042453.00,A,3727.0689940,N,12639.3444903,E,0.014,,220622,,,R,V*09
$GNVTG,,T,,M,0.014,N,0.026,K,D*39
$GNGNS,042453.00,3727.0689940,N,12639.3444903,E,RRRR,28,0.71,26.900,17.840,,4095,V*2C
$GNGGA,042453.00,3727.0689940,N,12639.3444903,E,4,12,0.71,26.900,M,17.840,M,,4095*70
$GNGSA,A,3,17,03,09,19,06,01,04,,,,,,1.44,0.71,1.25,1*07
$GNGSA,A,3,65,78,88,72,71,87,77,,,,,,1.44,0.71,1.25,2*03
$GNGSA,A,3,34,09,30,02,36,05,,,,,,,1.44,0.71,1.25,3*0D
$GNGSA,A,3,04,28,07,34,11,14,10,08,,,,,1.44,0.71,1.25,4*07
$GPGSV,2,1,07,01,11,068,25,03,37,047,38,04,22,097,41,06,50,289,44,1*68
$GPGSV,2,2,07,09,20,132,34,17,77,064,42,19,67,335,45,1*50
$GPGSV,2,1,06,01,11,068,21,03,37,047,38,04,22,097,28,06,50,289,39,6*6F
$GPGSV,2,2,06,09,20,132,29,17,77,064,35,6*67
$GPGSV,2,1,08,02,12,270,,11,15,264,,12,09,323,,14,31,188,,0*60
$GPGSV,2,2,08,14,31,188,,20,03,221,,40,06,259,,41,27,238,,0*6E
$GLGSV,2,1,06,65,24,166,18,71,31,043,28,72,51,109,48,78,26,299,30,1*76
$GLGSV,2,2,06,87,53,002,45,88,28,306,45,1*7A
$GLGSV,2,1,06,65,24,166,09,71,31,043,33,72,51,109,35,77,24,237,10,3*7F
$GLGSV,2,2,06,78,26,299,34,88,28,306,34,3*7A
$GLGSV,1,1,03,76,00,197,,79,02,343,,86,23,077,,0*43
$GAGSV,2,1,05,05,20,148,21,09,30,093,44,30,40,285,43,34,51,299,36,2*72
$GAGSV,2,2,05,36,55,041,34,2*44
$GAGSV,2,1,07,02,39,214,20,05,20,148,22,09,30,093,43,18,47,307,48,7*75
$GAGSV,2,2,07,30,40,285,42,34,51,299,42,36,55,041,44,7*4D
$GAGSV,2,1,05,04,11,042,,11,13,074,,15,07,270,,25,06,175,,0*75
$GAGSV,2,2,05,25,06,175,,0*43
$GBGSV,3,1,09,04,35,132,37,07,68,219,40,08,52,254,26,10,67,255,39,1*7C
$GBGSV,3,2,09,11,42,084,38,14,55,130,44,28,42,308,47,34,23,098,36,1*7E
$GBGSV,3,3,09,37,18,277,21,1*43
$GBGSV,2,1,06,04,35,132,41,07,68,219,42,08,52,254,25,10,67,255,42,3*7C
$GBGSV,2,2,06,11,42,084,45,14,55,130,39,3*74
$GBGSV,2,1,07,01,43,152,,02,28,236,,03,44,206,,05,08,256,,0*77
$GBGSV,2,2,07,05,08,256,,13,43,250,,21,15,039,,0*43
$GNRMC,042454.00,A,3727.0689945,N,12639.3444926,E,0.025,,220622,,,R,V*0E
$GNVTG,,T,,M,0.025,N,0.047,K,D*3C
$GNGNS,042454.00,3727.0689945,N,12639.3444926,E,RRRR,27,0.71,26.913,17.840,,4095,V*24
$GNGSA,A,3,17,03,09,19,06,01,04,,,,,,1.44,0.71,1.25,1*07
$GNGSA,A,3,65,78,88,72,71,87,77,,,,,,1.44,0.71,1.25,2*03
$GNGSA,A,3,34,09,30,02,36,05,,,,,,,1.44,0.71,1.25,3*0D
$GNGSA,A,3,04,28,07,34,11,14,10,08,,,,,1.44,0.71,1.25,4*07
$GPGSV,2,1,08,02,12,270,,11,15,264,,12,09,323,,14,31,188,,0*60
$GPGSV,2,2,08,14,31,188,,20,03,221,,40,06,259,,41,27,238,,0*6E
$GLGSV,2,1,06,65,24,166,19,71,31,043,27,72,51,109,47,78,26,299,24,1*72
$GLGSV,2,2,06,87,53,002,45,88,28,306,45,1*7A
$GLGSV,2,1,06,65,24,166,12,71,31,043,32,72,51,109,35,77,24,237,10,3*74
$GLGSV,2,2,06,78,26,299,34,88,28,306,35,3*7B
$GLGSV,1,1,03,76,00,197,,79,02,343,,86,23,077,,0*43
$GAGSV,2,1,05,05,20,148,20,09,30,093,43,30,40,285,44,34,51,299,37,2*72
$GAGSV,2,2,05,36,55,041,36,2*46
$GAGSV,2,1,07,02,39,214,20,05,20,148,21,09,30,093,43,18,47,307,48,7*76
$GAGSV,2,2,07,30,40,285,41,34,51,299,43,36,55,041,45,7*4E
$GAGSV,2,1,05,04,11,042,,11,13,074,,15,07,270,,25,06,175,,0*75
$GAGSV,2,2,05,25,06,175,,0*43
$GBGSV,3,1,09,04,35,132,39,07,68,219,40,08,52,254,26,10,67,255,39,1*72
$GBGSV,3,2,09,11,42,084,36,14,55,130,43,28,42,308,47,34,23,098,36,1*77
$GBGSV,3,3,09,37,18,277,21,1*43
$GNRMC,042455.00,A,3727.0689903,N,12639.3444915,E,0.013,,220622,,,R,V*08
$GNVTG,,T,,M,0.013,N,0.024,K,D*3C
$GNGNS,042455.00,3727.0689903,N,12639.3444915,E,RRRR,27,0.71,26.895,17.840,,4095,V*28
$GNGGA,042455.00,3727.0689903,N,12639.3444915,E,4,12,0.71,26.895,M,17.840,M,,4095*7B
$GNGSA,A,3,17,03,09,19,06,01,04,,,,,,1.44,0.71,1.25,1*07
$GNGSA,A,3,65,78,88,72,71,87,77,,,,,,1.44,0.71,1.25,2*03
$GNGSA,A,3,34,09,30,02,36,05,,,,,,,1.44,0.71,1.25,3*0D
$GNGSA,A,3,04,28,07,34,11,14,10,08,,,,,1.44,0.71,1.25,4*07
$GPGSV,2,1,07,01,11,068,22,03,37,047,35,04,22,097,40,06,50,289,45,1*62
$GPGSV,2,2,07,09,20,132,34,17,77,064,42,19,67,335,44,1*51
$GPGSV,1,1,01,14,31,188,15,5*53
$GPGSV,2,1,06,01,11,068,18,03,37,047,37,04,22,097,29,06,50,289,39,6*6B
$GPGSV,2,2,06,09,20,132,31,17,77,064,36,6*6D
$GPGSV,2,2,07,20,03,221,,40,06,259,,41,27,238,,0*57
$GLGSV,2,1,06,65,24,166,19,71,31,043,27,72,51,109,46,78,26,299,24,1*73
$GLGSV,2,2,06,87,53,002,45,88,28,306,45,1*7A
$GLGSV,2,1,06,65,24,166,08,71,31,043,32,72,51,109,35,77,24,237,09,3*77
$GLGSV,2,2,06,78,26,299,34,88,28,306,35,3*7B
$GLGSV,1,1,03,76,00,197,,79,02,343,,86,23,077,,0*43
$GAGSV,2,1,05,05,20,148,20,09,30,093,43,30,40,285,43,34,51,299,37,2*75
$GAGSV,2,2,05,36,55,041,35,2*45
$GAGSV,2,1,07,02,39,214,19,05,20,148,20,09,30,093,43,18,47,307,48,7*7D
$GAGSV,2,2,07,30,40,285,42,34,51,299,42,36,55,041,45,7*4C
$GAGSV,2,1,05,04,11,042,,11,13,074,,15,07,270,,25,06,175,,0*75
$GAGSV,2,2,05,25,06,175,,0*43
$GBGSV,3,1,09,04,35,132,38,07,67,218,40,08,52,254,26,10,67,255,39,1*7D
$GBGSV,3,2,09,11,42,084,35,14,55,130,43,28,42,308,47,34,23,098,37,1*75
$GBGSV,3,3,09,37,18,277,22,1*40
$GBGSV,2,1,06,04,35,132,42,07,67,218,42,08,52,254,26,10,67,255,42,3*72
$GBGSV,2,2,06,11,42,084,46,14,55,130,3$GBGSV,2,1,07,01,43,152,,02,28,236,,03,44,206,,05,08,256,,0*77
$GBGSV,2,2,07,05,08,256,,13,43,250,,21,15,039,,0*43
$GNRMC,042456.00,A,3727.0689892,N,12639.3444919,E,0.009,,220622,,,R,V*05
$GNVTG,,T,,M,0.009,N,0.017,K,D*37
$GNGNS,042456.00,3727.0689892,N,12639.3444919,E,RRRR,28,0.71,26.899,17.840,,4095,V*2D
$GNGSA,A,3,17,03,09,19,06,01,04,,,,,,1.44,0.71,1.25,1*07
$GNGSA,A,3,65,78,88,72,71,87,77,,,,,,1.44,0.71,1.25,2*03
$GNGSA,A,3,34,09,30,02,36,05,,,,,,,1.44,0.71,1.25,3*0D
$GNGSA,A,3,04,28,07,34,11,14,10,08,,,,,1.44,0.71,1.25,4*07
$GPGSV,2,1,06,03,37,047,36,04,22,097,41,06,50,289,45,09,20,132,35,1*63
$GPGSV,2,2,06,17,77,064,43,19,67,335,44,1*6D
$GPGSV,2,1,07,01,11,068,15,03,37,047,37,04,22,097,29,06,50,289,39,6*67
$GPGSV,2,2,07,09,20,132,30,14,31,188,15,17,77,064,36,6*5F
$GPGSV,2,1,07,02,12,270,,11,15,264,,12,09,323,,20,03,221,,0*69
$GPGSV,2,2,07,20,03,221,,40,06,259,,41,27,238,,0*57
$GLGSV,2,1,06,65,24,166,18,71,31,043,27,72,51,109,46,78,26,299,22,1*74
$GLGSV,2,2,06,87,53,002,44,88,28,306,45,1*7B
$GLGSV,2,1,06,65,24,166,09,71,31,043,32,72,51,109,35,77,24,237,09,3*76
$GLGSV,2,2,06,78,26,299,33,88,28,306,35,3*7C
$GLGSV,1,1,03,76,00,197,,79,02,343,,86,23,077,,0*43
$GAGSV,2,1,05,05,20,148,19,09,30,093,43,30,40,285,4$GAGSV,2,2,05,36,55,041,35,2*45
$GAGSV,2,1,07,02,39,214,19,05,20,148,20,09,30,093,44,18,47,307,48,7*7A
$GAGSV,2,2,07,30,40,285,42,34,51,299,42,36,55,041,45,7*4C
$GAGSV,2,1,05,04,11,042,,11,13,074,,15,07,270,,25,06,175,,0*75
$GAGSV,2,2,05,25,06,175,,0*43
$GBGSV,3,1,09,04,35,132,38,07,67,218,40,08,53,255,27,10,67,255,39,1*7C
$GBGSV,3,2,09,11,42,084,36,14,55,130,43,28,42,308,47,34,23,098,37,1*76
$GBGSV,3,3,09,37,18,277,20,1*42
$GBGSV,2,1,06,04,35,132,42,07,67,218,42,08,53,255,26,10,67,255,42,3*72
$GBGSV,2,2,06,11,42,084,46,14,55,130,34,3*7A
$GBGSV,2,1,07,01,43,152,,02,28,236,,03,44,206,,05,08,256,,0*77
$GBGSV,2,2,07,05,08,256,,13,43,250,,21,15,039,,0*43
$GNRMC,042457.00,A,3727.0689942,N,12639.3444925,E,0.002,,220622,,,R,V*0C
$GNVTG,,T,,M,0.002,N,0.004,K,D*3E
$GNGNS,042457.00,3727.0689942,N,12639.3444925,E,RRRR,26,0.71,26.907,17.840,,4095,V*27
$GNGGA,042457.00,3727.0689942,N,12639.3444925,E,4,12,0.71,26.907,M,17.840,M,,4095*75
$GNGSA,A,3,17,03,09,19,06,01,04,,,,,,1.44,0.71,1.25,1*07
$GNGSA,A,3,65,78,88,72,71,87,77,,,,,,1.44,0.71,1.25,2*03
$GNGSA,A,3,34,09,30,02,36,05,,,,,,,1.44,0.71,1.25,3*0D
$GNGSA,A,3,04,28,07,34,11,14,10,08,,,,,1.44,0.71,1.25,4*07
$GPGSV,2,1,06,03,37,047,37,04,22,097,41,06,50,289,44,09,20,132,35,1*63
$GPGSV,2,2,06,17,77,064,44,19,67,335,43,1*6D
$GPGSV,2,1,07,01,11,068,15,03,37,047,36,04,22,097,29,06,50,289,39,6*66
$GPGSV,2,2,07,09,20,132,30,14,31,188,15,17,77,064,36,6*5F
$GPGSV,2,1,07,02,12,270,,11,15,264,,12,09,323,,20,03,221,,0*69
$GPGSV,2,2,07,20,03,221,,40,06,259,,41,27,238,,0*57
$GLGSV,2,1,06,65,24,166,19,71,31,043,28,72,51,109,47,78,26,299,19,1*73
$GLGSV,2,2,06,87,53,002,45,88,28,306,45,1*7A
$GLGSV,2,1,06,65,24,166,11,71,31,043,32,72,51,109,35,77,24,237,11,3*76
$GLGSV,2,2,06,78,26,299,33,88,28,306,35,3*7C
$GLGSV,1,1,03,76,00,197,,79,02,343,,86,23,077,,0*43
$GAGSV,2,1,05,05,20,148,20,09,30,093,43,30,40,285,44,34,51,299,38,2*7D
$GAGSV,2,2,05,36,55,041,36,2*46
$GAGSV,2,1,07,02,39,214,19,05,20,148,19,09,30,093,44,18,47,307,48,7*70
$GAGSV,2,2,07,30,40,285,42,34,51,299,43,36,55,041,45,7*4D
$GAGSV,2,1,05,04,11,042,,11,13,074,,15,07,270,,25,06,175,,0*75
$GAGSV,2,2,05,25,06,175,,0*43
$GBGSV,3,1,09,04,35,132,38,07,67,218,40,08,53,255,27,10,67,255,39,1*7C
$GBGSV,3,2,09,11,42,084,36,14,55,130,43,28,42,308,46,34,23,098,37,1*77
$GBGSV,3,3,09,37,18,277,21,1*43
$GBGSV,2,1,06,04,35,132,42,07,67,218,42,08,53,255,26,10,67,255,42,3*72
$GBGSV,2,2,06,11,42,084,46,14,55,130,35,3*7B
$GBGSV,2,1,07,01,43,152,,02,28,236,,03,44,206,,05,08,256,,0*77
$GBGSV,2,2,07,05,08,256,,13,43,250,,21,15,039,,0*43
$GNRMC,042458.00,A,3727.0689925,N,12639.3444940,E,0.001,,220622,,,R,V*02
$GNVTG,,T,,M,0.001,N,0.003,K,D*3A
$GNGNS,042458.00,3727.0689925,N,12639.3444940,E,RRRR,26,0.71,26.909,17.840,,4095,V*24
$GNGGA,042458.00,3727.0689925,N,12639.3444940,E,4,12,0.71,26.909,M,17.840,M,,4095*76
$GNGSA,A,3,17,03,09,19,06,01,04,,,,,,1.44,0.71,1.25,1*07
$GNGSA,A,3,65,78,88,72,71,87,77,,,,,,1.44,0.71,1.25,2*03
$GNGSA,A,3,34,09,30,02,36,05,,,,,,,1.44,0.71,1.25,3*0D
$GNGSA,A,3,04,28,07,34,11,14,10,08,,,,,1.44,0.71,1.25,4*07
$GPGSV,2,1,06,03,37,047,38,04,22,097,40,06,50,289,44,09,20,132,35,1*6D
$GPGSV,2,2,06,17,77,064,44,19,67,335,44,1*6A
$GPGSV,2,1,07,01,11,068,15,03,37,047,35,04,22,097,29,06,50,289,39,6*65
$GPGSV,2,2,07,09,20,132,31,14,31,188,16,17,77,064,36,6*5D
$GPGSV,2,1,07,02,12,270,,11,15,264,,12,09,323,,20,03,221,,0*69
$GPGSV,2,2,07,20,03,221,,40,06,259,,41,27,238,,0*57
$GLGSV,2,1,06,65,24,166,19,71,31,043,27,72,51,109,48,78,26,299,21,1*78
$GLGSV,2,2,06,87,53,002,45,88,28,306,46,1*79
$GLGSV,2,1,06,65,24,166,15,71,31,043,32,72,51,109,35,77,24,237,10,3*73
$GLGSV,2,2,06,78,26,299,32,88,28,306,36,3*7E
$GLGSV,1,1,03,76,00,197,,79,02,343,,86,23,077,,0*43
$GAGSV,2,1,05,05,20,148,21,09,30,093,43,30,40,285,44,34,51,299,38,2*7C
$GAGSV,2,2,05,36,55,041,36,2*46
$GAGSV,2,1,07,02,39,214,18,05,20,148,19,09,30,093,44,18,47,307,48,7*71
$GAGSV,2,2,07,30,40,285,42,34,51,299,43,36,55,041,45,7*4D
$GAGSV,2,1,05,04,11,042,,11,13,074,,15,07,270,,25,06,175,,0*75
$GAGSV,2,2,05,25,06,175,,0*43
$GBGSV,3,1,09,04,35,132,38,07,67,218,40,08,53,255,28,10,67,254,39,1*72
$GBGSV,3,2,09,11,42,084,37,14,55,130,43,28,42,308,46,34,23,098,37,1*76
$GBGSV,3,3,09,37,18,277,22,1*40
$GBGSV,2,1,06,04,35,132,42,07,67,218,42,08,53,255,26,10,67,254,42,3*73
$GBGSV,2,2,06,11,42,084,46,14,55,130,35,3*7B
$GBGSV,2,1,07,01,43,152,,02,28,236,,03,44,206,,05,08,256,,0*77
$GBGSV,2,2,07,05,08,256,,13,43,250,,21,15,039,,0*43
$GNRMC,042459.00,A,3727.0689916,N,12639.3444919,E,0.037,,220622,,,R,V*0A
$GNVTG,,T,,M,0.037,N,0.068,K,D*32
$GNGNS,042459.00,3727.0689916,N,12639.3444919,E,RRRR,28,0.71,26.914,17.840,,4095,V*2B
$GNGGA,042459.00,3727.0689916,N,12639.3444919,E,4,12,0.71,26.914,M,17.840,M,,4095*77
$GNGSA,A,3,17,03,09,19,06,01,04,14,,,,,1.44,0.71,1.25,1*02
$GNGSA,A,3,65,78,88,72,71,87,,,,,,,1.44,0.71,1.25,2*03
$GNGSA,A,3,34,09,30,02,36,05,,,,,,,1.44,0.71,1.25,3*0D
$GNGSA,A,3,04,28,07,34,11,14,10,08,,,,,1.44,0.71,1.25,4*07
$GPGSV,2,1,06,03,37,047,39,04,22,097,40,06,50,289,44,09,20,132,34,1*6D
$GPGSV,2,2,06,17,77,064,45,19,67,335,44,1*6B
$GPGSV,2,1,07,01,11,068,18,03,37,047,34,04,22,097,29,06,50,289,39,6*69
$GPGSV,2,2,07,09,20,132,30,14,31,188,17,17,77,064,35,6*5E
$GPGSV,2,1,07,02,12,270,,11,15,264,,12,09,323,,20,03,221,,0*69
$GPGSV,2,2,07,20,03,221,,40,06,259,,41,27,238,,0*57
$GLGSV,2,1,06,65,24,166,20,71,31,043,33,72,51,109,47,78,26,299,25,1*7C
$GLGSV,2,2,06,87,53,002,46,88,28,306,46,1*7A
$GLGSV,2,1,06,65,24,166,13,71,31,043,31,72,51,109,35,77,24,237,09,3*7E
$GLGSV,2,2,06,78,26,299,33,88,28,306,35,3*7C
$GLGSV,1,1,03,76,00,197,,79,02,343,,86,23,077,,0*43
$GAGSV,2,1,05,05,20,148,20,09,30,093,42,30,40,285,45,34,51,299,39,2*7C
$GAGSV,2,2,05,36,55,041,36,2*46
$GAGSV,2,1,07,02,39,214,17,05,20,148,20,09,30,093,44,18,47,307,49,7*75
$GAGSV,2,2,07,30,40,285,42,34,51,299,43,36,55,041,44,7*4C
$GAGSV,2,1,05,04,11,042,,11,13,074,,15,07,270,,25,06,175,,0*75
$GAGSV,2,2,05,25,06,175,,0*43
$GBGSV,3,1,09,04,35,132,37,07,67,218,40,08,53,255,27,10,67,254,40,1*7C
$GBGSV,3,2,09,11,41,085,36,14,55,130,43,28,42,308,45,34,23,098,37,1*76
$GBGSV,3,3,09,37,18,277,22,1*40
$GBGSV,2,1,06,04,35,132,42,07,67,218,42,08,53,255,27,10,67,254,43,3*73
$GBGSV,2,2,06,11,41,085,44,14,55,130,35,3*7B
$GBGSV,2,1,07,01,43,152,,02,28,236,,03,44,206,,05,08,256,,0*77
$GBGSV,2,2,07,05,08,256,,13,43,250,,21,15,039,,0*43
$GNRMC,042500.00,A,3727.0689912,N,12639.3444931,E,0.019,,220622,,,R,V*05
$GNVTG,,T,,M,0.019,N,0.036,K,D*35
$GNGNS,042500.00,3727.0689912,N,12639.3444931,E,RRRR,26,0.71,26.915,17.840,,4095,V*27
$GNGGA,042500.00,3727.0689912,N,12639.3444931,E,4,12,0.71,26.915,M,17.840,M,,4095*75
$GNGSA,A,3,17,03,09,19,06,01,04,14,,,,,1.44,0.71,1.25,1*02
$GNGSA,A,3,65,78,88,72,71,87,,,,,,,1.44,0.71,1.25,2*03
$GNGSA,A,3,34,09,30,02,36,05,,,,,,,1.44,0.71,1.25,3*0D
$GNGSA,A,3,04,28,07,34,11,14,10,08,,,,,1.44,0.71,1.25,4*07
$GPGSV,2,1,06,03,37,047,40,04,22,097,41,06,50,289,44,09,20,132,33,1*65
$GPGSV,2,2,06,17,77,064,46,19,67,335,46,1*6A
$GPGSV,2,1,07,01,11,068,29,03,37,047,29,04,22,097,32,06,50,289,38,6*6C
$GPGSV,2,2,07,09,20,132,29,14,31,188,18,17,77,064,32,6*5E
$GPGSV,2,1,07,02,12,270,,11,15,264,,12,09,323,,20,03,221,,0*69
$GPGSV,2,2,07,20,03,221,,40,06,259,,41,27,238,,0*57
$GLGSV,2,1,06,65,24,166,21,71,31,043,29,72,51,109,48,78,26,299,31,1*7C
$GLGSV,2,2,06,87,53,002,45,88,28,306,45,1*7A
$GLGSV,2,1,06,65,24,166,10,71,31,043,30,72,51,109,35,77,24,237,11,3*75
$GLGSV,2,2,06,78,26,299,34,88,28,306,32,3*7C
$GLGSV,1,1,03,76,00,197,,79,02,343,,86,23,077,,0*43
$GBGSV,3,1,09,04,35,132,37,07,67,218,40,08,53,255,28,10,67,254,41,1*72
$GBGSV,3,2,09,11,41,085,38,14,55,130,44,28,42,308,43,34,23,098,38,1*76
$GNRMC,042501.00,A,3727.0689915,N,12639.3444914,E,0.010,,220622,,,R,V*0D
$GNVTG,,T,,M,0.010,N,0.018,K,D*30
$GNGNS,042501.00,3727.0689915,N,12639.3444914,E,RRRR,27,0.71,26.920,17.840,,4095,V*21
$GNGGA,042501.00,3727.0689915,N,12639.3444914,E,4,12,0.71,26.920,M,17.840,M,,4095*72
$GNGSA,A,3,17,03,09,19,06,01,04,14,,,,,1.44,0.71,1.25,1*02
$GNGSA,A,3,65,78,88,72,71,77,87,,,,,,1.44,0.71,1.25,2*03
$GNGSA,A,3,34,09,30,36,05,,,,,,,,1.44,0.71,1.25,3*0F
$GNGSA,A,3,04,28,07,34,11,14,10,08,,,,,1.44,0.71,1.25,4*07
$GPGSV,2,1,06,03,37,047,36,04,22,097,42,06,50,289,44,09,20,132,33,1*67
$GPGSV,2,2,06,17,77,064,45,19,67,335,45,1*6A
$GPGSV,2,1,07,01,11,068,16,03,37,047,32,04,22,097,32,06,50,289,39,6*6B
$GPGSV,2,2,07,09,20,132,30,14,31,188,19,17,77,064,35,6*50
$GPGSV,2,1,07,02,12,270,,11,15,264,,12,09,323,,20,03,221,,0*69
$GPGSV,2,2,07,20,03,221,,40,06,259,,41,27,238,,0*57
$GLGSV,2,1,06,65,24,166,21,71,31,043,33,72,51,109,46,78,26,299,32,1*7A
$GLGSV,2,2,06,87,53,002,46,88,28,306,45,1*79
$GLGSV,2,1,06,65,24,166,10,71,31,043,28,72,51,109,35,77,24,237,11,3*7C
$GLGSV,2,2,06,78,26,299,34,88,28,306,35,3*7B
$GLGSV,1,1,03,76,00,197,,79,02,343,,86,23,077,,0*43
$GAGSV,2,1,05,05,20,148,18,09,30,093,40,30,40,285,44,34,51,299,39,2*74
$GAGSV,2,2,05,36,55,041,37,2*47
$GAGSV,2,1,06,05,20,148,19,09,30,093,41,18,47,307,48,30,40,285,42,7*7D
$GAGSV,2,2,06,34,51,299,43,36,55,041,44,7*73
$GAGSV,2,1,06,02,39,214,,04,11,042,,11,13,074,,15,07,270,,0*7B
$GAGSV,2,2,06,15,07,270,,25,06,175,,0*76
$GBGSV,3,1,09,04,35,132,37,07,67,218,40,08,53,255,27,10,67,254,38,1*73
$GBGSV,3,2,09,11,41,085,36,14,55,130,41,28,42,308,43,34,23,098,34,1*71
$GBGSV,3,3,09,37,18,277,16,1*47
$GBGSV,2,1,06,04,35,132,42,07,67,218,43,08,53,255,26,10,67,254,41,3*71
$GBGSV,2,2,06,11,41,085,44,14,55,130,32,3*7C
$GBGSV,2,1,07,01,43,152,,02,28,236,,03,44,206,,05,08,256,,0*77
$GBGSV,2,2,07,05,08,256,,13,43,250,,21,15,039,,0*43
$GNRMC,042502.00,A,3727.0689926,N,12639.3444910,E,0.036,,220622,,,R,V*0E
$GNVTG,,T,,M,0.036,N,0.067,K,D*3C
$GNGNS,042502.00,3727.0689926,N,12639.3444910,E,RRRR,28,0.71,26.919,17.840,,4095,V*23
$GNGGA,042502.00,3727.0689926,N,12639.3444910,E,4,12,0.71,26.919,M,17.840,M,,4095*7F
$GNGSA,A,3,17,03,09,19,06,01,04,14,,,,,1.44,0.71,1.25,1*02
$GNGSA,A,3,65,78,88,72,71,77,87,,,,,,1.44,0.71,1.25,2*03
$GNGSA,A,3,34,09,30,36,05,,,,,,,,1.44,0.71,1.25,3*0F
$GNGSA,A,3,04,28,07,34,11,14,10,08,,,,,1.44,0.71,1.25,4*07
$GPGSV,2,1,06,03,37,047,35,04,22,097,42,06,50,289,42,09,20,132,33,1*62
$GPGSV,2,2,06,17,77,064,43,19,67,335,45,1*6C
$GPGSV,2,1,07,01,11,068,18,03,37,047,36,04,22,097,31,06,50,289,38,6*63
$GPGSV,2,2,07,09,20,132,30,14,31,188,19,17,77,064,36,6*53
$GPGSV,2,1,07,02,12,270,,11,15,264,,12,09,323,,20,03,221,,0*69
$GPGSV,2,2,07,20,03,221,,40,06,259,,41,27,238,,0*57
$GLGSV,2,1,06,65,24,166,20,71,31,043,35,72,51,109,45,78,26,299,31,1*7D
$GLGSV,2,2,06,87,53,002,44,88,28,306,46,1*78
$GLGSV,2,1,06,65,24,166,10,71,31,043,29,72,51,109,34,77,24,237,10,3*7D
$GLGSV,2,2,06,78,26,299,30,88,28,306,36,3*7C
$GLGSV,1,1,03,76,00,197,,79,02,343,,86,23,077,,0*43
$GAGSV,2,1,05,05,20,148,19,09,30,093,43,30,40,285,44,34,51,299,36,2*79
$GAGSV,2,2,05,36,55,041,33,2*43
$GAGSV,2,1,06,05,20,148,19,09,30,093,44,18,47,307,48,30,40,285,42,7*78
$GAGSV,2,2,06,34,51,299,42,36,55,041,43,7*75
$GAGSV,2,1,06,02,39,214,,04,11,042,,11,13,074,,15,07,270,,0*7B
$GAGSV,2,2,06,15,07,270,,25,06,175,,0*76
$GBGSV,3,1,09,04,35,132,37,07,67,218,40,08,53,255,28,10,67,254,35,1*71
$GBGSV,3,2,09,11,41,085,35,14,56,129,40,28,42,308,45,34,23,098,35,1*7F
$GBGSV,3,3,09,37,18,277,18,1*49
$GBGSV,2,1,06,04,35,132,41,07,67,218,43,08,53,255,26,10,67,254,39,3*7D
$GBGSV,2,2,06,11,41,085,46,14,56,129,28,3*7E
$GBGSV,2,1,07,01,43,152,,02,28,236,,03,44,206,,05,08,256,,0*77
$GBGSV,2,2,07,05,08,256,,13,43,250,,21,15,039,,0*43
$GNRMC,042503.00,A,3727.0689931,N,12639.3444914,E,0.014,,220622,,,R,V*0D
$GNVTG,,T,,M,0.014,N,0.026,K,D*39
$GNGNS,042503.00,3727.0689931,N,12639.3444914,E,RRRR,27,0.71,26.934,17.840,,4095,V*20
$GNGGA,042503.00,3727.0689931,N,12639.3444914,E,4,12,0.71,26.934,M,17.840,M,,4095*73
$GNGSA,A,3,17,03,09,19,06,01,04,14,,,,,1.44,0.71,1.25,1*02
$GNGSA,A,3,65,78,88,72,71,77,87,,,,,,1.44,0.71,1.25,2*03
$GNGSA,A,3,34,09,30,36,05,,,,,,,,1.44,0.71,1.25,3*0F
$GNGSA,A,3,04,28,07,34,11,14,10,08,,,,,1.44,0.71,1.25,4*07
$GPGSV,2,1,06,03,37,047,35,04,22,097,41,06,50,289,43,09,20,132,34,1*67
$GPGSV,2,2,06,17,77,064,44,19,67,335,44,1*6A
$GPGSV,2,1,07,01,11,068,18,03,37,047,33,04,22,097,30,06,50,289,39,6*66
$GPGSV,2,2,07,09,20,132,30,14,31,188,19,17,77,064,36,6*53
$GPGSV,2,1,07,02,12,270,,11,15,264,,12,09,323,,20,03,221,,0*69
$GPGSV,2,2,07,20,03,221,,40,06,259,,41,27,238,,0*57
$GLGSV,2,1,06,65,24,166,21,71,31,043,31,72,51,109,46,78,26,299,30,1*7A
$GLGSV,2,2,06,87,53,002,45,88,28,306,45,1*7A
$GLGSV,2,1,06,65,24,166,13,71,31,043,29,72,51,109,34,77,24,237,11,3*7F
$GLGSV,2,2,06,78,26,299,32,88,28,306,36,3*7E
$GLGSV,1,1,03,76,00,197,,79,02,343,,86,23,077,,0*43
$GAGSV,2,1,06,02,39,214,17,05,20,148,20,09,30,093,43,30,40,285,44,2*7D
$GAGSV,2,2,06,34,51,299,37,36,55,041,36,2*70
$GAGSV,2,1,06,05,20,148,20,09,30,093,43,18,47,307,47,30,40,285,42,7*7A
$GAGSV,2,2,06,34,51,299,42,36,55,041,44,7*72
$GAGSV,2,1,05,04,11,042,,11,13,074,,15,07,270,,25,06,175,,0*75
$GAGSV,2,2,05,25,06,175,,0*43
$GBGSV,3,1,09,04,35,132,37,07,67,218,41,08,53,255,27,10,67,254,38,1*72
$GBGSV,3,2,09,11,41,085,35,14,56,129,43,28,42,308,45,34,23,098,36,1*7F
$GBGSV,3,3,09,37,18,277,19,1*48
$GBGSV,2,1,06,04,35,132,42,07,67,218,43,08,53,255,26,10,67,254,41,3*71
$GBGSV,2,2,06,11,41,085,45,14,56,129,32,3*76
$GBGSV,2,1,07,01,43,152,,02,28,236,,03,44,206,,05,08,256,,0*77
$GBGSV,2,2,07,05,08,256,,13,43,250,,21,15,039,,0*43
$GNRMC,042504.00,A,3727.0689984,N,12639.3444929,E,0.012,,220622,,,R,V*0C
$GNVTG,,T,,M,0.012,N,0.023,K,D*3A
$GNGNS,042504.00,3727.0689984,N,12639.3444929,E,RRRR,27,0.71,26.937,17.840,,4095,V*24
$GNGGA,042504.00,3727.0689984,N,12639.3444929,E,4,12,0.71,26.937,M,17.840,M,,4095*77
$GNGSA,A,3,17,03,09,19,06,01,04,14,,,,,1.44,0.71,1.25,1*02
$GNGSA,A,3,65,78,88,72,71,77,87,,,,,,1.44,0.71,1.25,2*03
$GNGSA,A,3,34,09,30,36,05,,,,,,,,1.44,0.71,1.25,3*0F
$GNGSA,A,3,04,28,07,34,11,14,10,08,,,,,1.44,0.71,1.25,4*07
$GPGSV,2,1,06,03,37,047,36,04,22,097,41,06,50,289,42,09,20,132,34,1*65
$GPGSV,2,2,06,17,77,064,43,19,67,335,44,1*6D
$GPGSV,2,1,07,01,11,068,16,03,37,047,34,04,22,097,31,06,50,289,39,6*6E
$GPGSV,2,2,07,09,20,132,29,14,31,188,18,17,77,064,36,6*5A
$GPGSV,2,1,07,02,12,270,,11,15,264,,12,09,323,,20,03,221,,0*69
$GPGSV,2,2,07,20,03,221,,40,06,259,,41,27,238,,0*57
$GLGSV,2,1,06,65,24,166,21,71,31,043,30,72,51,109,46,78,26,299,29,1*73
$GLGSV,2,2,06,87,53,002,44,88,28,306,46,1*78
$GLGSV,2,1,06,65,24,166,10,71,31,043,28,72,51,109,34,77,24,237,13,3*7F
$GLGSV,2,2,06,78,26,299,32,88,28,306,36,3*7E
$GLGSV,1,1,03,76,00,197,,79,02,343,,86,23,077,,0*43
$GAGSV,2,1,05,05,20,148,20,09,30,093,42,30,40,285,44,34,51,299,37,2*73
$GAGSV,2,2,05,36,55,041,35,2*45
$GAGSV,2,1,06,05,20,148,20,09,30,093,42,18,47,307,47,30,40,285,42,7*7B
$GAGSV,2,2,06,34,51,299,43,36,55,041,44,7*73
$GAGSV,2,1,06,02,39,214,,04,11,042,,11,13,074,,15,07,270,,0*7B
$GAGSV,2,2,06,15,07,270,,25,06,175,,0*76
$GBGSV,3,1,09,04,35,132,37,07,67,218,41,08,53,255,27,10,67,254,38,1*72
$GBGSV,3,2,09,11,41,085,34,14,56,129,42,28,42,308,44,34,23,098,37,1*7F
$GBGSV,3,3,09,37,18,277,18,1*49
$GBGSV,2,1,06,04,35,132,42,07,67,218,43,08,53,255,26,10,67,254,41,3*71
$GBGSV,2,2,06,11,41,085,45,14,56,129,31,3*75
$GNRMC,042505.00,A,3727.0689970,N,12639.3444929,E,0.012,,220622,,,R,V*06
$GNVTG,,T,,M,0.012,N,0.022,K,D*3B
$GNGNS,042505.00,3727.0689970,N,12639.3444929,E,RRRR,28,0.71,26.939,17.840,,4095,V*2F
$GNGGA,042505.00,3727.0689970,N,12639.3444929,E,4,12,0.71,26.939,M,17.840,M,,4095*73
$GNGSA,A,3,17,03,09,19,06,01,04,14,,,,,1.44,0.71,1.25,1*02
$GNGSA,A,3,65,78,88,72,71,77,87,,,,,,1.44,0.71,1.25,2*03
$GNGSA,A,3,34,09,30,36,05,,,,,,,,1.44,0.71,1.25,3*0F
$GNGSA,A,3,04,28,07,34,11,14,10,08,,,,,1.44,0.71,1.25,4*07
$GPGSV,2,1,06,03,37,047,38,04,22,097,41,06,50,289,43,09,20,132,35,1*6B
$GPGSV,2,2,06,17,77,064,43,19,67,335,44,1*6D
$GPGSV,2,1,07,01,11,068,14,03,37,047,34,04,22,097,31,06,50,289,39,6*6C
$GPGSV,2,2,07,09,20,132,30,14,31,188,19,17,77,064,36,6*53
$GPGSV,2,1,07,02,12,270,,11,15,264,,12,09,323,,20,03,221,,0*69
$GPGSV,2,2,07,20,03,221,,40,06,259,,41,27,238,,0*57
$GLGSV,2,1,06,65,24,166,21,71,31,043,29,72,51,109,46,78,26,299,30,1*73
$GLGSV,2,2,06,87,53,002,45,88,28,306,46,1*79
$GLGSV,2,1,06,65,24,166,13,71,31,043,27,72,51,109,33,77,24,237,08,3*7E
$GLGSV,2,2,06,78,26,299,33,88,28,306,37,3*7E
$GLGSV,1,1,03,76,00,197,,79,02,343,,86,23,077,,0*43
$GAGSV,2,1,05,05,20,148,18,09,30,093,42,30,40,285,44,34,51,299,37,2*78
$GAGSV,2,2,05,36,55,041,35,2*45
$GAGSV,2,1,06,05,20,148,20,09,30,093,42,18,47,307,47,30,40,285,42,7*7B
$GAGSV,2,2,06,34,51,299,43,36,55,041,44,7*73
$GAGSV,2,1,06,02,39,214,,04,11,042,,11,13,074,,15,07,270,,0*7B
$GAGSV,2,2,06,15,07,270,,25,06,175,,0*76
$GBGSV,3,1,09,04,35,132,37,07,67,218,41,08,53,255,27,10,67,254,38,1*72
$GBGSV,3,2,09,11,41,085,34,14,56,129,42,28,42,308,44,34,23,098,36,1*7E
$GBGSV,3,3,09,37,18,277,18,1*49
$GBGSV,2,1,06,04,35,132,42,07,67,218,43,08,53,255,26,10,67,254,41,3*71
$GBGSV,2,2,06,11,41,085,45,14,56,129,32,3*76
$GBGSV,2,1,07,01,43,152,,02,28,236,,03,44,206,,05,08,256,,0*77
$GBGSV,2,2,07,05,08,256,,13,43,250,,21,15,039,,0*43
$GNRMC,042506.00,A,3727.0689955,N,12639.3444926,E,0.009,,220622,,,R,V*07
$GNVTG,,T,,M,0.009,N,0.016,K,D*36
$GNGNS,042506.00,3727.0689955,N,12639.3444926,E,RRRR,27,0.71,26.945,17.840,,4095,V*20
$GNGGA,042506.00,3727.0689955,N,12639.3444926,E,4,12,0.71,26.945,M,17.840,M,,4095*73
$GNGSA,A,3,17,03,09,19,06,01,04,14,,,,,1.44,0.71,1.25,1*02
$GNGSA,A,3,65,78,88,72,71,77,87,,,,,,1.44,0.71,1.25,2*03
$GNGSA,A,3,34,09,30,36,05,,,,,,,,1.44,0.71,1.25,3*0F
$GNGSA,A,3,04,28,07,34,11,14,10,08,,,,,1.44,0.71,1.25,4*07
$GPGSV,2,1,06,03,37,047,37,04,22,097,42,06,50,289,42,09,20,132,34,1*67
$GPGSV,2,2,06,17,77,064,43,19,67,335,44,1*6D
$GPGSV,2,1,07,01,11,068,14,03,37,047,33,04,22,097,31,06,50,289,39,6*6B
$GPGSV,2,2,07,09,20,132,31,14,31,188,20,17,77,064,36,6*58
$GPGSV,2,1,07,02,12,270,,11,15,264,,12,09,323,,20,03,221,,0*69
$GPGSV,2,2,07,20,03,221,,40,06,259,,41,27,238,,0*57
$GLGSV,2,1,06,65,24,166,20,71,31,043,28,72,51,109,45,78,26,299,29,1*78
$GLGSV,2,2,06,87,53,002,44,88,28,306,46,1*78
$GLGSV,2,1,06,65,24,166,13,71,31,043,27,72,51,109,32,77,24,237,09,3*7E
$GLGSV,2,2,06,78,26,299,35,88,28,306,37,3*78
$GLGSV,1,1,03,76,00,197,,79,02,343,,86,23,077,,0*43
$GAGSV,2,1,05,05,20,148,18,09,30,093,42,30,40,285,44,34,51,299,36,2*79
$GAGSV,2,2,05,36,55,041,35,2*45
$GAGSV,2,1,06,05,20,148,19,09,30,093,42,18,47,307,47,30,40,285,42,7*71
$GAGSV,2,2,06,34,51,299,43,36,55,041,45,7*72
$GAGSV,2,1,06,02,39,214,,04,11,042,,11,13,074,,15,07,270,,0*7B
$GAGSV,2,2,06,15,07,270,,25,06,175,,0*76
$GBGSV,3,1,09,04,35,132,36,07,67,218,41,08,53,255,27,10,67,254,37,1*7C
$GBGSV,3,2,09,11,41,085,34,14,56,129,41,28,42,308,45,34,23,098,36,1*7C
$GBGSV,3,3,09,37,18,277,19,1*48
$GBGSV,2,1,07,01,43,152,,02,28,236,,03,44,206,,05,08,256,,0*77
$GBGSV,2,2,07,05,08,256,,13,43,250,,21,14,039,,0*42
$GNRMC,042507.00,A,3727.0689948,N,12639.3444968,E,0.014,,220622,,,R,V*0C
$GNVTG,,T,,M,0.014,N,0.025,K,D*3A
$GNGNS,042507.00,3727.0689948,N,12639.3444968,E,RRRR,27,0.71,26.956,17.840,,4095,V*25
$GNGGA,042507.00,3727.0689948,N,12639.3444968,E,4,12,0.71,26.956,M,17.840,M,,4095*76
$GNGSA,A,3,17,03,09,19,06,01,04,14,,,,,1.44,0.71,1.25,1*02
$GNGSA,A,3,65,78,88,72,71,77,87,,,,,,1.44,0.71,1.25,2*03
$GNGSA,A,3,34,09,30,36,05,,,,,,,,1.44,0.71,1.25,3*0F
$GNGSA,A,3,04,28,07,34,11,14,10,08,,,,,1.44,0.71,1.25,4*07
$GPGSV,2,1,06,03,37,047,37,04,22,097,42,06,50,289,43,09,20,132,35,1*67
$GPGSV,2,2,06,17,77,064,44,19,67,335,44,1*6A
$GPGSV,2,1,07,01,11,068,15,03,37,047,32,04,22,097,31,06,50,289,39,6*6B
$GPGSV,2,2,07,09,20,132,31,14,31,188,20,17,77,064,36,6*58
$GPGSV,2,1,07,02,12,270,,11,15,264,,12,09,323,,20,03,221,,0*69
$GPGSV,2,2,07,20,03,221,,40,06,259,,41,27,238,,0*57
$GLGSV,2,1,06,65,24,166,19,71,31,043,28,72,51,109,46,78,26,299,30,1*79
$GLGSV,2,2,06,87,53,002,45,88,28,306,46,1*79
$GLGSV,2,1,06,65,24,166,13,71,31,043,27,72,51,109,33,77,24,237,08,3*7E
$GLGSV,2,2,06,78,26,299,34,88,28,306,37,3*79
$GLGSV,1,1,03,76,00,197,,79,02,343,,86,23,077,,0*43
$GAGSV,2,1,05,05,20,148,18,09,30,093,42,30,40,285,44,34,51,299,36,2*79
$GAGSV,2,2,05,36,55,041,35,2*45
$GAGSV,2,1,06,05,20,148,18,09,30,093,42,18,47,307,48,30,40,285,42,7*7F
$GAGSV,2,2,06,34,51,299,43,36,55,041,45,7*72
$GAGSV,2,1,06,02,39,214,,04,11,042,,11,13,074,,15,07,270,,0*7B
$GAGSV,2,2,06,15,07,270,,25,06,175,,0*76
$GBGSV,3,1,09,04,35,132,36,07,67,218,41,08,53,255,27,10,67,254,37,1*7C
$GBGSV,3,2,09,11,41,085,34,14,56,129,42,28,42,308,44,34,23,098,36,1*7E
$GBGSV,3,3,09,37,18,277,19,1*48
$GBGSV,2,1,06,04,35,132,42,07,67,218,43,08,53,255,27,10,67,254,41,3*70
$GBGSV,2,2,06,11,41,085,45,14,56,129,32,3*76
$GBGSV,2,1,07,01,43,152,,02,28,236,,03,44,206,,05,08,256,,0*77
$GBGSV,2,2,07,05,08,256,,13,43,250,,21,14,039,,0*42
$GNRMC,042508.00,A,3727.0689972,N,12639.3444938,E,0.008,,220622,,,R,V*02
$GNVTG,,T,,M,0.008,N,0.016,K,D*37
$GNGNS,042508.00,3727.0689972,N,12639.3444938,E,RRRR,28,0.71,26.946,17.840,,4095,V*28
$GNGGA,042508.00,3727.0689972,N,12639.3444938,E,4,12,0.71,26.946,M,17.840,M,,4095*74
$GNGSA,A,3,17,03,09,19,06,01,04,14,,,,,1.44,0.71,1.25,1*02
$GNGSA,A,3,65,78,88,72,71,77,87,,,,,,1.44,0.71,1.25,2*03
$GNGSA,A,3,34,09,30,36,05,,,,,,,,1.44,0.71,1.25,3*0F
$GNGSA,A,3,04,28,07,34,11,14,10,08,,,,,1.44,0.71,1.25,4*07
$GPGSV,2,1,06,03,37,047,37,04,22,097,41,06,50,289,43,09,20,132,35,1*64
$GPGSV,2,2,06,17,77,064,43,19,67,335,43,1*6A
$GPGSV,2,1,07,01,11,068,15,03,37,047,33,04,22,097,32,06,50,289,39,6*69
$GPGSV,2,2,07,09,20,132,30,14,31,188,20,17,77,064,35,6*5A
$GPGSV,2,1,07,02,12,270,,11,15,264,,12,09,323,,20,03,221,,0*69
$GPGSV,2,2,07,20,03,221,,40,06,259,,41,27,238,,0*57
$GLGSV,2,1,06,65,24,166,18,71,31,043,28,72,51,109,46,78,26,299,29,1*70
$GLGSV,2,2,06,87,53,002,45,88,28,306,46,1*79
$GLGSV,2,1,06,65,24,166,16,71,31,043,27,72,51,109,33,77,24,237,10,3*72
$GLGSV,2,2,06,78,26,299,34,88,28,306,37,3*79
$GLGSV,1,1,03,76,00,197,,79,02,343,,86,23,077,,0*43
$GAGSV,2,1,05,05,20,148,19,09,30,093,42,30,40,285,44,34,51,299,36,2*78
$GAGSV,2,2,05,36,55,041,35,2*45
$GAGSV,2,1,06,05,20,148,16,09,30,093,42,18,47,307,48,30,40,285,43,7*70
$GAGSV,2,2,06,34,51,299,43,36,55,041,45,7*72
$GAGSV,2,1,06,02,39,214,,04,11,042,,11,13,074,,15,07,270,,0*7B
$GAGSV,2,2,06,15,07,270,,25,06,175,,0*76
$GBGSV,3,1,09,04,35,132,36,07,67,218,41,08,53,255,28,10,67,254,38,1*7C
$GBGSV,3,2,09,11,41,085,35,14,56,129,42,28,42,308,44,34,23,098,37,1*7E
$GBGSV,3,3,09,37,18,277,19,1*48
$GBGSV,2,1,06,04,35,132,43,07,67,218,43,08,53,255,26,10,67,254,41,3*70
$GBGSV,2,2,06,11,41,085,45,14,56,129,32,3*76
$GBGSV,2,1,07,01,43,152,,02,28,236,,03,44,206,,05,08,256,,0*77
$GBGSV,2,2,07,05,08,256,,13,43,250,,21,14,039,,0*42
$GNRMC,042509.00,A,3727.0689999,N,12639.3444967,E,0.019,,220622,,,R,V*0C
$GNVTG,,T,,M,0.019,N,0.034,K,D*37
$GNGNS,042509.00,3727.0689999,N,12639.3444967,E,RRRR,27,0.74,26.945,17.840,,4095,V*2F
$GNGGA,042509.00,3727.0689999,N,12639.3444967,E,4,12,0.74,26.945,M,17.840,M,,4095*7C
$GNGSA,A,3,17,03,09,19,06,01,04,14,,,,,1.49,0.74,1.30,1*0E
$GNGSA,A,3,65,78,88,72,71,77,87,,,,,,1.49,0.74,1.30,2*0F
$GNGSA,A,3,34,09,30,36,05,,,,,,,,1.49,0.74,1.30,3*03
$GNGSA,A,3,04,28,07,34,11,14,10,08,,,,,1.49,0.74,1.30,4*0B
$GPGSV,2,1,06,03,37,047,39,04,22,097,41,06,50,289,43,09,20,132,34,1*6B
$GPGSV,2,2,06,17,77,064,43,19,67,335,43,1*6A
$GPGSV,2,1,07,01,11,068,13,03,37,047,34,04,22,097,31,06,50,289,38,6*6A
$GPGSV,2,2,07,09,20,132,30,14,31,188,20,17,77,064,35,6*5A
$GPGSV,2,1,07,02,12,270,,11,15,264,,12,09,323,,20,03,221,,0*69
$GPGSV,2,2,07,20,03,221,,40,06,259,,41,27,238,,0*57
$GLGSV,2,1,06,65,24,166,18,71,31,043,31,72,51,109,46,78,26,299,30,1*70
$GLGSV,2,2,06,87,53,002,44,88,28,306,45,1*7B
$GLGSV,2,1,06,65,24,166,13,71,31,043,26,72,51,109,33,77,24,237,10,3*76
$GLGSV,2,2,06,78,26,299,33,88,28,306,37,3*7E
$GLGSV,1,1,03,76,00,197,,79,02,343,,86,23,077,,0*43
$GAGSV,2,1,05,05,20,148,19,09,30,093,42,30,40,285,44,34,51,299,34,2*7A
$GAGSV,2,2,05,36,55,041,35,2*45
$GAGSV,2,1,06,05,20,148,16,09,30,093,43,18,47,307,47,30,40,285,42,7*7F
$GAGSV,2,2,06,34,51,299,43,36,55,041,45,7*72
$GAGSV,2,1,06,02,39,214,,04,11,042,,11,13,074,,15,07,270,,0*7B
$GAGSV,2,2,06,15,07,270,,25,06,175,,0*76
$GBGSV,3,1,09,04,35,132,36,07,67,218,41,08,53,255,29,10,67,254,37,1*72
$GBGSV,3,2,09,11,41,085,36,14,56,129,42,28,42,308,44,34,23,098,37,1*7D
$GBGSV,3,3,09,37,18,277,19,1*48
