$GNRMC,035148.00,A,3727.1203533,N,12639.1607756,E,0.013,,220622,,,F,V*13
$GNVTG,,T,,M,0.013,N,0.024,K,D*3C
$GNGNS,035148.00,3727.1203533,N,12639.1607756,E,FFFF,27,0.66,23.712,17.833,2.0,4095,V*0C
$GNGGA,035148.00,3727.1203533,N,12639.1607756,E,5,12,0.66,23.712,M,17.833,M,2.0,4095*5E
$GNGSA,A,3,14,19,06,17,04,03,01,,,,,,1.26,0.66,1.07,1*09
$GNGSA,A,3,78,76,72,88,71,87,77,,,,,,1.26,0.66,1.07,2*03
$GNGSA,A,3,30,09,34,02,11,36,,,,,,,1.26,0.66,1.07,3*0A
$GNGSA,A,3,11,23,08,34,37,07,28,10,,,,,1.26,0.66,1.07,4*01
$GPGSV,2,1,08,01,21,058,22,03,49,058,45,04,14,110,33,06,41,270,46,1*67
$GPGSV,2,2,08,14,46,194,24,17,73,004,50,19,53,321,35,28,,,30,1*53
$GPGSV,2,1,06,01,21,058,21,03,49,058,45,04,14,110,23,06,41,270,33,6*6E
$GPGSV,2,2,06,14,46,194,17,17,73,004,40,6*6A
$GPGSV,1,1,02,40,06,259,,41,27,238,,0*62
$GLGSV,2,1,07,71,37,062,29,72,37,128,17,76,14,204,10,77,36,252,26,1*7A
$GLGSV,2,2,07,78,23,317,30,87,49,334,43,88,18,291,27,1*40
$GLGSV,2,1,07,65,08,170,08,71,37,062,43,72,37,128,11,76,14,204,17,3*74
$GLGSV,2,2,07,77,36,252,32,78,23,317,32,88,18,291,23,3*44
$GLGSV,1,1,02,70,05,022,,86,31,060,,0*73
$GNRMC,035149.00,A,3727.1203845,N,12639.1607609,E,0.023,,220622,,,F,V*16
$GNVTG,,T,,M,0.023,N,0.043,K,D*3E
$GNGNS,035149.00,3727.1203845,N,12639.1607609,E,FFFF,28,0.66,23.700,17.833,2.0,4095,V*06
$GNGGA,035149.00,3727.1203845,N,12639.1607609,E,5,12,0.66,23.700,M,17.833,M,2.0,4095*5B
$GNGSA,A,3,14,19,06,17,04,03,01,,,,,,1.26,0.66,1.07,1*09
$GNGSA,A,3,78,76,72,88,71,87,77,,,,,,1.26,0.66,1.07,2*03
$GNGSA,A,3,30,09,34,02,11,36,,,,,,,1.26,0.66,1.07,3*0A
$GNGSA,A,3,11,23,08,34,37,07,28,10,,,,,1.26,0.66,1.07,4*01
$GPGSV,2,1,08,01,21,058,20,03,49,058,42,04,14,110,29,06,41,270,44,1*6B
$GPGSV,2,2,08,14,46,194,25,17,73,004,49,19,53,321,34,28,,,29,1*53
$GPGSV,2,1,06,01,21,058,18,03,49,058,44,04,14,110,23,06,41,270,37,6*61
$GPGSV,2,2,06,14,46,194,19,17,73,004,40,6*64
$GPGSV,1,1,02,40,06,259,,41,27,238,,0*62
$GLGSV,2,1,06,71,37,062,31,72,38,128,15,77,36,252,27,78,23,317,31,1*74
$GLGSV,2,2,06,87,49,334,44,88,18,291,27,1*7E
$GLGSV,2,1,07,65,08,170,10,71,37,062,44,72,38,128,16,76,14,204,12,3*77
$GLGSV,2,2,07,77,36,252,34,78,23,317,34,88,18,291,23,3*44
$GLGSV,1,1,02,70,05,022,,86,31,060,,0*73
$GAGSV,2,1,07,02,51,224,33,09,24,105,32,11,20,064,18,18,30,302,33,2*78
$GAGSV,2,2,07,30,37,300,41,34,45,282,47,36,62,022,37,2*48
$GAGSV,2,1,06,09,24,105,32,11,20,064,28,18,30,302,30,30,37,300,40,7*7E
$GAGSV,2,2,06,34,45,282,40,36,62,022,31,7*7C
$GAGSV,1,1,03,04,13,052,,15,00,260,,25,18,177,,0*49
$GBGSV,2,1,08,07,74,226,38,08,51,241,33,10,70,269,45,11,49,068,43,1*71
$GBGSV,2,2,08,23,23,236,30,28,33,298,39,34,31,087,32,37,21,290,26,1*7A
$GBGSV,2,1,05,07,74,226,37,08,51,241,34,10,70,269,42,11,49,068,45,3*77
$GBGSV,2,2,05,23,23,236,17,3*40
$GBGSV,1,1,01,03,44,206,,0*41
$GNRMC,035150.00,A,3727.1202937,N,12639.1607794,E,0.029,,220622,,,F,V*14
$GNVTG,,T,,M,0.029,N,0.053,K,D*35
$GNGNS,035150.00,3727.1202937,N,12639.1607794,E,FFFF,28,0.66,23.696,17.833,2.0,4095,V*00
$GNGGA,035150.00,3727.1202937,N,12639.1607794,E,5,12,0.66,23.696,M,17.833,M,2.0,4095*5D
$GNGSA,A,3,14,19,06,17,04,03,01,,,,,,1.26,0.66,1.07,1*09
$GNGSA,A,3,78,76,72,88,71,87,77,,,,,,1.26,0.66,1.07,2*03
$GNGSA,A,3,30,09,34,02,11,36,,,,,,,1.26,0.66,1.07,3*0A
$GNGSA,A,3,11,23,08,34,37,07,28,10,,,,,1.26,0.66,1.07,4*01
$GPGSV,2,1,08,01,21,058,20,03,49,058,45,04,14,110,30,06,41,270,44,1*64
$GPGSV,2,2,08,14,46,194,25,17,73,004,48,19,53,321,31,28,,,28,1*56
$GPGSV,2,1,06,01,21,058,19,03,49,058,43,04,14,110,23,06,41,270,35,6*65
$GPGSV,2,2,06,14,46,194,20,17,73,004,41,6*6F
$GPGSV,1,1,02,40,06,259,,41,27,238,,0*62
$GLGSV,2,1,07,71,37,062,31,72,38,128,17,76,14,204,19,77,36,252,28,1*7B
$GLGSV,2,2,07,78,23,317,28,87,49,334,44,88,18,291,32,1*4A
$GLGSV,2,1,07,65,08,170,09,71,37,062,43,72,38,128,09,76,14,204,13,3*77
$GLGSV,2,2,07,77,36,252,34,78,23,317,32,88,18,291,23,3*42
$GLGSV,1,1,02,70,05,022,,86,31,060,,0*73
$GAGSV,2,1,07,02,51,224,31,09,24,105,32,11,20,064,18,18,30,302,34,2*7D
$GAGSV,2,2,07,30,37,300,39,34,45,282,46,36,62,022,35,2*44
$GAGSV,2,1,07,02,51,224,29,09,24,105,27,11,20,064,27,18,30,302,31,7*7C
$GAGSV,2,2,07,30,37,300,41,34,45,282,42,36,62,022,32,7*4D
$GAGSV,1,1,03,04,13,052,,15,00,260,,25,18,177,,0*49
$GBGSV,2,1,08,07,74,226,38,08,51,241,34,10,70,269,45,11,49,068,43,1*76
$GBGSV,2,2,08,23,23,236,34,28,33,298,39,34,31,087,32,37,21,290,27,1*7F
$GBGSV,2,1,06,07,74,226,36,08,51,241,35,10,70,269,40,11,49,068,41,3*72
$GBGSV,2,2,06,23,23,236,14,37,21,290,08,3*74
$GBGSV,1,1,01,03,44,206,,0*41
$GNRMC,035151.00,A,3727.1201554,N,12639.1608039,E,0.018,,220622,,,F,V*12
$GNVTG,,T,,M,0.018,N,0.034,K,D*36
$GNGNS,035151.00,3727.1201554,N,12639.1608039,E,FFFF,28,0.66,23.746,17.833,2.0,4095,V*08
$GNGGA,035151.00,3727.1201554,N,12639.1608039,E,5,12,0.66,23.746,M,17.833,M,2.0,4095*55
$GNGSA,A,3,14,19,06,17,04,03,01,,,,,,1.26,0.66,1.07,1*09
$GNGSA,A,3,78,76,72,88,71,87,77,,,,,,1.26,0.66,1.07,2*03
$GNGSA,A,3,30,09,34,02,11,36,,,,,,,1.26,0.66,1.07,3*0A
$GNGSA,A,3,11,23,08,34,37,07,28,10,,,,,1.26,0.66,1.07,4*01
$GPGSV,2,1,08,01,21,058,20,03,49,058,48,04,14,110,29,06,41,270,46,1*63
$GPGSV,2,2,08,14,46,194,25,17,73,004,49,19,53,321,37,28,,,27,1*5E
$GPGSV,2,1,06,01,21,058,18,03,49,058,44,04,14,110,24,06,41,270,35,6*64
$GPGSV,2,2,06,14,46,194,18,17,73,004,41,6*64
$GPGSV,1,1,02,40,06,259,,41,27,238,,0*62
$GLGSV,2,1,07,71,37,062,31,72,38,128,18,76,14,204,20,77,36,252,29,1*7F
$GLGSV,2,2,07,78,23,317,28,87,49,334,44,88,18,291,34,1*4C
$GLGSV,2,1,07,65,08,170,12,71,37,062,41,72,38,128,08,76,14,204,12,3*7F
$GLGSV,2,2,07,77,36,252,33,78,23,317,32,88,18,291,25,3*43
$GLGSV,1,1,02,70,05,022,,86,31,060,,0*73
$GAGSV,2,1,07,02,51,224,30,09,24,105,36,11,20,064,20,18,30,302,34,2*73
$GAGSV,2,2,07,30,37,300,39,34,45,282,45,36,62,022,35,2*47
$GAGSV,2,1,07,02,51,224,30,09,24,105,26,11,20,064,27,18,30,302,32,7*76
$GAGSV,2,2,07,30,37,300,38,34,45,282,43,36,62,022,33,7*43
$GAGSV,1,1,03,04,13,052,,15,00,260,,25,18,177,,0*49
$GBGSV,2,1,08,07,74,226,38,08,51,241,33,10,70,269,45,11,49,068,44,1*76
$GBGSV,2,2,08,23,23,236,31,28,33,298,38,34,31,087,30,37,21,290,24,1*7A
$GBGSV,2,1,06,07,74,226,35,08,51,241,34,10,70,269,39,11,49,068,43,3*7C
$GBGSV,2,2,06,23,23,236,09,37,21,290,08,3*78
$GBGSV,1,1,01,03,44,206,,0*41
$GNRMC,035152.00,A,3727.1200774,N,12639.1608269,E,0.034,,220622,,,F,V*19
$GNVTG,,T,,M,0.034,N,0.063,K,D*3A
$GNGNS,035152.00,3727.1200774,N,12639.1608269,E,FFFF,28,0.66,23.778,17.833,2.0,4095,V*00
$GNGGA,035152.00,3727.1200774,N,12639.1608269,E,5,12,0.66,23.778,M,17.833,M,2.0,4095*5D
$GNGSA,A,3,14,19,06,17,04,03,01,,,,,,1.26,0.66,1.07,1*09
$GNGSA,A,3,78,76,72,88,71,87,77,,,,,,1.26,0.66,1.07,2*03
$GNGSA,A,3,30,09,34,02,11,36,,,,,,,1.26,0.66,1.07,3*0A
$GPGSV,2,1,08,01,21,058,20,03,49,058,47,04,14,110,29,06,41,270,46,1*6C
$GPGSV,2,2,08,14,46,194,25,17,73,004,49,19,53,321,37,28,,,27,1*5E
$GPGSV,2,1,06,01,21,058,19,03,49,058,44,04,14,110,24,06,41,270,34,6*64
$GPGSV,2,2,06,14,46,194,18,17,73,004,41,6*64
$GPGSV,1,1,02,40,06,259,,41,27,238,,0*62
$GLGSV,2,1,07,71,37,062,32,72,38,128,17,76,14,204,22,77,36,252,30,1*79
$GLGSV,2,2,07,78,23,317,29,87,49,334,45,88,18,291,34,1*4C
$GLGSV,2,1,07,65,08,170,10,71,37,062,41,72,38,128,12,76,14,204,13,3*77
$GLGSV,2,2,07,77,36,252,33,78,23,317,32,88,18,291,25,3*43
$GLGSV,1,1,02,70,05,022,,86,31,060,,0*73
$GAGSV,2,1,07,02,51,224,29,09,24,105,36,11,20,064,20,18,30,302,35,2*7A
$GAGSV,2,2,07,30,37,300,39,34,45,282,46,36,62,022,36,2*47
$GAGSV,2,1,07,02,51,224,31,09,24,105,24,11,20,064,27,18,30,302,32,7*75
$GAGSV,2,2,07,30,37,300,38,34,45,282,43,36,62,022,33,7*43
$GAGSV,1,1,03,04,13,052,,15,00,260,,25,18,177,,0*49
$GBGSV,2,1,08,07,74,226,39,08,51,241,33,10,70,$GBGSV,2,2,08,23,23,236,33,28,33,298,38,34,31,087,30,37,21,290,23,1*7F
$GBGSV,2,1,06,07,74,226,35,08,51,241,34,10,70,269,39,11,49,068,43,3*7C
$GBGSV,2,2,06,23,23,236,08,37,21,290,07,3*76
$GBGSV,1,1,01,03,44,206,,0*41
$GNRMC,035153.00,A,3727.1200048,N,12639.1608525,E,0.014,,220622,,,F,V*1D
$GNVTG,,T,,M,0.014,N,0.026,K,D*39
$GNGNS,035153.00,3727.1200048,N,12639.1608525,E,FFFF,28,0.60,23.795,17.833,1.0,4095,V*00
$GNGGA,035153.00,3727.1200048,N,12639.1608525,E,5,12,0.60,23.795,M,17.833,M,1.0,4095*5D
$GNGSA,A,3,14,19,06,17,04,03,01,,,,,,1.15,0.60,0.98,1*08
$GNGSA,A,3,78,76,72,88,71,87,77,,,,,,1.15,0.60,0.98,2*02
$GNGSA,A,3,30,09,34,02,11,36,,,,,,,1.15,0.60,0.98,3*0B
$GNGSA,A,3,11,23,08,34,37,07,28,10,,,,,1.15,0.60,0.98,4*00
$GPGSV,2,1,08,01,21,058,21,03,49,058,48,04,14,110,29,06,41,270,46,1*62
$GPGSV,2,2,08,14,46,194,26,17,73,004,49,19,53,321,37,28,,,27,1*5D
$GPGSV,2,1,06,01,21,058,18,03,49,058,44,04,14,110,24,06,41,270,33,6*62
$GPGSV,2,2,06,14,46,194,18,17,73,004,41,6*64
$GPGSV,1,1,02,40,06,259,,41,27,238,,0*62
$GLGSV,2,1,07,71,37,062,31,72,38,128,16,76,14,204,22,77,36,252,31,1*7A
$GLGSV,2,2,07,78,23,317,31,87,49,334,45,88,18,291,34,1*45
$GLGSV,2,1,07,65,08,170,11,71,37,062,41,72,38,128,09,76,14,204,08,3*76
$GLGSV,2,2,07,77,36,252,33,78,23,317,32,88,18,291,25,3*43
$GLGSV,1,1,02,70,05,022,,86,31,060,,0*73
$GAGSV,2,1,07,02,51,224,28,09,24,105,36,11,20,064,21,18,30,302,34,2*7B
$GAGSV,2,2,07,30,37,300,39,34,45,282,46,36,62,022,36,2*47
$GAGSV,2,1,07,02,51,224,31,09,24,105,23,11,20,064,26,18,30,302,31,7*70
$GAGSV,2,2,07,30,37,300,38,34,45,282,43,36,62,022,33,7*43
$GAGSV,1,1,03,04,13,052,,15,00,260,,25,18,177,,0*49
$GBGSV,2,1,08,07,74,226,39,08,51,241,33,10,70,269,46,11,49,068,45,1*75
$GBGSV,2,2,08,23,23,236,34,28,33,298,39,34,31,087,30,37,21,290,20,1*7A
$GBGSV,2,1,06,07,74,226,35,08,51,241,35,10,70,269,39,11,49,068,44,3*7A
$GBGSV,2,2,06,23,23,236,08,37,21,290,07,3*76
$GBGSV,1,1,01,03,44,206,,0*41
$GNRMC,035154.00,A,3727.1198940,N,12639.1609008,E,0.067,,220622,,,F,V*16
$GNVTG,,T,,M,0.067,N,0.125,K,D*3F
$GNGNS,035154.00,3727.1198940,N,12639.1609008,E,FFFF,28,0.60,23.841,17.833,2.0,4095,V*0A
$GNGSA,A,3,14,19,06,17,04,03,01,,,,,,1.15,0.60,0.98,1*08
$GNGSA,A,3,78,76,72,88,71,87,77,,,,,,1.15,0.60,0.98,2*02
$GNGSA,A,3,30,09,34,02,11,36,,,,,,,1.15,0.60,0.98,3*0B
$GNGSA,A,3,11,23,08,34,37,07,28,10,,,,,1.15,0.60,0.98,4*00
$GPGSV,2,1,08,01,21,058,21,03,49,058,47,04,14,110,21,06,41,270,46,1*65
$GPGSV,2,2,08,14,46,194,25,17,73,004,49,19,53,321,37,28,,,27,1*5E
$GPGSV,2,1,06,01,21,058,18,03,49,058,43,04,14,110,24,06,41,270,33,6*65
$GPGSV,2,2,06,14,46,194,17,17,73,004,40,6*6A
$GPGSV,1,1,02,40,06,259,,41,27,238,,0*62
$GLGSV,2,1,07,71,37,062,33,72,38,128,14,76,14,204,21,77,36,252,31,1*79
$GLGSV,2,2,07,78,23,317,31,87,49,334,45,88,18,291,34,1*45
$GLGSV,2,1,07,65,08,170,13,71,37,062,40,72,38,128,12,76,14,204,12,3*74
$GLGSV,2,2,07,77,36,252,33,78,23,317,31,88,18,291,24,3*41
$GLGSV,1,1,02,70,05,022,,86,31,060,,0*73
$GAGSV,2,1,07,02,51,224,28,09,24,105,33,11,20,064,21,18,30,302,34,2*7E
$GAGSV,2,2,07,30,37,300,39,3$GNRMC,035155.00,A,3727.1197989,N,12639.1609586,E,0.029,,220622,,,F,V*14
$GNVTG,,T,,M,0.029,N,0.054,K,D*32
$GNGNS,035155.00,3727.1197989,N,12639.1609586,E,FFFF,28,0.60,23.981,17.833,2.0,4095,V*0F
$GNGGA,035155.00,3727.1197989,N,12639.1609586,E,5,12,0.60,23.981,M,17.833,M,2.0,4095*52
$GNGSA,A,3,14,19,06,17,04,03,01,,,,,,1.15,0.60,0.98,1*08
$GNGSA,A,3,78,76,72,88,71,87,77,,,,,,1.15,0.60,0.98,2*02
$GNGSA,A,3,30,09,34,02,11,36,,,,,,,1.15,0.60,0.98,3*0B
$GNGSA,A,3,11,23,08,34,37,07,28,10,,,,,1.15,0.60,0.98,4*00
$GPGSV,3,1,09,01,21,058,25,03,49,058,52,04,14,110,29,06,41,270,50,1*6A
$GPGSV,3,2,09,14,46,194,26,17,73,004,53,19,53,321,40,28,,,28,1*59
$GPGSV,3,3,09,39,13,253,34,1*56
$GPGSV,2,1,06,01,21,058,21,03,49,058,44,04,14,110,23,06,41,270,34,6*68
$GPGSV,2,2,06,14,46,194,18,17,73,004,41,6*64
$GPGSV,1,1,02,40,06,259,,41,27,238,,0*62
$GLGSV,2,1,07,71,37,062,40,72,38,128,17,76,14,204,20,77,36,252,32,1*7C
$GLGSV,2,2,07,78,23,316,32,87,49,334,46,88,18,291,37,1*47
$GLGSV,2,1,07,65,08,170,07,71,37,062,41,72,38,128,10,76,14,204,14,3*74
$GLGSV,2,2,07,77,36,252,33,78,23,316,32,88,18,291,22,3*45
$GLGSV,1,1,02,70,05,022,,86,31,060,,0*73
$GAGSV,2,1,07,02,51,224,28,09,24,105,36,11,20,064,20,18,30,302,34,2*7A
$GAGSV,2,2,07,30,37,300,38,34,45,282,46,36,62,022,36,2*46
$GAGSV,2,1,06,09,24,105,23,11,20,064,25,18,30,302,34,30,37,300,39,7*79
$GAGSV,2,2,06,34,45,282,45,36,62,022,35,7*7D
$GAGSV,1,1,03,04,13,052,,15,00,260,,25,18,177,,0*49
$GBGSV,2,1,08,07,74,226,40,08,51,241,34,10,70,269,47,11,49,068,46,1*7E
$GBGSV,2,2,08,23,23,236,34,28,33,298,41,34,31,087,30,37,21,290,20,1*75
$GBGSV,2,1,06,07,74,226,36,08,51,241,35,10,70,269,39,11,49,068,43,3*7E
$GBGSV,2,2,06,23,23,236,09,37,21,290,08,3*78
$GBGSV,1,1,01,03,44,206,,0*41
$GNRMC,035156.00,A,3727.1197623,N,12639.1610097,E,0.020,,220622,,,F,V*1C
$GNVTG,,T,,M,0.020,N,0.037,K,D*3E
$GNGNS,035156.00,3727.1197623,N,12639.1610097,E,FFFF,28,0.66,24.130,17.833,2.0,4095,V*0D
$GNGGA,035156.00,3727.1197623,N,12639.1610097,E,5,12,0.66,24.130,M,17.833,M,2.0,4095*50
$GNGSA,A,3,14,19,06,17,04,03,01,,,,,,1.26,0.66,1.07,1*09
$GNGSA,A,3,78,76,72,88,71,87,77,,,,,,1.26,0.66,1.07,2*03
$GNGSA,A,3,30,09,34,02,11,36,,,,,,,1.26,0.66,1.07,3*0A
$GNGSA,A,3,11,23,08,34,37,07,28,10,,,,,1.26,0.66,1.07,4*01
$GPGSV,2,1,08,01,21,058,24,03,49,058,49,04,14,110,22,06,41,270,48,1*63
$GPGSV,2,2,08,14,46,194,25,17,73,004,51,19,53,321,38,28,,,27,1*58
$GPGSV,2,1,06,01,21,058,22,03,49,058,44,04,14,110,20,06,41,270,35,6*69
$GPGSV,2,2,06,14,46,194,18,17,73,004,41,6*64
$GPGSV,1,1,02,40,06,259,,41,27,238,,0*62
$GLGSV,2,1,07,71,37,062,37,72,38,128,21,76,14,204,20,77,36,252,32,1*79
$GLGSV,2,2,07,78,23,316,33,87,49,334,45,88,18,291,36,1*44
$GLGSV,2,1,07,65,08,170,12,71,37,062,41,72,38,128,11,76,14,204,11,3*74
$GLGSV,2,2,07,77,36,252,33,78,23,316,32,88,18,291,23,3*44
$GLGSV,1,1,02,70,05,022,,86,31,060,,0*73
$GAGSV,2,1,07,02,51,224,28,09,24,105,35,11,20,064,18,18,30,302,34,2*72
$GAGSV,2,2,07,30,37,300,38,34,45,282,46,36,62,022,34,2*44
$GAGSV,2,1,07,02,51,224,31,09,24,105,28,11,20,064,30,18,30,302,33,7*7E
$GAGSV,2,2,07,30,37,300,39,34,45,282,44,36,62,022,32,7*44
$GAGSV,1,1,03,04,13,052,,15,00,260,,25,18,177,,0*49
$GBGSV,2,1,08,07,74,226,38,08,51,241,33,10,70,269,46,11,49,068,44,1*75
$GBGSV,2,2,08,23,23,236,33,28,33,298,40,34,31,087,29,37,21,290,21,1*7A
$GBGSV,2,1,06,07,74,226,35,08,51,241,35,10,70,269,39,11,49,068,43,3*7D
$GBGSV,2,2,06,23,23,236,08,37,21,290,07,3*76
$GBGSV,1,1,01,03,44,206,,0*41
$GNRMC,035157.00,A,3727.1197160,N,12639.1610626,E,0.011,,220622,,,F,V*13
$GNVTG,,T,,M,0.011,N,0.021,K,D*3B
$GNGGA,035157.00,3727.1197160,N,12639.1610626,E,5,12,0.66,24.224,M,17.833,M,2.0,4095*5B
$GNGSA,A,3,14,19,06,17,04,03,01,,,,,,1.26,0.66,1.07,1*09
$GNGSA,A,3,78,76,72,88,71,87,77,,,,,,1.26,0.66,1.07,2*03
$GNGSA,A,3,30,09,34,02,11,36,,,,,,,1.26,0.66,1.07,3*0A
$GNGSA,A,3,11,23,08,34,37,07,28,10,,,,,1.26,0.66,1.07,4*01
$GPGSV,2,1,08,01,21,058,24,03,49,058,49,04,14,110,28,06,41,270,47,1*66
$GPGSV,2,2,08,14,46,194,24,17,73,004,50,19,53,321,38,28,,,26,1*59
$GPGSV,2,1,06,01,21,058,22,03,49,058,44,04,14,110,22,06,41,270,35,6*6B
$GPGSV,2,2,06,14,46,194,18,17,73,004,41,6*64
$GPGSV,1,1,02,40,06,259,,41,27,238,,0*62
$GLGSV,2,1,07,71,37,062,37,72,38,128,21,76,14,204,20,77,36,252,32,1*79
$GLGSV,2,2,07,78,23,316,33,87,49,334,44,88,18,291,36,1*45
$GLGSV,2,1,07,65,08,170,13,71,37,062,40,72,38,128,11,76,14,204,14,3*71
$GLGSV,2,2,07,77,36,252,33,78,23,316,31,88,18,291,22,3*46
$GLGSV,1,1,02,70,05,022,,86,31,060,,0*73
$GAGSV,2,1$GAGSV,2,2,07,30,37,300,38,34,45,282,45,36,62,022,35,2*46
$GAGSV,2,1,07,02,51,224,32,09,24,105,27,11,20,064,30,18,30,302,32,7*73
$GAGSV,2,2,07,30,37,300,38,34,45,282,43,36,62,022,33,7*43
$GAGSV,1,1,03,04,13,052,,15,00,260,,25,18,177,,0*49
$GBGSV,2,1,08,07,74,226,39,08,51,241,33,10,70,269,45,11,49,068,45,1*76
$GBGSV,2,2,08,23,23,236,33,28,33,298,40,34,31,087,32,37,21,290,21,1*70
$GBGSV,2,1,06,07,74,226,35,08,51,241,34,10,70,269,39,11,49,068,44,3*7B
$GBGSV,2,2,06,23,23,236,08,37,21,290,08,3*79
$GBGSV,1,1,01,03,44,206,,0*41
$GNRMC,035158.00,A,3727.1196609,N,12639.1611152,E,0.028,,220622,,,F,V*1A
$GNVTG,,T,,M,0.028,N,0.052,K,D*35
$GNGGA,035158.00,3727.1196609,N,12639.1611152,E,5,12,0.66,24.365,M,17.833,M,2.0,4095*5C
$GNGSA,A,3,14,19,06,17,04,03,01,,,,,,1.26,0.66,1.07,1*09
$GNGSA,A,3,78,76,72,88,71,87,77,,,,,,1.26,0.66,1.07,2*03
$GNGSA,A,3,30,09,34,02,11,36,,,,,,,1.26,0.66,1.07,3*0A
$GNGSA,A,3,11,23,08,34,37,07,28,10,,,,,1.26,0.66,1.07,4*01
$GPGSV,2,1,08,01,21,058,25,03,49,058,49,04,14,110,28,06,41,270,47,1*67
$GPGSV,2,2,08,14,46,194,24,17,73,004,50,19,53,321,37,28,,,25,1*55
$GPGSV,2,1,06,01,21,058,22,03,49,058,44,04,14,110,23,06,41,270,35,6*6A
$GPGSV,2,2,06,14,46,194,18,17,73,004,41,6*64
$GPGSV,1,1,02,40,06,259,,41,27,238,,0*62
$GLGSV,2,1,07,71,37,062,36,72,38,128,22,76,14,204,20,77,36,252,31,1*78
$GLGSV,2,2,07,78,23,316,32,87,49,334,44,88,18,291,36,1*44
$GLGSV,2,1,07,65,08,170,07,71,37,062,39,72,38,128,10,76,14,204,07,3*79
$GLGSV,2,2,07,77,36,252,32,78,23,316,31,88,18,291,22,3*47
$GLGSV,1,1,02,70,05,022,,86,31,060,,0*73
$GAGSV,2,1$GNRMC,035159.00,A,3727.1196051,N,12639.1611566,E,0.005,,220622,,,F,V*1C
$GNVTG,,T,,M,0.005,N,0.009,K,D*34
$GNGNS,035159.00,3727.1196051,N,12639.1611566,E,FFFF,28,0.66,24.516,17.833,2.0,4095,V*0A
$GNGGA,035159.00,3727.1196051,N,12639.1611566,E,5,12,0.66,24.516,M,17.833,M,2.0,4095*57
$GNGSA,A,3,14,19,06,17,04,03,01,,,,,,1.26,0.66,1.07,1*09
$GNGSA,A,3,78,76,72,88,71,87,77,,,,,,1.26,0.66,1.07,2*03
$GNGSA,A,3,30,09,34,02,11,36,,,,,,,1.26,0.66,1.07,3*0A
$GNGSA,A,3,11,23,08,34,37,07,28,10,,,,,1.26,0.66,1.07,4*01
$GPGSV,2,1,08,01,21,058,26,03,49,058,49,04,14,110,28,06,41,270,47,1*64
$GPGSV,2,2,08,14,46,194,23,17,73,004,50,19,53,321,37,28,,,25,1*52
$GPGSV,2,1,06,01,21,058,21,03,49,058,44,04,14,110,23,06,41,270,35,6*69
$GPGSV,2,2,06,14,46,194,18,17,73,004,41,6*64
$GPGSV,1,1,02,40,06,259,,41,27,238,,0*62
$GLGSV,2,1,07,71,37,062,36,72,38,128,23,76,14,204,19,77,36,252,31,1*73
$GLGSV,2,2,07,78,23,316,32,87,49,334,45,88,18,291,35,1*46
$GLGSV,2,1,07,65,08,170,08,71,37,062,39,72,38,128,07,76,14,204,10,3*76
$GLGSV,2,2,07,77,36,252,31,78,23,316,31,88,18,291,22,3*44
$GLGSV,1,1,02,70,05,022,,86,31,060,,0*73
$GAGSV,2,1,07,02,51,224,29,09,24,105,36,11,20,064,18,18,30,302,35,2*71
$GAGSV,2,2,07,30,37,300,39,34,45,282,46,36,62,022,36,2*47
$GAGSV,2,1,07,02,51,224,32,09,24,105,26,11,20,064,30,18,30,302,31,7*71
$GAGSV,2,2,07,30,37,300,38,34,45,282,43,36,62,022,33,7*43
$GAGSV,1,1,03,04,13,052,,15,00,260,,25,18,177,,0*49
$GBGSV,2,1,08,07,74,226,39,08,51,241,33,10,70,269,45,11,49,068,45,1*76
$GBGSV,2,2,08,23,23,236,32,28,33,298,40,34,31,087,30,37,21,290,22,1*70
$GBGSV,2,1,06,07,74,226,35,08,51,241,35,10,70,269,39,11,49,068,44,3*7A
$GBGSV,2,2,06,23,23,236,07,37,21,290,08,3*76
$GBGSV,1,1,01,03,44,206,,0*41
$GNRMC,035200.00,A,3727.1195666,N,12639.1611857,E,0.024,,220622,,,F,V*1E
$GNVTG,,T,,M,0.024,N,0.044,K,D*3E
$GNGNS,035200.00,3727.1195666,N,12639.1611857,E,FFFF,28,0.66,24.636,17.833,2.0,4095,V*0A
$GNGGA,035200.00,3727.1195666,N,12639.1611857,E,5,12,0.66,24.636,M,17.833,M,2.0,4095*57
$GNGSA,A,3,14,19,06,17,04,03,01,,,,,,1.26,0.66,1.07,1*09
$GNGSA,A,3,78,76,72,88,71,87,77,,,,,,1.26,0.66,1.07,2*03
$GNGSA,A,3,30,09,34,02,11,36,,,,,,,1.26,0.66,1.07,3*0A
$GNGSA,A,3,11,23,08,34,37,07,28,10,,,,,1.26,0.66,1.07,4*01
$GPGSV,2,1,08,01,21,058,27,03,49,058,49,04,14,110,29,06,41,270,47,1*64
$GPGSV,2,2,08,14,46,194,23,17,73,004,50,19,53,321,38,28,,,25,1*5D
$GPGSV,2,1,06,01,21,058,22,03,49,058,45,04,14,110,24,06,41,270,36,6*6F
$GPGSV,2,2,06,14,46,194,19,17,73,004,41,6*65
$GPGSV,1,1,02,40,06,259,,41,27,238,,0*62
$GLGSV,2,1,07,71,37,062,36,72,38,128,22,76,14,204,19,77,36,252,31,1*72
$GLGSV,2,2,07,78,23,316,32,87,49,334,45,88,18,291,35,1*46
$GLGSV,2,1,07,65,08,170,09,71,37,062,40,72,38,128,07,76,14,204,10,3*79
$GLGSV,2,2,07,77,36,252,32,78,23,316,32,88,18,291,22,3*44
$GLGSV,1,1,02,70,05,022,,86,31,060,,0*73
$GAGSV,2,1,07,02,51,224,29,09,24,105,36,11,20,064,18,18,30,302,35,2*71
$GAGSV,2,2,07,30,37,300,39,34,45,282,46,36,62,022,36,2*47
$GAGSV,2,1,07,02,51,224,32,09,24,105,26,11,20,064,30,18,30,302,31,7*71
$GAGSV,2,2,07,30,37,300,38,34,45,282,43,36,62,022,33,7*43
$GAGSV,1,1,03,04,13,052,,15,00,260,,25,18,177,,0*49
$GBGSV,2,1,08,07,74,226,39,08,51,241,33,10,70,269,45,11,49,068,45,1*76
$GBGSV,2,2,08,23,23,236,32,28,33,298,39,34,31,087,29,37,21,290,22,1*76
$GBGSV,2,1,05,07,74,226,35,08,51,241,35,10,70,269,39,11,49,068,44,3*79
$GBGSV,2,2,05,37,21,290,08,3*45
$GBGSV,1,1,01,03,44,206,,0*41
$GNRMC,035201.00,A,3727.1195267,N,12639.1612170,E,0.014,,220622,,,F,V*16
$GNVTG,,T,,M,0.014,N,0.026,K,D*39
$GNGNS,035201.00,3727.1195267,N,12639.1612170,E,FFFF,28,0.66,24.760,17.833,2.0,4095,V*03
$GNGGA,035201.00,3727.1195267,N,12639.1612170,E,5,12,0.66,24.760,M,17.833,M,2.0,4095*5E
$GNGSA,A,3,14,19,06,17,04,03,01,,,,,,1.26,0.66,1.07,1*09
$GNGSA,A,3,30,09,34,02,11,36,,,,,,,1.26,0.66,1.07,3*0A
$GNGSA,A,3,11,23,08,34,37,07,28,10,,,,,1.26,0.66,1.07,4*01
$GPGSV,2,1,08,01,21,058,26,03,49,058,48,04,14,110,16,06,41,270,47,1*68
$GPGSV,2,2,08,14,46,194,23,17,73,004,50,19,53,321,38,28,,,23,1*5B
$GPGSV,2,1,06,01,21,058,23,03,49,058,44,04,14,110,23,06,41,270,35,6*6B
$GPGSV,2,2,06,14,46,194,19,17,73,004,41,6*65
$GPGSV,1,1,02,40,06,259,,41,27,238,,0*62
$GLGSV,2,1,07,71,37,062,39,72,38,128,23,76,14,204,17,77,36,252,30,1*73
$GLGSV,2,2,07,78,23,316,25,87,49,334,44,88,18,291,34,1*40
$GLGSV,2,1,07,65,08,170,09,71,37,062,40,72,38,128,08,76,14,204,09,3*7E
$GLGSV,2,2,07,77,36,252,32,78,23,316,31,88,18,291,23,3*46
$GLGSV,1,1,02,70,05,022,,86,31,060,,0*73
$GAGSV,2,1,07,02,51,224,29,09,24,105,36,11,20,064,19,18,30,302,34,2*71
$GAGSV,2,2,07,30,37,300,39,34,45,282,46,36,62,022,35,2*44
$GAGSV,2,1,07,02,51,224,33,09,24,105,25,11,20,064,30,18,30,302,31,7*73
$GAGSV,2,2,07,30,37,300,38,34,45,282,43,36,6$GAGSV,1,1,03,04,13,052,,15,00,260,,25,18,177,,0*49
$GBGSV,2,1,08,07,74,226,39,08,51,241,33,10,70,269,45,11,49,068,44,1*77
$GBGSV,2,2,08,23,23,236,32,28,33,298,40,34,31,087,30,37,21,290,23,1*71
$GBGSV,1,1,04,07,74,226,35,08,51,241,36,10,70,269,39,11,49,068,44,3*78
$GBGSV,1,1,01,03,44,206,,0*41
$GNRMC,035202.00,A,3727.1194762,N,12639.1612398,E,0.030,,220622,,,F,V*16
$GNVTG,,T,,M,0.030,N,0.055,K,D*3B
$GNGNS,035202.00,3727.1194762,N,12639.1612398,E,FFFF,28,0.66,24.813,17.833,2.0,4095,V*0E
$GNGGA,035202.00,3727.1194762,N,12639.1612398,E,5,12,0.66,24.813,M,17.833,M,2.0,4095*53
$GNGSA,A,3,14,19,06,17,04,03,01,,,,,,1.26,0.66,1.07,1*09
$GNGSA,A,3,78,76,72,88,71,87,77,,,,,,1.26,0.66,1.07,2*03
$GNGSA,A,3,30,09,34,02,11,36,,,,,,,1.26,0.66,1.07,3*0A
$GNGSA,A,3,11,23,08,34,37,07,28,10,,,,,1.26,0.66,1.07,4*01
$GPGSV,2,1,08,01,21,058,26,03,49,058,48,04,14,110,28,06,41,270,47,1*65
$GPGSV,2,2,08,14,46,194,23,17,73,004,50,19,53,321,38,28,,,24,1*5C
$GPGSV,2,1,06,01,21,058,24,03,49,058,44,04,14,110,26,06,41,270,35,6*69
$GPGSV,2,2,06,14,46,194,19,17,73,004,41,6*65
$GPGSV,1,1,02,40,06,259,,41,27,238,,0*62
$GLGSV,2,1,07,71,37,062,33,72,38,128,22,76,14,204,16,77,36,252,30,1*79
$GLGSV,2,2,07,78,23,316,27,87,49,334,44,88,18,291,34,1*42
$GLGSV,2,1,07,65,08,170,09,71,37,062,41,72,38,128,06,76,14,204,08,3*70
$GLGSV,2,2,07,77,36,252,32,78,23,316,31,88,18,291,23,3*46
$GLGSV,1,1,02,70,05,022,,86,31,060,,0*73
$GAGSV,2,1,07,02,51,224,29,09,24,105,36,11,20,064,19,18,30,302,34,2*71
$GAGSV,2,2,07,30,37,300,38,34,45,282,46,36,62,022,36,2*46
$GAGSV,2,1,07,02,51,224,33,09,24,105,24,11,20,064,27,18,30,302,30,7*75
$GAGSV,2,2,07,30,37,300,38,34,45,282,42,36,62,022,33,7*42
$GAGSV,1,1,03,04,13,052,,15,00,260,,25,18,177,,0*49
$GBGSV,2,1,08,07,74,226,39,08,51,241,33,10,70,269,45,11,49,068,45,1*76
$GBGSV,2,2,08,23,23,236,32,28,33,298,39,34,31,087,32,37,21,290,23,1*7D
$GBGSV,1,1,04,07,74,226,36,08,51,241,35,10,70,269,39,11,49,068,43,3*7F
$GBGSV,1,1,01,03,44,206,,0*41
$GNRMC,035203.00,A,3727.1194480,N,12639.1612540,E,0.037,,220622,,,F,V*1C
$GNVTG,,T,,M,0.037,N,0.068,K,D*32
$GNGNS,035203.00,3727.1194480,N,12639.1612540,E,FFFF,28,0.66,24.943,17.833,1.0,4095,V*04
$GNGGA,035203.00,3727.1194480,N,12639.1612540,E,5,12,0.66,24.943,M,17.833,M,1.0,4095*59
$GNGSA,A,3,14,19,06,17,04,03,01,,,,,,1.26,0.66,1.07,1*09
$GNGSA,A,3,78,76,72,88,71,87,77,,,,,,1.26,0.66,1.07,2*03
$GNGSA,A,3,30,09,34,02,11,36,,,,,,,1.26,0.66,1.07,3*0A
$GNGSA,A,3,11,23,08,34,37,07,28,10,,,,,1.26,0.66,1.07,4*01
$GPGSV,2,1,08,01,21,058,25,03,49,058,49,04,14,110,30,06,41,270,47,1*6E
$GPGSV,2,2,08,14,46,194,22,17,73,004,50,19,53,321,38,28,,,24,1*5D
$GPGSV,2,1,06,01,21,058,22,03,49,058,44,04,14,110,26,06,41,270,36,6*6C
$GPGSV,2,2,06,14,46,194,19,17,73,004,41,6*65
$GPGSV,1,1,02,40,06,259,,41,27,238,,0*62
$GLGSV,2,1,07,71,37,062,27,72,38,128,21,76,14,204,16,77,36,252,30,1*7F
$GLGSV,2,2,07,78,23,316,28,87,49,334,44,88,18,291,34,1*4D
$GLGSV,2,1,07,65,08,170,09,71,37,062,41,72,38,128,12,76,14,204,11,3*7D
$GLGSV,2,2,07,77,36,252,32,78,23,316,31,88,18,291,22,3*47
$GLGSV,1,1,02,70,05,022,,86,31,061,,0*72
$GAGSV,2,1,07,02,51,224,29,09,24,105,37,11,20,064,20,18,30,302,34,2*7A
$GAGSV,2,2,07,30,37,300,39,34,45,282,46,36,62,022,36,2*47
$GAGSV,2,1,07,02,51,224,33,09,24,105,25,11,20,064,26,18,30,302,30,7*75
$GAGSV,2,2,07,30,37,300,39,34,45,282,43,36,62,022,33,7*42
$GAGSV,1,1,03,04,13,052,,15,00,260,,25,18,177,,0*49
$GBGSV,2,1,08,07,74,226,39,08,51,241,33,10,70,269,45,11,49,068,45,1*76
$GBGSV,2,2,08,23,23,236,32,28,33,298,39,34,31,087,31,37,21,290,24,1*79
$GBGSV,1,1,04,07,74,226,36,08,51,241,36,10,70,269,39,11,49,068,43,3*7C
$GBGSV,1,1,01,03,44,206,,0*41
$GNRMC,035204.00,A,3727.1194234,N,12639.1612686,E,0.007,,220622,,,F,V*18
$GNVTG,,T,,M,0.007,N,0.013,K,D*3D
$GNGNS,035204.00,3727.1194234,N,12639.1612686,E,FFFF,28,0.66,25.099,17.833,2.0,4095,V*0F
$GNGSA,A,3,14,19,06,17,04,03,01,,,,,,1.26,0.66,1.07,1*09
$GNGSA,A,3,78,76,72,88,71,87,77,,,,,,1.26,0.66,1.07,2*03
$GNGSA,A,3,30,09,34,02,11,36,,,,,,,1.26,0.66,1.07,3*0A
$GNGSA,A,3,11,23,08,34,37,07,28,10,,,,,1.26,0.66,1.07,4*01
$GPGSV,2,1,08,01,21,058,26,03,49,058,49,04,14,110,31,06,41,270,47,1*6C
$GPGSV,2,2,08,14,46,194,21,17,73,004,50,19,53,321,38,28,,,26,1*5C
$GPGSV,2,1,06,01,21,058,21,03,49,058,45,04,14,110,25,06,41,270,35,6*6E
$GPGSV,2,2,06,14,46,194,20,17,73,004,41,6*6F
$GPGSV,1,1,02,40,06,259,,41,27,238,,0*62
$GLGSV,2,1,07,71,37,062,24,72,38,128,21,76,14,204,15,77,36,252,31,1*7E
$GLGSV,2,2,07,78,23,316,28,87,49,335,44,88,18,291,34,1*4C
$GLGSV,2,1,07,65,08,170,09,71,37,062,41,72,38,128,07,76,14,204,09,3*70
$GLGSV,2,2,07,77,36,252,32,78,23,316,31,88,18,291,21,3*44
$GLGSV,1,1,02,70,05,022,,86,31,061,,0*72
$GAGSV,2,1,07,02,51,224,29,09,24,105,37,11,20,064,20,18,30,302,34,2*7A
$GAGSV,2,2,07,30,37,300,39,3$GNRMC,035205.00,A,3727.1193928,N,12639.1612814,E,0.013,,220622,,,F,V*18
$GNVTG,,T,,M,0.013,N,0.025,K,D*3D
$GNGNS,035205.00,3727.1193928,N,12639.1612814,E,FFFF,28,0.66,25.285,17.833,2.0,4095,V*05
$GNGGA,035205.00,3727.1193928,N,12639.1612814,E,5,12,0.66,25.285,M,17.833,M,2.0,4095*58
$GNGSA,A,3,14,19,06,17,04,03,01,,,,,,1.26,0.66,1.07,1*09
$GNGSA,A,3,78,76,72,88,71,87,77,,,,,,1.26,0.66,1.07,2*03
$GNGSA,A,3,30,09,34,02,11,36,,,,,,,1.26,0.66,1.07,3*0A
$GNGSA,A,3,11,23,08,34,37,07,28,10,,,,,1.26,0.66,1.07,4*01
$GPGSV,2,1,08,01,21,058,26,03,49,058,49,04,14,110,31,06,41,270,46,1*6D
$GPGSV,2,2,08,14,46,194,20,17,73,004,50,19,53,321,38,28,,,26,1*5D
$GPGSV,2,1,06,01,21,058,19,03,49,058,45,04,14,110,25,06,41,270,35,6*65
$GPGSV,2,2,06,14,46,194,20,17,73,004,41,6*6F
$GPGSV,1,1,02,40,06,259,,41,27,238,,0*62
$GLGSV,2,1,07,71,37,062,20,72,38,128,22,76,14,204,15,77,36,252,30,1*78
$GLGSV,2,2,07,78,23,316,28,87,49,335,44,88,19,291,34,1*4D
$GLGSV,2,1,07,65,08,170,09,71,37,062,41,72,38,128,07,76,14,204,10,3*78
$GLGSV,2,2,07,77,36,252,33,78,23,316,31,88,19,291,20,3*45
$GLGSV,1,1,02,70,05,022,,86,31,061,,0*72
$GAGSV,2,1,07,02,51,224,29,09,24,105,37,11,20,064,21,18,30,302,34,2*7B
$GAGSV,2,2,07,30,37,300,39,34,45,282,46,36,62,022,36,2*47
$GAGSV,2,1,07,02,51,224,33,09,24,105,26,11,20,064,26,18,30,302,30,7*76
$GAGSV,2,2,07,30,37,300,38,34,45,282,43,36,62,022,33,7*43
$GAGSV,1,1,03,04,13,052,,15,00,260,,25,18,177,,0*49
$GBGSV,2,1,08,07,74,226,39,08,51,241,33,10,70,269,45,11,49,068,45,1*76
$GBGSV,2,2,08,23,23,236,32,28,33,298,40,34,31,087,31,37,21,290,26,1*75
$GBGSV,1,1,04,07,74,226,35,08,51,241,35,10,70,269,39,11,49,068,43,3*7C
$GBGSV,1,1,01,03,44,206,,0*41
$GNRMC,035206.00,A,3727.1193843,N,12639.1612952,E,0.013,,220622,,,F,V*14
$GNVTG,,T,,M,0.013,N,0.024,K,D*3C
$GNGNS,035206.00,3727.1193843,N,12639.1612952,E,FFFF,28,0.66,25.404,17.833,2.0,4095,V*06
$GNGGA,035206.00,3727.1193843,N,12639.1612952,E,5,12,0.66,25.404,M,17.833,M,2.0,4095*5B
$GNGSA,A,3,14,19,06,17,04,03,01,,,,,,1.26,0.66,1.07,1*09
$GNGSA,A,3,78,76,72,88,71,87,77,,,,,,1.26,0.66,1.07,2*03
$GNGSA,A,3,30,09,34,02,11,36,,,,,,,1.26,0.66,1.07,3*0A
$GNGSA,A,3,11,23,08,34,37,07,28,10,,,,,1.26,0.66,1.07,4*01
$GPGSV,2,1,08,01,21,058,27,03,49,058,49,04,14,110,31,06,41,270,46,1*6C
$GPGSV,2,2,08,14,46,194,20,17,73,004,50,19,53,321,38,28,,,26,1*5D
$GPGSV,2,1,06,01,21,058,19,03,49,058,44,04,14,110,25,06,41,270,35,6*64
$GPGSV,2,2,06,14,46,194,20,17,73,004,41,6*6F
$GPGSV,1,1,02,40,06,259,,41,27,238,,0*62
$GLGSV,2,1,07,71,37,062,19,72,38,128,22,76,14,204,14,77,36,252,30,1*73
$GLGSV,2,2,07,78,23,316,28,87,49,335,44,88,19,291,34,1*4D
$GLGSV,2,1,07,65,08,170,09,71,37,062,41,72,38,128,07,76,14,204,09,3*70
$GLGSV,2,2,07,77,36,252,33,78,23,316,31,88,19,291,20,3*45
$GLGSV,1,1,02,70,05,022,,86,31,061,,0*72
$GAGSV,2,1,07,02,51,224,29,09,24,105,37,11,20,064,21,18,30,302,34,2*7B
$GAGSV,2,2,07,30,37,300,39,34,45,282,46,36,62,022,36,2*47
$GAGSV,2,1,07,02,51,224,32,09,24,105,26,11,20,064,26,18,30,302,29,7*7F
$GAGSV,2,2,07,30,37,300,38,34,45,282,43,36,62,022,33,7*43
$GAGSV,1,1,03,04,13,052,,15,00,260,,25,18,177,,0*49
$GBGSV,2,1,08,07,74,226,39,08,51,241,33,10,70,269,45,11,49,068,44,1*77
$GBGSV,2,2,08,23,23,236,31,28,33,298,40,34,31,087,31,37,21,290,27,1*77
$GBGSV,1,1,04,07,74,226,35,08,51,241,34,10,70,269,39,11,49,068,43,3*7D
$GBGSV,1,1,01,03,44,206,,0*41
$GNRMC,035207.00,A,3727.1193874,N,12639.1613082,E,0.010,,220622,,,F,V*17
$GNVTG,,T,,M,0.010,N,0.019,K,D*31
$GNGNS,035207.00,3727.1193874,N,12639.1613082,E,FFFF,28,0.66,25.559,17.833,2.0,4095,V*0F
$GNGGA,035207.00,3727.1193874,N,12639.1613082,E,5,12,0.66,25.559,M,17.833,M,2.0,4095*52
$GNGSA,A,3,14,19,06,17,04,03,01,,,,,,1.26,0.66,1.07,1*09
$GNGSA,A,3,78,76,72,88,71,87,77,,,,,,1.26,0.66,1.07,2*03
$GNGSA,A,3,30,09,34,02,11,36,,,,,,,1.26,0.66,1.07,3*0A
$GNGSA,A,3,11,23,08,34,37,07,28,10,,,,,1.26,0.66,1.07,4*01
$GPGSV,2,1,08,01,21,059,28,03,49,058,49,04,14,110,31,06,41,270,46,1*62
$GPGSV,2,2,08,14,46,194,21,17,73,004,50,19,53,321,39,28,,,25,1*5E
$GPGSV,2,1,06,01,21,059,19,03,49,058,45,04,14,110,25,06,41,270,36,6*67
$GPGSV,2,2,06,14,46,194,19,17,73,004,41,6*65
$GPGSV,1,1,02,40,06,259,,41,27,238,,0*62
$GLGSV,2,1,07,71,37,062,21,72,38,128,22,76,14,204,12,77,36,252,30,1*7E
$GLGSV,2,2,07,78,23,316,28,87,49,335,44,88,19,291,34,1*4D
$GLGSV,2,1,07,65,08,170,07,71,37,062,41,72,38,128,11,76,14,204,11,3*70
$GLGSV,2,2,07,77,36,252,33,78,23,316,31,88,19,291,21,3*44
$GLGSV,1,1,02,70,05,022,,86,31,061,,0*72
$GAGSV,2,1,07,02,51,224,29,09,24,105,37,11,20,064,21,18,30,302,34,2*7B
$GAGSV,2,2,07,30,37,300,39,34,45,282,46,36,62,022,36,2*47
$GAGSV,2,1,07,02,51,224,33,09,24,105,26,11,20,064,26,18,30,302,29,7*7E
$GAGSV,2,2,07,30,37,300,38,34,45,282,43,36,62,022,32,7*42
$GAGSV,1,1,03,04,13,052,,15,00,260,,25,18,177,,0*49
$GBGSV,2,1,08,07,74,226,39,08,51,241,33,10,70,269,45,11,49,068,44,1*77
$GBGSV,2,2,08,23,23,236,32,28,33,298,40,34,31,087,30,37,21,290,27,1*75
$GBGSV,1,1,04,07,74,226,35,08,51,241,34,10,70,269,39,11,49,068,43,3*7D
$GBGSV,1,1,01,03,44,206,,0*41
$GNRMC,035208.00,A,3727.1193864,N,12639.1613059,E,0.001,,220622,,,F,V*1F
$GNVTG,,T,,M,0.001,N,0.003,K,D*3A
$GNGNS,035208.00,3727.1193864,N,12639.1613059,E,FFFF,28,0.66,25.716,17.833,2.0,4095,V*0E
$GNGGA,035208.00,3727.1193864,N,12639.1613059,E,5,12,0.66,25.716,M,17.833,M,2.0,4095*53
$GNGSA,A,3,14,19,06,17,04,03,01,,,,,,1.26,0.66,1.07,1*09
$GNGSA,A,3,78,76,72,88,71,87,77,,,,,,1.26,0.66,1.07,2*03
$GNGSA,A,3,30,09,34,02,11,36,,,,,,,1.26,0.66,1.07,3*0A
$GNGSA,A,3,11,23,08,34,37,07,28,10,,,,,1.26,0.66,1.07,4*01
$GPGSV,2,1,08,01,21,059,28,03,49,057,49,04,14,110,32,06,41,270,46,1*6E
$GPGSV,2,2,08,14,46,194,21,17,73,004,50,19,53,321,39,28,,,25,1*5E
$GPGSV,2,2,06,14,46,194,19,17,73,004,41,6*65
$GPGSV,1,1,02,40,06,259,,41,27,238,,0*62
$GLGSV,2,1,07,71,37,062,23,72,38,128,23,76,14,204,13,77,36,252,30,1*7C
$GLGSV,2,2,07,78,23,316,28,87,49,335,44,88,19,291,34,1*4D
$GLGSV,2,1,07,65,08,170,07,71,37,062,41,72,38,128,08,76,14,204,12,3*7B
$GLGSV,2,2,07,77,36,252,32,78,23,316,31,88,19,291,21,3*45
$GLGSV,1,1,02,70,05,022,,86,31,061,,0*72
$GAGSV,2,1,07,02,51,224,29,09,24,105,37,11,20,064,21,18,30,302,34,2*7B
$GAGSV,2,2,07,30,37,300,39,34,45,282,46,36,62,022,36,2*47
$GAGSV,2,1,07,02,51,224,33,09,24,105,25,11,20,064,26,18,30,302,28,7*7C
$GAGSV,2,2,07,30,37,300,38,34,45,282,43,36,62,022,32,7*42
$GAGSV,1,1,03,04,13,052,,15,00,260,,25,18,177,,0*49
$GBGSV,2,1,08,07,74,226,39,08,51,241,33,10,70,269,45,11,49,068,44,1*77
$GBGSV,2,2,08,23,23,236,32,28,33,298,40,34,31,087,31,37,21,290,27,1*74
$GBGSV,1,1,04,07,74,226,35,08,51,241,34,10,70,269,39,11,49,068,43,3*7D
$GBGSV,1,1,01,03,44,206,,0*41$GNRMC,035209.00,A,3727.1193716,N,12639.1613025,E,0.013,,220622,,,F,V*1C
$GNVTG,,T,,M,0.013,N,0.024,K,D*3C
$GNGNS,035209.00,3727.1193716,N,12639.1613025,E,FFFF,28,0.66,25.853,17.833,2.0,4095,V*00
$GNGGA,035209.00,3727.1193716,N,12639.1613025,E,5,12,0.66,25.853,M,17.833,M,2.0,4095*5D
$GNGSA,A,3,14,19,06,17,04,03,01,,,,,,1.26,0.66,1.07,1*09
$GNGSA,A,3,78,76,72,88,71,87,77,,,,,,1.26,0.66,1.07,2*03
$GNGSA,A,3,30,09,34,02,11,36,,,,,,,1.26,0.66,1.07,3*0A
$GNGSA,A,3,11,23,08,34,37,07,28,10,,,,,1.26,0.66,1.07,4*01
$GPGSV,2,1,08,01,21,059,29,03,49,057,49,04,14,110,31,06,41,270,46,1*6C
$GPGSV,2,2,08,14,46,194,21,17,73,004,50,19,53,321,39,28,,,25,1*5E
$GPGSV,2,1,06,01,21,059,18,03,49,057,44,04,14,110,26,06,41,270,36,6*6B
$GPGSV,2,2,06,14,46,194,18,17,73,004,41,6*64
$GPGSV,1,1,02,40,06,259,,41,27,238,,0*62
$GLGSV,2,1,07,71,37,062,32,72,38,128,23,76,14,204,13,77,36,252,30,1*7C
$GLGSV,2,2,07,78,23,316,30,87,49,335,44,88,19,291,34,1*44
$GLGSV,2,1,07,65,08,170,10,71,37,062,41,72,38,128,07,76,14,204,13,3*73
$GLGSV,2,2,07,77,36,252,32,78,23,316,30,88,19,291,23,3*46
$GLGSV,1,1,02,70,05,022,,86,31,061,,0*72
$GAGSV,2,1,07,02,51,224,29,09,24,105,37,11,20,064,20,18,30,302,34,2*7A
$GAGSV,2,2,07,30,37,300,39,34,45,282,45,36,62,022,37,2*45
$GAGSV,2,1,07,02,51,224,33,09,24,105,25,11,20,064,26,18,30,302,26,7*72
$GAGSV,2,2,07,30,37,300,38,34,45,282,43,36,62,022,32,7*42
$GAGSV,1,1,03,04,13,052,,15,00,260,,25,18,177,,0*49
$GBGSV,2,1,08,07,74,226,39,08,51,241,33,10,70,269,45,11,49,068,44,1*77
$GBGSV,2,2,08,23,23,236,32,28,33,298,40,34,31,087,31,37,21,290,26,1*75
$GBGSV,1,1,04,07,74,226,35,08,51,241,35,10,70,269,39,11,49,068,43,3*7C
$GBGSV,1,1,01,03,44,206,,0*41
$GNRMC,035210.00,A,3727.1193441,N,12639.1612944,E,0.013,,220622,,,F,V*1A
$GNVTG,,T,,M,0.013,N,0.024,K,D*3C
$GNGNS,035210.00,3727.1193441,N,12639.1612944,E,FFFF,28,0.60,26.009,17.833,2.0,4095,V*04
$GNGSA,A,3,14,19,06,17,04,03,01,,,,,,1.15,0.60,0.98,1*08
$GNGSA,A,3,78,76,72,88,71,87,77,,,,,,1.15,0.60,0.98,2*02
$GNGSA,A,3,30,09,34,02,11,36,,,,,,,1.15,0.60,0.98,3*0B
$GNGSA,A,3,11,23,08,34,37,07,28,10,,,,,1.15,0.60,0.98,4*00
$GPGSV,2,1,08,01,21,059,29,03,49,057,49,04,14,110,24,06,41,271,46,1*69
$GPGSV,2,2,08,14,46,194,22,17,73,004,50,19,53,321,40,28,,,25,1*53
$GPGSV,2,1,06,01,21,059,23,03,49,057,44,04,14,110,26,06,41,271,35,6*61
$GPGSV,2,2,06,14,46,194,18,17,73,004,41,6*64
$GPGSV,1,1,02,40,06,259,,41,27,238,,0*62
$GLGSV,2,1,07,71,37,062,41,72,38,128,25,76,14,204,14,77,36,252,29,1*71
$GLGSV,2,2,07,78,23,316,31,87,49,335,44,88,19,291,33,1*42
$GLGSV,2,1,07,65,08,170,10,71,37,062,41,72,38,128,09,76,14,204,09,3*76
$GLGSV,2,2,07,77,36,252,32,78,23,316,30,88,19,291,24,3*41
$GLGSV,1,1,02,70,05,022,,86,31,061,,0*72
$GAGSV,2,1,07,02,51,224,29,09,24,105,36,11,20,064,20,18,30,302,34,2*7B
$GAGSV,2,2,07,30,37,300,39,3$GAGSV,2,1,07,02,51,224,33,09,24,105,24,11,20,064,27,18,30,302,26,7*72
$GAGSV,2,2,07,30,37,300,38,34,45,282,43,36,62,022,31,7*41
$GAGSV,1,1,03,04,13,052,,15,00,260,,25,18,177,,0*49
$GBGSV,2,1,08,07,74,226,39,08,51,241,33,10,70,269,45,11,49,068,44,1*77
$GBGSV,2,2,08,23,23,236,32,28,33,298,40,34,31,087,31,37,21,290,27,1*74
$GBGSV,1,1,04,07,74,226,36,08,51,241,36,10,70,269,39,11,49,068,44,3*7B
$GBGSV,1,1,01,03,44,206,,0*41
$GNRMC,035211.00,A,3727.1193372,N,12639.1612868,E,0.063,,220622,,,F,V*14
$GNVTG,,T,,M,0.063,N,0.116,K,D*3B
$GNGNS,035211.00,3727.1193372,N,12639.1612868,E,FFFF,28,0.66,26.142,17.833,2.0,4095,V*05
$GNGGA,035211.00,3727.1193372,N,12639.1612868,E,5,12,0.66,26.142,M,17.833,M,2.0,4095*58
$GNGSA,A,3,14,19,06,17,04,03,01,,,,,,1.26,0.66,1.07,1*09
$GNGSA,A,3,78,76,72,88,71,87,77,,,,,,1.26,0.66,1.07,2*03
$GNGSA,A,3,30,09,34,02,11,36,,,,,,,1.26,0.66,1.07,3*0A
$GNGSA,A,3,11,23,08,34,37,07,28,10,,,,,1.26,0.66,1.07,4*01
$GPGSV,2,1,08,01,21,059,30,03,49,057,49,04,14,110,31,06,41,271,46,1*65
$GPGSV,2,2,08,14,46,194,22,17,73,004,50,19,53,321,41,28,,,25,1*52
$GPGSV,2,1,06,01,21,059,23,03,49,057,44,04,14,110,25,06,41,271,35,6*62
$GPGSV,2,2,06,14,46,194,17,17,73,004,41,6*6B
$GPGSV,1,1,02,40,06,259,,41,27,238,,0*62
$GLGSV,2,1,07,71,37,062,38,72,38,128,26,76,14,204,11,77,36,252,30,1*71
$GLGSV,2,2,07,78,23,316,30,87,49,335,44,88,19,291,34,1*44
$GLGSV,2,1,07,65,08,170,10,71,37,062,41,72,38,128,09,76,14,204,09,3*76
$GLGSV,2,2,07,77,36,252,32,78,23,316,30,88,19,291,24,3*41
$GLGSV,1,1,02,70,05,022,,86,31,061,,0*72
$GAGSV,2,1,07,02,51,224,29,09,24,105,34,11,20,064,19,18,30,302,34,2*73
$GAGSV,2,2,07,30,37,300,39,34,45,282,46,36,62,022,37,2*46
$GAGSV,2,1,07,02,51,224,33,09,24,105,25,11,20,064,29,18,30,302,24,7*7F
$GAGSV,2,2,07,30,37,300,38,34,45,282,43,36,62,022,31,7*41
$GAGSV,1,1,03,04,13,052,,15,00,260,,25,18,177,,0*49
$GBGSV,2,1,08,07,74,226,39,08,51,241,33,10,70,269,45,11,49,068,45,1*76
$GBGSV,2,2,08,23,23,236,33,28,33,298,40,34,31,087,31,37,21,290,27,1*75
$GBGSV,1,1,04,07,74,226,35,08,51,241,36,10,70,269,39,11,49,068,45,3*79
$GBGSV,1,1,01,03,44,206,,0*41
$GNRMC,035212.00,A,3727.1193455,N,12639.1612927,E,0.030,,220622,,,F,V*19
$GNVTG,,T,,M,0.030,N,0.056,K,D*38
$GNGNS,035212.00,3727.1193455,N,12639.1612927,E,FFFF,28,0.66,26.260,17.833,2.0,4095,V*0D
$GNGGA,035212.00,3727.1193455,N,12639.1612927,E,5,12,0.66,26.260,M,17.833,M,2.0,4095*50
$GNGSA,A,3,14,19,06,17,04,03,01,,,,,,1.26,0.66,1.07,1*09
$GNGSA,A,3,78,76,72,88,71,87,77,,,,,,1.26,0.66,1.07,2*03
$GNGSA,A,3,30,09,34,02,11,36,,,,,,,1.26,0.66,1.07,3*0A
$GNGSA,A,3,11,23,08,34,37,07,28,10,,,,,1.26,0.66,1.07,4*01
$GPGSV,2,1,08,01,21,059,30,03,49,057,49,04,14,110,30,06,41,271,46,1*64
$GPGSV,2,2,08,14,46,194,22,17,73,004,50,19,53,321,41,28,,,25,1*52
$GPGSV,2,1,06,01,21,059,23,03,49,057,44,04,14,110,25,06,41,271,36,6*61
$GPGSV,2,2,06,14,46,194,16,17,73,004,41,6*6A
$GPGSV,1,1,02,40,06,259,,41,27,238,,0*62
$GLGSV,2,1,07,71,37,062,38,72,38,128,25,76,14,204,09,77,36,252,30,1*7B
$GLGSV,2,2,07,78,23,316,31,87,49,335,44,88,19,291,34,1*45
$GLGSV,2,1,07,65,08,170,09,71,37,062,41,72,38,128,10,76,14,204,09,3*76
$GLGSV,2,2,07,77,36,252,32,78,23,316,30,88,19,291,23,3*46
$GLGSV,1,1,02,70,05,022,,86,31,061,,0*72
$GAGSV,2,1,07,02,51,224,29,09,24,105,37,11,20,064,19,18,30,302,34,2*70
$GAGSV,2,2,07,30,37,300,38,34,45,282,46,36,62,022,37,2*47
$GAGSV,2,1,07,02,51,224,33,09,24,105,26,11,20,064,30,18,30,302,24,7*74
$GAGSV,2,2,07,30,37,300,38,34,45,282,43,36,62,022,31,7*41
$GAGSV,1,1,03,04,13,052,,15,00,260,,25,18,177,,0*49
$GBGSV,2,1,08,07,74,226,39,08,51,241,33,10,70,269,45,11,49,068,45,1*76
$GBGSV,2,2,08,23,23,236,33,28,33,298,40,34,31,087,31,37,21,290,27,1*75
$GBGSV,1,1,04,07,74,226,35,08,51,241,36,10,70,269,39,11,49,068,44,3*78
$GNRMC,035213.00,A,3727.1193675,N,12639.1612893,E,0.014,,220622,,,F,V*10
$GNVTG,,T,,M,0.014,N,0.026,K,D*39
$GNGNS,035213.00,3727.1193675,N,12639.1612893,E,FFFF,28,0.71,26.411,17.833,1.0,4095,V*07
$GNGGA,035213.00,3727.1193675,N,12639.1612893,E,5,12,0.71,26.411,M,17.833,M,1.0,4095*5A
$GNGSA,A,3,14,19,06,17,04,03,01,,,,,,1.28,0.71,1.07,1*01
$GNGSA,A,3,78,76,72,88,71,87,77,,,,,,1.28,0.71,1.07,2*0B
$GNGSA,A,3,30,09,34,02,11,36,,,,,,,1.28,0.71,1.07,3*02
$GNGSA,A,3,11,23,08,34,37,07,28,10,,,,,1.28,0.71,1.07,4*09
$GPGSV,2,1,08,01,21,059,30,03,49,057,49,04,14,110,30,06,41,271,46,1*64
$GPGSV,2,2,08,14,46,193,22,17,73,004,50,19,53,321,41,28,,,25,1*55
$GPGSV,2,1,06,01,21,059,23,03,49,057,44,04,14,110,24,06,41,271,36,6*60
$GPGSV,2,2,06,14,46,193,15,17,73,004,41,6*6E
$GPGSV,1,1,02,40,06,259,,41,27,238,,0*62
$GLGSV,2,1,07,71,37,062,39,72,38,128,25,76,14,204,18,77,36,252,29,1*72
$GLGSV,2,2,07,78,23,316,30,87,49,335,44,88,19,291,34,1*44
$GLGSV,2,1,07,65,08,170,10,71,37,062,41,72,38,128,05,76,14,204,08,3*7B
$GLGSV,2,2,07,77,36,252,32,78,23,316,30,88,19,291,23,3*46
$GLGSV,1,1,02,70,05,022,,86,31,061,,0*72
$GAGSV,2,1,07,02,51,224,29,09,24,105,37,11,20,064,19,18,30,302,34,2*70
$GAGSV,2,2,07,30,37,300,38,34,45,282,46,36,62,022,37,2*47
$GAGSV,2,1,07,02,51,224,33,09,24,105,26,11,20,064,30,18,30,302,22,7*72
$GAGSV,2,2,07,30,37,300,38,34,45,282,43,36,62,022,31,7*41
$GAGSV,1,1,03,04,13,052,,15,00,260,,25,18,177,,0*49
$GBGSV,2,1,08,07,74,226,39,08,51,241,33,10,70,269,45,11,49,068,45,1*76
$GBGSV,2,2,08,23,23,236,33,28,33,298,40,34,31,087,32,37,21,290,28,1*79
$GBGSV,1,1,04,07,74,226,35,08,51,241,36,10,70,269,39,11,49,068,44,3*78
$GBGSV,1,1,01,03,44,206,,0*41
$GNRMC,035214.00,A,3727.1194056,N,12639.1612698,E,0.009,,220622,,,F,V*1E
$GNVTG,,T,,M,0.009,N,0.016,K,D*36
$GNGNS,035214.00,3727.1194056,N,12639.1612698,E,FFFF,29,0.66,26.575,17.833,2.0,4095,V*02
$GNGGA,035214.00,3727.1194056,N,12639.1612698,E,5,12,0.66,26.575,M,17.833,M,2.0,4095*5E
$GNGSA,A,3,14,19,06,17,04,03,01,41,,,,,1.26,0.66,1.07,1*0C
$GNGSA,A,3,78,76,72,88,71,87,77,,,,,,1.26,0.66,1.07,2*03
$GNGSA,A,3,30,09,34,02,11,36,,,,,,,1.26,0.66,1.07,3*0A
$GNGSA,A,3,11,23,08,34,37,07,28,10,,,,,1.26,0.66,1.07,4*01
$GPGSV,3,1,09,01,21,059,30,03,49,057,49,04,14,110,31,06,41,271,46,1*65
$GPGSV,3,2,09,14,46,193,22,17,73,004,50,19,53,321,41,28,,,25,1*55
$GPGSV,3,3,09,41,27,238,31,1*56
$GPGSV,2,1,06,01,21,059,23,03,49,057,44,04,14,110,24,06,41,271,36,6*60
$GPGSV,2,2,06,14,46,193,14,17,73,004,41,6*6F
$GPGSV,1,1,01,40,06,259,,0*58
$GLGSV,2,1,07,71,37,062,39,72,38,128,25,76,14,204,10,77,36,252,29,1*7A
$GLGSV,2,2,07,78,23,316,30,87,49,335,44,88,19,291,34,1*44
$GLGSV,2,1,07,65,08,170,09,71,37,062,41,72,38,128,10,76,14,204,08,3*77
$GLGSV,2,2,07,77,36,252,32,78,23,316,30,88,19,291,24,3*41
$GLGSV,1,1,02,70,05,022,,86,31,061,,0*72
$GAGSV,2,1,07,02,51,224,29,09,24,105,37,11,20,064,20,18,30,302,34,2*7A
$GAGSV,2,2,07,30,37,300,38,34,45,282,46,36,62,022,37,2*47
$GAGSV,2,1,07,02,51,224,33,09,24,105,25,11,20,064,30,18,30,302,21,7*72
$GAGSV,2,2,07,30,37,300,37,34,45,282,43,36,62,022,31,7*4E
$GAGSV,1,1,03,04,13,052,,15,00,260,,25,18,177,,0*49
$GBGSV,2,1,08,07,74,226,39,08,51,241,33,10,70,269,45,11,49,068,45,1*76
$GBGSV,2,2,08,23,23,236,33,28,33,298,40,34,31,087,32,37,21,290,28,1*79
$GBGSV,1,1,04,07,74,226,35,08,51,241,36,10,70,269,39,11,49,068,44,3*78
$GBGSV,1,1,01,03,44,206,,0*41
$GNRMC,035215.00,A,3727.1194328,N,12639.1612518,E,0.017,,220622,,,F,V*11
$GNVTG,,T,,M,0.017,N,0.031,K,D*3C
$GNGNS,035215.00,3727.1194328,N,12639.1612518,E,FFFF,29,0.66,26.741,17.833,2.0,4095,V*07
$GNGGA,035215.00,3727.1194328,N,12639.1612518,E,5,12,0.66,26.741,M,17.833,M,2.0,4095*5B
$GNGSA,A,3,14,19,06,17,04,03,01,41,,,,,1.26,0.66,1.07,1*0C
$GNGSA,A,3,78,76,72,88,71,87,77,,,,,,1.26,0.66,1.07,2*03
$GNGSA,A,3,30,09,34,02,11,36,,,,,,,1.26,0.66,1.07,3*0A
$GNGSA,A,3,11,23,08,34,37,07,28,10,,,,,1.26,0.66,1.07,4*01
$GPGSV,3,1,09,01,21,059,30,03,49,057,49,04,14,110,30,06,41,271,46,1*64
$GPGSV,3,2,09,14,46,193,22,17,73,004,50,19,53,321,41,28,,,26,1*56
$GPGSV,3,3,09,41,27,238,30,1*57
$GPGSV,2,1,06,01,21,059,23,03,49,057,44,04,14,110,23,06,41,271,36,6*67
$GPGSV,2,2,06,14,46,193,14,17,73,004,41,6*6F
$GPGSV,1,1,01,40,06,259,,0*58
$GLGSV,2,1,07,71,37,062,39,72,38,128,25,76,14,204,13,77,36,252,29,1*79
$GLGSV,2,2,07,78,23,316,30,87,49,335,44,88,19,291,34,1*44
$GLGSV,2,1,07,65,08,170,10,71,37,062,41,72,38,128,09,76,14,204,10,3*7E
$GLGSV,2,2,07,77,36,252,32,78,23,316,30,88,19,291,25,3*40
$GLGSV,1,1,02,70,05,022,,86,31,061,,0*72
$GAGSV,2,1,07,02,51,224,28,09,24,105,37,11,20,064,20,18,30,302,33,2*7C
$GAGSV,2,2,07,30,37,300,38,34,45,282,46,36,62,022,37,2*47
$GAGSV,2,1,07,02,51,224,33,09,24,105,25,11,20,064,30,18,30,302,19,7*79
$GAGSV,2,2,07,30,37,300,37,34,45,282,43,36,62,022,31,7*4E
$GAGSV,1,1,03,04,13,052,,15,00,260,,25,18,177,,0*49
$GBGSV,2,1,08,07,74,226,38,08,51,241,34,10,70,269,45,11,49,068,44,1*71
$GBGSV,2,2,08,23,23,236,33,28,33,298,40,34,31,087,31,37,21,290,28,1*7A
$GBGSV,1,1,04,07,74,226,35,08,51,241,36,10,70,269,39,11,49,068,44,3*78
$GBGSV,1,1,01,03,44,206,,0*41
$GNRMC,035216.00,A,3727.1194465,N,12639.1612359,E,0.022,,220622,,,F,V*19
$GNVTG,,T,,M,0.022,N,0.041,K,D*3D
$GNGNS,035216.00,3727.1194465,N,12639.1612359,E,FFFF,29,0.71,26.906,17.833,2.0,4095,V*02
$GNGGA,035216.00,3727.1194465,N,12639.1612359,E,5,12,0.71,26.906,M,17.833,M,2.0,4095*5E
$GNGSA,A,3,14,19,06,17,04,03,01,41,,,,,1.28,0.71,1.07,1*04
$GNGSA,A,3,78,76,72,88,71,87,77,,,,,,1.28,0.71,1.07,2*0B
$GNGSA,A,3,30,09,34,02,11,36,,,,,,,1.28,0.71,1.07,3*02
$GNGSA,A,3,11,23,08,34,37,07,28,10,,,,,1.28,0.71,1.07,4*09
$GPGSV,3,1,09,01,21,059,30,03,49,057,49,04,14,110,30,06,41,271,46,1*64
$GPGSV,3,2,09,14,46,193,21,17,73,005,50,19,53,321,42,28,,,26,1*57
$GPGSV,3,3,09,41,27,238,31,1*56
$GPGSV,2,1,06,01,21,059,23,03,49,057,44,04,14,110,23,06,41,271,36,6*67
$GPGSV,2,2,06,14,46,193,14,17,73,005,41,6*6E
$GPGSV,1,1,01,40,06,259,,0*58
$GLGSV,2,1,07,71,37,062,39,72,38,128,25,76,14,204,08,77,36,252,28,1*72
$GLGSV,2,2,07,78,23,316,31,87,49,335,45,88,19,291,34,1*44
$GLGSV,2,1,07,65,08,170,06,71,37,062,41,72,38,128,09,76,14,204,08,3*70
$GLGSV,2,2,07,77,36,252,32,78,23,316,30,88,19,291,25,3*40
$GLGSV,1,1,02,70,05,022,,86,31,061,,0*72
$GAGSV,2,1,07,02,51,224,28,09,24,105,37,11,20,064,21,18,30,302,33,2*7D
$GAGSV,2,2,07,30,37,300,38,34,45,282,46,36,62,022,37,2*47
$GAGSV,2,1,06,02,51,224,33,09,24,105,25,11,20,064,29,30,37,300,37,7*73
$GAGSV,2,2,06,34,45,282,43,36,62,022,30,7*7E
$GAGSV,1,1,03,04,13,052,,15,00,260,,25,18,177,,0*49
$GBGSV,2,1,08,07,74,226,38,08,51,241,34,10,70,269,45,11,49,068,44,1*71
$GBGSV,2,2,08,23,23,236,33,28,33,298,40,34,31,087,30,37,21,290,28,1*7B
$GBGSV,1,1,04,07,74,226,35,08,51,241,36,10,70,269,39,11,49,068,44,3*78
$GBGSV,1,1,01,03,44,206,,0*41
$GNRMC,035217.00,A,3727.1194710,N,12639.1612217,E,0.007,,220622,,,F,V*15
$GNVTG,,T,,M,0.007,N,0.012,K,D*3C
$GNGNS,035217.00,3727.1194710,N,12639.1612217,E,FFFF,28,0.60,27.036,17.833,2.0,4095,V*03
$GNGGA,035217.00,3727.1194710,N,12639.1612217,E,5,12,0.60,27.036,M,17.833,M,2.0,4095*5E
$GNGSA,A,3,14,19,06,17,04,03,01,41,,,,,1.15,0.60,0.98,1*0D
$GNGSA,A,3,78,76,72,88,71,87,77,,,,,,1.15,0.60,0.98,2*02
$GNGSA,A,3,30,09,34,02,11,36,,,,,,,1.15,0.60,0.98,3*0B
$GNGSA,A,3,11,23,08,34,37,07,28,10,,,,,1.15,0.60,0.98,4*00
$GPGSV,3,1,09,01,21,059,31,03,49,057,49,04,14,110,30,06,41,271,46,1*65
$GPGSV,3,2,09,14,46,193,19,17,73,005,51,19,53,321,42,28,,,27,1*5C
$GPGSV,3,3,09,41,27,238,30,1*57
$GPGSV,2,1,06,01,21,059,22,03,49,057,44,04,14,110,23,06,41,271,36,6*66
$GPGSV,2,2,06,14,46,193,14,17,73,005,41,6*6E
$GPGSV,1,1,01,40,06,259,,0*58
$GLGSV,2,1,07,71,37,062,39,72,38,128,25,76,14,204,10,77,36,252,28,1*7B
$GLGSV,2,2,07,78,23,316,31,87,49,335,45,88,19,291,33,1*43
$GLGSV,2,1,07,65,08,170,07,71,37,062,41,72,38,128,11,76,14,204,07,3*77
$GLGSV,2,2,07,77,36,252,32,78,23,316,30,88,19,291,24,3*41
$GLGSV,1,1,02,70,05,022,,86,31,061,,0*72
$GAGSV,2,1,07,02,51,224,28,09,24,105,37,11,20,064,22,18,30,302,33,2*7E
$GAGSV,2,2,07,30,37,300,38,34,45,282,46,36,62,022,36,2*46
$GAGSV,2,1,06,02,51,224,33,09,24,105,25,11,20,064,29,30,37,300,37,7*73
$GAGSV,2,2,06,34,45,282,43,36,62,022,30,7*7E
$GAGSV,1,1,03,04,13,052,,15,00,260,,25,18,177,,0*49
$GBGSV,2,1,08,07,74,226,38,08,51,241,34,10,70,269,45,11,49,068,44,1*71
$GBGSV,2,2,08,23,23,236,33,28,33,298,41,34,31,087,30,37,21,290,28,1*7A
$GBGSV,1,1,04,07,74,226,35,08,51,241,36,10,70,269,39,11,49,068,44,3*78
$GBGSV,1,1,01,03,44,206,,0*41
$GNRMC,035218.00,A,3727.1194897,N,12639.1612123,E,0.005,,220622,,,F,V*1C
$GNVTG,,T,,M,0.005,N,0.008,K,D*35
$GNGNS,035218.00,3727.1194897,N,12639.1612123,E,FFFF,29,0.66,27.118,17.833,2.0,4095,V*02
$GNGGA,035218.00,3727.1194897,N,12639.1612123,E,5,12,0.66,27.118,M,17.833,M,2.0,4095*5E
$GNGSA,A,3,14,19,06,17,04,03,01,41,,,,,1.26,0.66,1.07,1*0C
$GNGSA,A,3,78,76,72,88,71,87,77,,,,,,1.26,0.66,1.07,2*03
$GNGSA,A,3,30,09,34,02,11,36,,,,,,,1.26,0.66,1.07,3*0A
$GNGSA,A,3,11,23,08,34,37,07,28,10,,,,,1.26,0.66,1.07,4*01
$GPGSV,3,1,09,01,21,059,31,03,49,057,49,04,14,110,31,06,41,271,46,1*64
$GPGSV,3,2,09,14,46,193,19,17,73,005,51,19,53,321,42,28,,,26,1*5D
$GPGSV,3,3,09,41,27,238,29,1*5F
$GPGSV,2,1,06,01,21,059,22,03,49,057,44,04,14,110,24,06,41,271,36,6*61
$GPGSV,2,2,06,14,46,193,14,17,73,005,41,6*6E
$GPGSV,1,1,01,40,06,259,,0*58
$GLGSV,2,1,07,71,37,062,39,72,38,128,25,76,14,204,12,77,36,252,28,1*79
$GLGSV,2,2,07,78,23,316,30,87,49,335,44,88,19,291,33,1*43
$GLGSV,2,1,07,65,08,170,08,71,37,062,41,72,38,128,08,76,14,204,08,3*7F
$GLGSV,2,2,07,77,36,252,32,78,23,316,30,88,19,291,25,3*40
$GLGSV,1,1,02,70,05,022,,86,31,061,,0*72
$GAGSV,2,1,07,02,51,224,27,09,24,105,37,11,20,064,21,18,30,302,33,2*72
$GAGSV,2,2,07,30,37,300,38,34,45,282,46,36,62,022,37,2*47
$GAGSV,2,1,06,02,51,224,33,09,24,105,25,11,20,064,29,30,37,300,37,7*73
$GAGSV,2,2,06,34,45,282,43,36,62,022,30,7*7E
$GAGSV,1,1,03,04,13,052,,15,00,260,,25,18,177,,0*49
$GBGSV,2,1,08,07,74,226,39,08,51,241,34,10,70,269,45,11,49,068,44,1*70
$GBGSV,2,2,08,23,23,236,33,28,33,298,40,34,31,087,30,37,21,290,28,1*7B
$GNRMC,035219.00,A,3727.1195053,N,12639.1612055,E,0.004,,220622,,,F,V*1D
$GNVTG,,T,,M,0.004,N,0.007,K,D*3B
$GNGNS,035219.00,3727.1195053,N,12639.1612055,E,FFFF,29,0.64,27.216,17.833,2.0,4095,V*0D
$GNGGA,035219.00,3727.1195053,N,12639.1612055,E,5,12,0.64,27.216,M,17.833,M,2.0,4095*51
$GNGSA,A,3,14,19,06,17,04,03,01,41,,,,,1.17,0.64,0.98,1*0B
$GNGSA,A,3,78,76,72,88,71,87,77,,,,,,1.17,0.64,0.98,2*04
$GNGSA,A,3,30,09,34,02,11,36,,,,,,,1.17,0.64,0.98,3*0D
$GNGSA,A,3,11,23,08,34,37,07,28,10,,,,,1.17,0.64,0.98,4*06
$GPGSV,3,1,09,01,21,059,30,03,49,057,49,04,14,110,31,06,41,271,45,1*66
$GPGSV,3,2,09,14,46,193,19,17,73,005,50,19,53,321,41,28,,,26,1*5F
$GPGSV,3,3,09,41,27,238,29,1*5F
$GPGSV,2,1,06,01,21,059,22,03,49,057,44,04,14,110,24,06,41,271,36,6*61
$GPGSV,2,2,06,14,46,193,14,17,73,005,41,6*6E
$GPGSV,1,1,01,40,06,259,,0*58
$GLGSV,2,1,07,71,37,062,39,72,38,128,24,76,14,204,09,77,36,252,28,1*72
$GLGSV,2,2,07,78,23,316,30,87,49,335,45,88,19,291,34,1*45
$GLGSV,2,1,07,65,08,170,11,71,37,062,41,72,38,128,06,76,14,204,07,3*76
$GLGSV,2,2,07,77,36,252,32,78,23,316,30,88,19,291,24,3*41
$GLGSV,1,1,02,70,05,022,,86,31,061,,0*72
$GAGSV,2,1,07,02,51,224,28,09,24,105,37,11,20,064,22,18,30,302,33,2*7E
$GAGSV,2,2,07,30,37,300,38,34,45,282,46,36,62,022,37,2*47
$GAGSV,2,1,06,02,51,224,33,09,24,105,25,11,20,064,29,30,37,300,37,7*73
$GAGSV,2,2,06,34,45,282,43,36,62,022,29,7*76
$GAGSV,1,1,03,04,13,052,,15,00,260,,25,18,177,,0*49
$GBGSV,2,1,08,07,74,226,39,08,51,241,34,10,70,269,45,11,49,068,44,1*70
$GBGSV,2,2,08,23,23,236,33,28,33,298,40,34,31,087,31,37,21,290,29,1*7B
$GBGSV,1,1,04,07,74,226,35,08,51,241,36,10,70,269,39,11,49,068,44,3*78
$GBGSV,1,1,01,03,44,206,,0*41
$GNRMC,035220.00,A,3727.1195379,N,12639.1611885,E,0.014,,220622,,,F,V*1B
$GNVTG,,T,,M,0.014,N,0.026,K,D*39
$GNGNS,035220.00,3727.1195379,N,12639.1611885,E,FFFF,29,0.66,27.293,17.833,2.0,4095,V*05
$GNGGA,035220.00,3727.1195379,N,12639.1611885,E,5,12,0.66,27.293,M,17.833,M,2.0,4095*59
$GNGSA,A,3,14,19,06,17,04,03,01,41,,,,,1.26,0.66,1.07,1*0C
$GNGSA,A,3,78,76,72,88,71,87,77,,,,,,1.26,0.66,1.07,2*03
$GNGSA,A,3,30,09,34,02,11,36,,,,,,,1.26,0.66,1.07,3*0A
$GNGSA,A,3,11,23,08,34,37,07,28,10,,,,,1.26,0.66,1.07,4*01
$GPGSV,3,1,09,01,21,059,30,03,49,057,49,04,14,110,31,06,41,271,45,1*66
$GPGSV,3,2,09,14,46,193,19,17,73,005,50,19,53,321,42,28,,,27,1*5D
$GPGSV,3,3,09,41,27,238,29,1*5F
$GPGSV,2,1,06,01,21,059,22,03,49,057,44,04,14,110,23,06,41,271,36,6*66
$GPGSV,2,2,06,14,46,193,14,17,73,005,41,6*6E
$GPGSV,1,1,01,40,06,259,,0*58
$GLGSV,2,1,07,71,37,062,39,72,38,128,24,76,14,204,13,77,36,252,28,1*79
$GLGSV,2,2,07,78,23,316,30,87,49,335,45,88,19,291,34,1*45
$GLGSV,2,1,07,65,08,170,12,71,37,062,41,72,38,128,07,76,14,204,08,3*7B
$GLGSV,2,2,07,77,36,252,32,78,23,316,31,88,19,291,24,3*40
$GLGSV,1,1,02,70,05,022,,86,31,061,,0*72
$GAGSV,2,1,07,02,51,224,27,09,24,105,37,11,20,064,22,18,30,302,33,2*71
$GAGSV,2,2,07,30,37,300,38,34,45,282,46,36,62,022,37,2*47
$GAGSV,2,1,07,02,51,224,33,09,24,105,26,11,20,064,29,18,30,302,21,7*79
$GNRMC,035221.00,A,3727.1195615,N,12639.1611716,E,0.028,,220622,,,F,V*1F
$GNVTG,,T,,M,0.028,N,0.052,K,D*35
$GNGNS,035221.00,3727.1195615,N,12639.1611716,E,FFFF,29,0.66,27.359,17.833,2.0,4095,V*09
$GNGGA,035221.00,3727.1195615,N,12639.1611716,E,5,12,0.66,27.359,M,17.833,M,2.0,4095*55
$GNGSA,A,3,14,19,06,17,04,03,01,41,,,,,1.26,0.66,1.07,1*0C
$GNGSA,A,3,78,76,72,88,71,87,77,,,,,,1.26,0.66,1.07,2*03
$GNGSA,A,3,30,09,34,02,11,36,,,,,,,1.26,0.66,1.07,3*0A
$GNGSA,A,3,11,23,08,34,37,07,28,10,,,,,1.26,0.66,1.07,4*01
$GPGSV,3,1,09,01,21,059,30,03,49,057,49,04,14,110,31,06,41,271,45,1*66
$GPGSV,3,2,09,14,46,193,18,17,73,005,51,19,53,321,42,28,,,27,1*5D
$GPGSV,3,3,09,41,27,238,29,1*5F
$GPGSV,2,1,06,01,21,059,23,03,49,057,44,04,14,110,23,06,41,271,36,6*67
$GPGSV,2,2,06,14,46,193,13,17,73,005,41,6*69
$GPGSV,1,1,01,40,06,259,,0*58
$GLGSV,2,1,07,71,37,062,40,72,38,128,24,76,14,204,16,77,36,252,27,1*7D
$GLGSV,2,2,07,78,23,316,29,87,49,335,44,88,19,291,35,1*4D
$GLGSV,2,1,07,65,08,170,09,71,37,062,41,72,38,128,08,76,14,204,11,3*76
$GLGSV,2,2,07,77,36,252,32,78,23,316,31,88,19,291,24,3*40
$GLGSV,1,1,02,70,05,022,,86,31,061,,0*72
$GAGSV,2,1,07,02,51,224,27,09,24,105,37,11,20,064,23,18,30,302,33,2*70
$GAGSV,2,2,07,30,37,300,38,34,45,282,46,36,62,022,37,2*47
$GAGSV,2,1,07,02,51,224,34,09,24,105,27,11,20,064,29,18,30,302,22,7*7C
$GAGSV,2,2,07,30,37,300,37,34,45,282,43,36,62,022,28,7*46
$GAGSV,1,1,03,04,13,052,,15,00,260,,25,18,177,,0*49
$GBGSV,2,1,08,07,74,226,38,08,51,241,33,10,70,269,45,11,49,068,44,1*76
$GBGSV,2,2,08,23,23,236,33,28,33,298,41,34,31,087,31,37,21,290,29,1*7A
$GBGSV,1,1,04,07,74,226,35,08,51,241,37,10,70,269,38,11,49,068,44,3*78
$GBGSV,1,1,01,03,44,206,,0*41
$GNRMC,035222.00,A,3727.1195783,N,12639.1611544,E,0.048,,220622,,,F,V*11
$GNVTG,,T,,M,0.048,N,0.089,K,D*35
$GNGNS,035222.00,3727.1195783,N,12639.1611544,E,FFFF,30,0.66,27.453,17.833,2.0,4095,V*04
$GNGGA,035222.00,3727.1195783,N,12639.1611544,E,5,12,0.66,27.453,M,17.833,M,2.0,4095*50
$GNGSA,A,3,14,19,06,17,04,03,01,41,,,,,1.26,0.66,1.07,1*0C
$GNGSA,A,3,78,76,72,88,71,87,77,,,,,,1.26,0.66,1.07,2*03
$GNGSA,A,3,30,09,34,02,11,36,,,,,,,1.26,0.66,1.07,3*0A
$GNGSA,A,3,11,23,08,34,37,07,28,10,03,,,,1.26,0.66,1.07,4*02
$GPGSV,3,1,09,01,21,059,30,03,49,057,49,04,14,110,31,06,41,271,45,1*66
$GPGSV,3,2,09,14,46,193,18,17,73,005,51,19,53,321,42,28,,,26,1*5C
$GPGSV,3,3,09,41,27,238,29,1*5F
$GPGSV,2,1,06,01,21,059,23,03,49,057,44,04,14,110,22,06,41,271,36,6*66
$GPGSV,2,2,06,14,46,193,14,17,73,005,41,6*6E
$GPGSV,1,1,01,40,06,259,,0*58
$GLGSV,2,1,07,71,37,062,40,72,38,128,24,76,14,204,15,77,36,252,27,1*7E
$GLGSV,2,2,07,78,23,316,29,87,49,335,44,88,19,291,35,1*4D
$GLGSV,2,1,07,65,08,170,10,71,37,062,41,72,38,128,09,76,14,204,09,3*76
$GLGSV,2,2,07,77,36,252,32,78,23,316,31,88,19,291,25,3*41
$GLGSV,1,1,02,70,05,022,,86,31,061,,0*72
$GAGSV,2,1,07,02,51,224,27,09,24,105,37,11,20,064,23,18,30,302,33,2*70
$GAGSV,2,2,07,30,37,300,38,34,45,282,46,36,62,022,37,2*47
$GAGSV,2,1,07,02,51,224,33,09,24,105,26,11,20,064,29,18,30,302,24,7*7C
$GAGSV,2,2,07,30,37,300,37,34,45,282,43,36,62,022,28,7*46
$GAGSV,1,1,03,04,13,052,,15,00,260,,25,18,177,,0*49
$GBGSV,2,1,08,07,74,226,38,08,51,241,34,10,70,269,45,11,49,068,44,1*71
$GBGSV,2,2,08,23,23,236,33,28,33,298,41,34,31,087,31,37,21,290,30,1*72
$GNRMC,035223.00,A,3727.1196025,N,12639.1611377,E,0.024,,220622,,,F,V*14
$GNVTG,,T,,M,0.024,N,0.044,K,D*3E
$GNGNS,035223.00,3727.1196025,N,12639.1611377,E,FFFF,30,0.60,27.505,17.833,1.0,4095,V*0C
$GNGGA,035223.00,3727.1196025,N,12639.1611377,E,5,12,0.60,27.505,M,17.833,M,1.0,4095*58
$GNGSA,A,3,14,19,06,17,04,03,01,41,,,,,1.15,0.60,0.98,1*0D
$GNGSA,A,3,78,76,72,88,71,87,77,,,,,,1.15,0.60,0.98,2*02
$GNGSA,A,3,30,09,34,02,11,36,,,,,,,1.15,0.60,0.98,3*0B
$GNGSA,A,3,11,23,08,34,37,07,28,10,03,,,,1.15,0.60,0.98,4*03
$GPGSV,3,1,09,01,21,059,31,03,49,057,49,04,14,110,31,06,41,271,45,1*67
$GPGSV,3,2,09,14,46,193,18,17,73,005,51,19,53,321,42,28,,,25,1*5F
$GPGSV,3,3,09,41,27,238,29,1*5F
$GPGSV,2,1,06,01,21,059,22,03,49,057,44,04,14,110,23,06,41,271,36,6*66
$GPGSV,2,2,06,14,46,193,13,17,73,005,41,6*69
$GPGSV,1,1,01,40,06,259,,0*58
$GLGSV,2,1,07,71,37,062,40,72,38,128,24,76,14,204,13,77,36,252,27,1*78
$GLGSV,2,2,07,78,23,316,29,87,49,335,44,88,19,291,34,1*4C
$GLGSV,2,1,07,65,08,170,12,71,37,062,41,72,38,128,08,76,14,204,08,3*74
$GLGSV,2,2,07,77,36,252,32,78,23,316,31,88,19,291,25,3*41
$GLGSV,1,1,02,70,05,022,,86,31,061,,0*72
$GAGSV,2,1,07,02,51,224,27,09,24,105,37,11,20,064,23,18,30,302,33,2*70
$GNRMC,035224.00,A,3727.1196271,N,12639.1611255,E,0.043,,220622,,,F,V*10
$GNVTG,,T,,M,0.043,N,0.081,K,D*36
$GNGNS,035224.00,3727.1196271,N,12639.1611255,E,FFFF,29,0.66,27.524,17.833,2.0,4095,V*07
$GNGGA,035224.00,3727.1196271,N,12639.1611255,E,5,12,0.66,27.524,M,17.833,M,2.0,4095*5B
$GNGSA,A,3,14,19,06,17,04,03,01,41,,,,,1.26,0.66,1.07,1*0C
$GNGSA,A,3,78,76,72,88,71,87,77,,,,,,1.26,0.66,1.07,2*03
$GNGSA,A,3,30,09,34,02,11,36,,,,,,,1.26,0.66,1.07,3*0A
$GNGSA,A,3,11,23,08,34,37,07,28,10,,,,,1.26,0.66,1.07,4*01
$GPGSV,3,1,09,01,21,059,30,03,49,057,49,04,14,110,31,06,41,271,45,1*66
$GPGSV,3,2,09,14,46,193,19,17,73,005,51,19,53,321,42,28,,,24,1*5F
$GPGSV,3,3,09,41,27,238,30,1*57
$GPGSV,2,1,06,01,21,059,22,03,49,057,44,04,14,110,23,06,41,271,36,6*66
$GPGSV,2,2,06,14,46,193,11,17,73,005,41,6*6B
$GPGSV,1,1,01,40,06,259,,0*58
$GLGSV,2,1,07,71,37,062,40,72,38,128,23,76,14,204,17,77,36,252,28,1*74
$GLGSV,2,2,07,78,23,316,28,87,49,335,44,88,19,291,35,1*4C
$GLGSV,2,1,07,65,08,170,09,71,37,062,41,72,38,128,08,76,14,204,11,3*76
$GLGSV,2,2,07,77,36,252,32,78,23,316,31,88,19,291,25,3*41
$GLGSV,1,1,02,70,05,022,,86,31,061,,0*72
$GNRMC,035225.00,A,3727.1196518,N,12639.1611087,E,0.029,,220622,,,F,V*18
$GNVTG,,T,,M,0.029,N,0.054,K,D*32
$GNGNS,035225.00,3727.1196518,N,12639.1611087,E,FFFF,29,0.71,27.564,17.833,2.0,4095,V*01
$GNGGA,035225.00,3727.1196518,N,12639.1611087,E,5,12,0.71,27.564,M,17.833,M,2.0,4095*5D
$GNGSA,A,3,14,19,06,17,04,03,01,41,,,,,1.28,0.71,1.07,1*04
$GNGSA,A,3,78,76,72,88,71,87,77,,,,,,1.28,0.71,1.07,2*0B
$GNGSA,A,3,30,09,34,02,11,36,,,,,,,1.28,0.71,1.07,3*02
$GNGSA,A,3,11,23,08,34,37,07,28,10,,,,,1.28,0.71,1.07,4*09
$GPGSV,3,1,09,01,21,059,32,03,49,057,49,04,14,110,31,06,41,271,45,1*64
$GPGSV,3,2,09,14,46,193,19,17,73,005,51,19,53,321,42,28,,,23,1*58
$GPGSV,3,3,09,41,27,238,30,1*57
$GPGSV,2,1,06,01,21,059,23,03,49,057,44,04,14,110,23,06,41,271,36,6*67
$GPGSV,2,2,06,14,46,193,12,17,73,005,41,6*68
$GPGSV,1,1,01,40,06,259,,0*58
$GLGSV,2,1,07,71,37,062,40,72,38,128,24,76,14,204,17,77,36,252,28,1*73
$GLGSV,2,2,07,78,23,316,29,87,49,335,44,88,19,291,35,1*4D
$GLGSV,2,1,07,65,08,170,11,71,37,062,41,72,38,128,09,76,14,204,10,3*7F
$GLGSV,2,2,07,77,36,252,32,78,23,316,31,88,19,291,26,3*42
$GLGSV,1,1,02,70,05,022,,86,31,061,,0*72
$GAGSV,2,1,07,02,51,224,28,09,24,105,37,11,20,064,24,18,30,302,33,2*78
$GAGSV,2,2,07,30,37,300,38,34,45,282,46,36,62,022,37,2*47
$GAGSV,2,1,07,02,51,224,33,09,24,105,27,11,20,064,29,18,30,302,28,7*71
$GAGSV,2,2,07,30,37,300,36,34,45,282,43,36,62,022,26,7*49
$GAGSV,1,1,03,04,13,052,,15,00,260,,25,18,177,,0*49
$GBGSV,2,1,08,07,74,226,38,08,51,241,34,10,70,269,45,11,49,068,44,1*71
$GBGSV,2,2,08,23,23,236,33,28,33,298,41,34,31,087,29,37,21,290,30,1*7B
$GBGSV,1,1,04,07,74,226,35,08,51,241,36,10,70,269,38,11,49,068,44,3*79
$GBGSV,1,1,01,03,44,206,,0*41
$GNRMC,035226.00,A,3727.1196667,N,12639.1610976,E,0.018,,220622,,,F,V*14
$GNVTG,,T,,M,0.018,N,0.033,K,D*31
$GNGGA,035226.00,3727.1196667,N,12639.1610976,E,5,12,0.66,27.608,M,17.833,M,2.0,4095*5C
$GNGSA,A,3,14,19,06,17,04,03,01,41,,,,,1.26,0.66,1.07,1*0C
$GNGSA,A,3,78,76,72,88,71,87,77,,,,,,1.26,0.66,1.07,2*03
$GNGSA,A,3,30,09,34,02,11,36,,,,,,,1.26,0.66,1.07,3*0A
$GNGSA,A,3,11,23,08,34,37,07,28,10,,,,,1.26,0.66,1.07,4*01
$GPGSV,3,1,09,01,21,059,32,03,49,057,49,04,14,110,31,06,41,271,45,1*64
$GPGSV,3,2,09,14,46,193,19,17,73,005,51,19,53,321,42,28,,,23,1*58
$GPGSV,3,3,09,41,27,238,31,1*56
$GPGSV,2,1,06,01,21,059,23,03,49,057,44,04,14,110,24,06,41,271,36,6*60
$GPGSV,2,2,06,14,46,193,13,17,73,005,41,6*69
