$GNRMC,041038.00,A,3727.0262941,N,12639.2515839,E,0.044,,220622,,,F,V*1E
$GNVTG,,T,,M,0.044,N,0.082,K,D*32
$GNGNS,041038.00,3727.0262941,N,12639.2515839,E,FFFF,28,0.63,25.004,17.837,41.0,4095,V*3C
$GNGGA,041038.00,3727.0262941,N,12639.2515839,E,5,12,0.63,25.004,M,17.837,M,41.0,4095*61
$GNGSA,A,3,04,17,03,14,01,06,41,09,,,,,1.20,0.63,1.02,1*0B
$GNGSA,A,3,71,88,65,72,78,,,,,,,,1.20,0.63,1.02,2*08
$GNGSA,A,3,09,11,02,25,36,05,,,,,,,1.20,0.63,1.02,3*0A
$GNGSA,A,3,37,14,01,34,03,11,07,04,21,,,,1.20,0.63,1.02,4*05
$GPGSV,3,1,10,01,15,064,40,03,42,050,47,04,19,103,37,06,46,280,12,1*60
$GPGSV,3,2,10,09,15,136,35,14,37,190,31,17,77,034,42,28,,,44,1*5D
$GPGSV,3,3,10,41,27,238,33,50,47,179,39,1*6F
$GPGSV,2,1,06,01,15,064,40,03,42,050,32,04,19,103,19,09,15,136,13,6*69
$GPGSV,2,2,06,14,37,190,37,17,77,034,39,6*63
$GPGSV,2,1,05,02,07,265,,11,11,259,,12,05,326,,19,61,328,,0*6E
$GPGSV,2,2,05,19,61,328,,0*56
$GLGSV,2,1,07,65,17,168,41,71,35,051,48,72,46,118,41,76,06,200,39,1*7E
$GLGSV,2,2,07,78,26,307,20,87,52,350,11,88,24,299,11,1*48
$GLGSV,2,1,06,65,17,168,35,71,35,051,40,72,46,118,22,77,29,243,08,3*7A
$GLGSV,2,2,06,78,26,307,08,88,24,299,08,3*77
$GLGSV,1,1,01,86,27,070,,0*44
$GAGSV,2,1,05,02,44,218,42,05,16,150,22,09,28,098,32,11,16,069,36,2*77
$GAGSV,2,2,05,36,58,034,44,2*4C
$GAGSV,2,1,07,02,44,218,41,05,16,150,35,09,28,098,39,11,16,069,39,7*71
$GAGSV,2,2,07,25,11,176,40,30,39,292,18,36,58,034,43,7*46
$GAGSV,2,1,05,04,12,046,,15,04,266,,18,39,305,,27,01,330,,0*74
$GAGSV,2,2,05,27,01,330,,0*45
$GBGSV,3,1,10,01,43,152,32,03,44,206,36,04,35,132,29,07,71,221,41,1*7A
$GBGSV,3,2,10,11,45,077,41,14,50,137,42,21,18,042,46,28,38,303,18,1*77
$GBGSV,3,3,10,34,27,093,32,37,19,283,21,1*78
$GBGSV,2,1,08,01,43,152,36,03,44,206,40,04,35,132,34,07,71,221,33,3*7C
$GBGSV,2,2,08,08,52,248,18,11,45,077,30,14,50,137,43,21,18,042,08,3*70
$GBGSV,2,1,05,05,08,256,,10,68,261,,12,01,100,,13,42,245,,0*73
$GBGSV,2,2,05,13,42,245,,0*45
$GNRMC,041039.00,A,3727.0263010,N,12639.2515798,E,0.014,,220622,,,F,V*12
$GNGNS,041039.00,3727.0263010,N,12639.2515798,E,FFFF,28,0.61,24.990,17.837,42.0,4095,V*31
$GNGGA,041039.00,3727.0263010,N,12639.2515798,E,5,12,0.61,24.990,M,17.837,M,42.0,4095*6C
$GNGSA,A,3,04,17,03,14,01,06,41,09,,,,,1.19,0.61,1.02,1*03
$GNGSA,A,3,71,88,65,72,78,,,,,,,,1.19,0.61,1.02,2*00
$GNGSA,A,3,09,11,02,25,36,05,,,,,,,1.19,0.61,1.02,3*02
$GNGSA,A,3,37,14,01,34,03,11,07,04,21,,,,1.19,0.61,1.02,4*0D
$GPGSV,3,1,10,01,15,064,41,03,42,050,47,04,19,103,38,06,46,280,09,1*64
$GPGSV,3,2,10,09,15,136,35,14,37,190,33,17,77,034,44,28,,,45,1*58
$GPGSV,3,3,10,41,27,238,34,50,47,179,39,1*68
$GPGSV,2,1,05,01,15,064,40,03,42,050,32,04,19,103,21,14,37,190,38,6*68
$GPGSV,2,2,05,17,77,034,39,6*5D
$GPGSV,2,1,05,02,07,265,,11,11,259,,12,05,326,,19,61,328,,0*6E
$GPGSV,2,2,05,19,61,328,,0*56
$GLGSV,2,1,07,65,17,168,44,71,35,051,48,72,46,118,41,76,06,200,40,1*75
$GLGSV,2,2,07,78,26,307,17,87,52,350,12,88,24,299,11,1*4F
$GLGSV,2,1,06,65,17,168,32,71,35,051,39,72,46,118,21,77,29,2$GLGSV,2,2,06,78,26,307,12,88,24,299,07,3*73
$GLGSV,1,1,01,86,27,070,,0*44
$GAGSV,2,1,05,02,44,218,43,05,16,150,22,09,28,098,31,11,16,069,35,2*76
$GAGSV,2,2,05,36,58,034,44,2*4C
$GAGSV,2,1,07,02,44,218,41,05,16,150,37,09,28,098,41,11,16,069,40,7*72
$GAGSV,2,2,07,25,11,176,42,30,39,292,18,36,58,034,45,7*42
$GAGSV,2,1,05,04,12,046,,15,04,266,,18,39,305,,27,01,330,,0*74
$GAGSV,2,2,05,27,01,330,,0*45
$GBGSV,3,1,10,01,43,152,36,03,44,206,39,04,35,132,29,07,70,221,43,1*72
$GBGSV,3,2,10,11,45,077,43,14,50,137,46,21,18,042,49,28,38,303,20,1*75
$GBGSV,3,3,10,34,27,093,32,37,19,283,22,1*7B
$GBGSV,2,1,08,01,43,152,35,03,44,206,40,04,35,132,34,07,70,221,34,3*79
$GBGSV,2,2,08,08,52,248,18,11,45,077,35,14,50,137,43,21,18,042,08,3*75
$GBGSV,2,1,05,05,08,256,,10,68,261,,12,01,100,,13,42,245,,0*73
$GBGSV,2,2,05,13,42,245,,0*45
$GNRMC,041040.00,A,3727.0262998,N,12639.2515845,E,0.010,,220622,,,F,V*1F
$GNVTG,,T,,M,0.010,N,0.018,K,D*30
$GNGNS,041040.00,3727.0262998,N,12639.2515845,E,FFFF,28,0.61,25.003,17.837,43.0,4095,V*3B
$GNGGA,041040.00,3727.0262998,N,12639.2515845,E,5,12,0.61,25.003,M,17.837,M,43.0,4095*66
$GNGSA,A,3,04,17,03,14,01,06,41,09,,,,,1.18,0.61,1.01,1*01
$GNGSA,A,3,71,88,65,72,78,,,,,,,,1.18,0.61,1.01,2*02
$GNGSA,A,3,09,11,02,25,36,05,,,,,,,1.18,0.61,1.01,3*00
$GNGSA,A,3,37,14,01,34,03,11,07,04,21,,,,1.18,0.61,1.01,4*0F
$GPGSV,3,1,10,01,15,064,43,03,42,050,49,04,19,103,40,06,46,280,09,1*67
$GPGSV,3,2,10,09,15,136,37,14,37,190,35,17,77,034,45,28,,,47,1*5F
$GPGSV,3,3,10,41,27,238,36,50,47,179,42,1*66
$GPGSV,2,1,05,01,15,064,40,03,42,050,34,04,19,103,22,14,37,190,39,6*6C
$GPGSV,2,2,05,17,77,034,38,6*5C
$GPGSV,2,1,05,02,07,265,,11,11,259,,12,05,326,,19,61,328,,0*6E
$GPGSV,2,2,05,19,61,328,,0*56
$GLGSV,2,1,07,65,17,168,43,71,35,051,48,72,46,118,41,76,06,200,40,1*72
$GLGSV,2,2,07,78,26,307,15,87,52,350,16,88,24,299,10,1*48
$GLGSV,2,1,06,65,17,168,32,71,35,051,39,72,46,118,22,77,29,243,08,3*73
$GLGSV,2,2,06,78,26,307,11,88,24,299,09,3*7E
$GLGSV,1,1,01,86,27,070,,0*44
$GAGSV,2,1,05,02,44,218,43,05,16,150,25,09,28,098,32,11,16,069,35,2*72
$GAGSV,2,2,05,36,58,034,45,2*4D
$GAGSV,2,1,07,02,44,218,43,05,16,150,38,09,28,098,42,11,16,069,40,7*7C
$GAGSV,2,2,07,25,11,176,42,30,39,292,17,36,58,034,46,7*4E
$GAGSV,2,1,05,04,12,046,,15,04,266,,18,39,305,,27,01,330,,0*74
$GAGSV,2,2,05,27,01,330,,0*45
$GBGSV,3,1,11,01,43,152,35,03,44,206,39,04,35,132,29,07,70,221,43,1*70
$GBGSV,3,2,11,08,52,249,17,11,45,077,42,14,50,137,44,21,18,042,47,1*7C
$GBGSV,3,3,11,28,38,303,20,34,27,093$GBGSV,2,1,08,01,43,152,34,03,44,206,40,04,35,132,32,07,70,221,34,3*7E
$GBGSV,2,2,08,08,52,249,18,11,45,077,34,14,50,137,43,21,18,042,08,3*75
$GBGSV,2,1,05,05,08,256,,10,68,261,,12,01,100,,13,42,245,,0*73
$GBGSV,2,2,05,13,42,245,,0*45
$GNRMC,041041.00,A,3727.0263012,N,12639.2515840,E,0.015,,220622,,,F,V*14
$GNVTG,,T,,M,0.015,N,0.028,K,D*36
$GNGNS,041041.00,3727.0263012,N,12639.2515840,E,FFFF,28,0.62,25.042,17.837,2.0,4095,V*06
$GNGGA,041041.00,3727.0263012,N,12639.2515840,E,5,12,0.62,25.042,M,17.837,M,2.0,4095*5B
$GNGSA,A,3,04,17,03,14,01,06,41,09,,,,,1.27,0.62,1.10,1*0E
$GNGSA,A,3,71,88,65,72,78,,,,,,,,1.27,0.62,1.10,2*0D
$GNGSA,A,3,09,11,02,25,36,05,,,,,,,1.27,0.62,1.10,3*0F
$GNGSA,A,3,37,14,01,34,03,11,07,04,21,,,,1.27,0.62,1.10,4*00
$GPGSV,3,1,10,01,15,064,43,03,42,050,48,04,19,103,39,06,46,280,11,1*61
$GPGSV,3,2,10,09,15,136,36,14,37,190,34,17,77,034,45,28,,,47,1*5F
$GPGSV,3,3,10,41,27,238,35,50,47,179,40,1*67
$GPGSV,2,1,06,01,15,064,39,03,42,050,34,04,19,103,22,06,46,280,18,6*65
$GPGSV,2,2,06,14,37,190,38,17,77,034,39,6*6C
$GPGSV,2,1,05,02,07,265,,11,11,259,,12,05,326,,19,61,328,,0*6E
$GPGSV,2,2,05,19,61,328,,0*56
$GLGSV,2,1,07,65,17,168,43,71,35,051,49,72,46,118,42,76,06,200,40,1*70
$GLGSV,2,2,07,78,26,307,14,87,52,350,16,88,24,299,10,1*49
$GLGSV,2,1,06,65,17,168,32,71,35,051,39,72,46,118,23,77,29,243,13,3*78
$GLGSV,2,2,06,78,26,307,11,88,24,299,09,3*7E
$GLGSV,1,1,01,86,27,070,,0*44
$GAGSV,2,1,05,02,44,218,43,05,16,150,25,09,28,098,32,11,16,069,35,2*72
$GAGSV,2,2,05,36,58,034,45,2*4D
$GAGSV,2,1,07,02,44,218,43,05,16,150,38,09,28,098,41,11,16,069,40,7*7F
$GAGSV,2,2,07,25,11,176,42,30,39,292,17,36,58,034,45,7*4D
$GAGSV,2,1,05,04,12,046,,15,04,266,,18,39,305,,27,01,330,,0*74
$GAGSV,2,2,05,27,01,330,,0*45
$GBGSV,3,1,11,01,43,152,34,03,44,206,39,04,35,132,29,07,70,221,42,1*70
$GBGSV,3,2,11,08,52,249,13,11,45,077,41,14,50,137,44,21,18,042,47,1*7B
$GBGSV,3,3,11,28,38,303,20,34,27,093,30,37,19,283,21,1*48
$GBGSV,2,1,08,01,43,152,35,03,44,206,40,04,35,132,32,07,70,221,34,3*7F
$GBGSV,2,2,08,08,52,249,17,11,45,077,34,14,50,137,43,21,18,042,08,3*7A
$GBGSV,2,1,05,05,08,256,,10,68,261,,12,01,100,,13,42,245,,0*73
$GBGSV,2,2,05,13,42,245,,0*45
$GNRMC,041042.00,A,3727.0262947,N,12639.2515776,E,0.038,,220622,,,F,V*1A
$GNVTG,,T,,M,0.038,N,0.070,K,D*34
$GNGNS,041042.00,3727.0262947,N,12639.2515776,E,FFFF,28,0.62,25.157,17.837,2.0,4095,V*02
$GNGGA,041042.00,3727.0262947,N,12639.2515776,E,5,12,0.62,25.157,M,17.837,M,2.0,4095*5F
$GNGSA,A,3,04,17,03,14,01,06,41,09,,,,,1.27,0.62,1.10,1*0E
$GAGSV,2,2,05,36,58,034,45,2*4D
$GAGSV,2,1,07,02,44,218,43,05,16,150,39,09,28,098,42,11,16,069,41,7*7C
$GAGSV,2,2,07,25,11,176,43,30,39,292,16,36,58,034,46,7*4E
$GAGSV,2,1,05,04,12,046,,15,04,266,,18,39,305,,27,01,330,,0*74
$GAGSV,2,2,05,27,01,330,,0*45
$GBGSV,3,1,11,01,43,152,37,03,44,206,40,04,35,132,27,07,70,221,43,1*72
$GBGSV,3,2,11,08,52,249,09,11,45,077,41,14,50,137,45,21,18,042,48,1*7E
$GBGSV,3,3,11,28,38,303,20,34,27,093,31,37,19,283,22,1*4A
$GBGSV,2,1,08,01,43,152,35,03,44,206,40,04,35,132,33,07,70,221,34,3*7E
$GBGSV,2,2,08,08,52,249,16,11,45,077,37,14,50,137,44,21,18,042,08,3*7F
$GBGSV,2,1,05,05,08,256,,10,68,260,,12,01,100,,13,42,245,,0*72
$GBGSV,2,2,05,13,42,245,,0*45
$GNRMC,041043.00,A,3727.0262908,N,12639.2515707,E,0.015,,220622,,,F,V*19
$GNVTG,,T,,M,0.015,N,0.028,K,D*36
$GNGNS,041043.00,3727.0262908,N,12639.2515707,E,FFFF,28,0.61,25.210,17.837,1.0,4095,V*0E
$GNGGA,041043.00,3727.0262908,N,12639.2515707,E,5,12,0.61,25.210,M,17.837,M,1.0,4095*53
$GNGSA,A,3,04,17,03,14,01,06,41,09,,,,,1.26,0.61,1.10,1*0C
$GNGSA,A,3,71,88,65,72,78,,,,,,,,1.26,0.61,1.10,2*0F
$GNGSA,A,3,09,11,02,25,36,05,,,,,,,1.26,0.61,1.10,3*0D
$GNGSA,A,3,37,14,01,34,03,11,07,04,21,,,,1.26,0.61,1.10,4*02
$GPGSV,3,1,10,01,15,064,42,03,42,050,47,04,19,103,39,06,46,280,16,1*68
$GPGSV,3,2,10,09,15,136,35,14,37,190,34,17,77,034,44,28,,,46,1*5C
$GPGSV,3,3,10,41,27,238,34,50,47,179,40,1*66
$GPGSV,2,1,07,01,15,064,38,03,42,050,34,04,19,103,26,06,46,280,19,6*60
$GPGSV,2,2,07,09,15,136,20,14,37,190,39,17,77,034,38,6*56
$GPGSV,2,1,05,02,07,265,,11,11,259,,12,05,326,,19,61,328,,0*6E
$GPGSV,2,2,05,19,61,328,,0*56
$GLGSV,2,1,07,65,17,168,46,71,35,051,51,72,46,118,44,76,06,200,41,1*7B
$GLGSV,2,2,07,78,26,307,12,87,52,350,16,88,24,299,13,1*4C
$GLGSV,2,1,06,65,17,168,31,71,35,051,39,72,46,118,24,77,29,243,08,3*76
$GLGSV,2,2,06,78,26,307,12,88,24,299,15,3*70
$GLGSV,1,1,01,86,27,070,,0*44
$GAGSV,2,1,05,02,44,218,44,05,16,150,23,09,28,098,33,11,16,069,35,2*72
$GAGSV,2,2,05,36,58,034,45,2*4D
$GAGSV,2,1,07,02,44,218,42,05,16,150,36,09,28,098,41,11,16,069,39,7*7E
$GAGSV,2,2,07,25,11,176,42,30,39,292,16,36,58,034,45,7*4C
$GAGSV,2,1,05,04,12,046,,15,04,266,,18,39,305,,27,01,330,,0*74
$GAGSV,2,2,05,27,01,330,,0*45
$GBGSV,3,1,11,01,43,152,34,03,44,206,38,04,35,132,27,07,70,221,43,1*7E
$GBGSV,3,2,11,08,52,249,09,11,45,078,41,14,50,137,45,21,18,042,46,1*7F
$GBGSV,3,3,11,28,38,303,19,34,27,093,30,37,19,283,22,1*41
$GBGSV,2,1,08,01,43,152,35,03,44,206,41,04,35,132,33,07,70,221,35,3*7E
$GBGSV,2,2,08,08,52,249,15,11,45,078,37,14,50,137,44,21,18,042,08,3*73
$GBGSV,2,1,05,05,08,256,,10,68,260,,12,01,100,,13,42,245,,0*72
$GBGSV,2,2,05,13,42,245,,0*45
$GNRMC,041044.00,A,3727.0262873,N,12639.2515603,E,0.023,,220622,,,F,V*13
$GNVTG,,T,,M,0.023,N,0.042,K,D*3F
$GNGNS,041044.00,3727.0262873,N,12639.2515603,E,FFFF,28,0.65,25.233,17.837,2.0,4095,V*07
$GNGGA,041044.00,3727.0262873,N,12639.2515603,E,5,12,0.65,25.233,M,17.837,M,2.0,4095*5A
$GNGSA,A,3,04,17,03,14,01,06,41,09,,,,,1.41,0.65,1.25,1*0F
$GNGSA,A,3,71,88,65,72,78,,,,,,,,1.41,0.65,1.25,2*0C
$GNGSA,A,3,09,11,02,25,36,05,,,,,,,1.41,0.65,1.25,3*0E
$GNGSA,A,3,37,14,01,34,03,11,07,04,21,,,,1.41,0.65,1.25,4*01
$GPGSV,3,1,10,01,15,064,42,03,42,050,46,04,19,103,39,06,46,280,11,1*6E
$GPGSV,3,2,10,09,15,136,35,14,37,190,37,17,77,034,44,28,,,46,1*5F
$GPGSV,3,3,10,41,27,238,34,50,47,179,40,1*66
$GPGSV,2,1,07,01,15,064,40,03,42,050,35,04,19,103,27,06,46,280,18,6*6E
$GPGSV,2,2,07,09,15,136,22,14,37,190,41,17,77,034,40,6*54
$GPGSV,2,1,05,02,07,265,,11,11,259,,12,05,326,,19,61,328,,0*6E
$GPGSV,2,2,05,19,61,328,,0*56
$GLGSV,2,1,07,65,17,168,45,71,35,051,50,72,46,118,43,76,06,200,41,1*7E
$GLGSV,2,2,07,78,26,307,13,87,52,350,19,88,24,299,10,1*41
$GLGSV,2,1,06,65,17,168,30,71,35,051,39,72,46,118,22,77,29,243,12,3*7A
$GLGSV,2,2,06,78,26,307,09,88,24,299,10,3*7F
$GLGSV,1,1,01,86,27,070,,0*44
$GAGSV,2,1,05,02,44,218,43,05,16,150,22,09,28,098,33,11,16,069,35,2*74
$GAGSV,2,2,05,36,58,034,46,2*4E
$GAGSV,2,1,07,02,44,218,43,05,16,150,37,09,28,098,41,11,16,069,40,7*70
$GAGSV,2,2,07,25,11,176,43,30,39,292,17,36,58,034,45,7*4C
$GAGSV,2,1,05,04,12,046,,15,04,266,,18,39,305,,27,01,330,,0*74
$GAGSV,2,2,05,27,01,330,,0*45
$GBGSV,3,1,10,01,43,152,32,03,44,206,39,07,70,221,43,08,52,249,08,1*77
$GBGSV,3,2,10,11,45,078,41,14,50,137,44,21,18,042,47,28,38,303,21,1*75
$GBGSV,3,3,10,34,27,093,28,37,19,283,23,1*71
$GBGSV,2,1,08,01,43,152,34,03,44,206,41,04,35,132,32,07,70,221,35,3*7E
$GBGSV,2,2,08,08,52,249,15,11,45,078,35,14,50,137,44,21,18,042,08,3*71
$GBGSV,2,1,05,05,08,256,,10,68,260,,12,00,100,,13,42,245,,0*73
$GBGSV,2,2,05,13,42,245,,0*45
$GNRMC,041045.00,A,3727.0262908,N,12639.2515532,E,0.010,,220622,,,F,V*1E
$GNVTG,,T,,M,0.010,N,0.018,K,D*30
$GNGNS,041045.00,3727.0262908,N,12639.2515532,E,FFFF,26,0.63,25.239,17.837,2.0,4095,V*08
$GNGGA,041045.00,3727.0262908,N,12639.2515532,E,5,12,0.63,25.239,M,17.837,M,2.0,4095*5B
$GNGSA,A,3,04,17,03,14,01,06,09,,,,,,1.28,0.63,1.11,1*04
$GNGSA,A,3,71,88,65,72,78,,,,,,,,1.28,0.63,1.11,2*02
$GNGSA,A,3,09,11,02,25,36,05,,,,,,,1.28,0.63,1.11,3*00
$GNGSA,A,3,37,14,01,34,03,11,07,04,21,,,,1.28,0.63,1.11,4*0F
$GPGSV,3,1,10,01,15,064,40,03,42,050,45,04,19,103,39,06,46,280,07,1*68
$GPGSV,3,2,10,09,15,136,35,14,37,190,39,17,77,034,45,28,,,46,1*50
$GPGSV,3,3,10,41,27,238,34,50,47,179,42,1*64
$GPGSV,2,1,07,01,15,064,39,03,42,050,34,04,19,103,27,06,46,280,18,6*61
$GPGSV,2,2,07,09,15,136,23,14,37,190,41,17,77,034,40,6*55
$GPGSV,2,1,05,02,07,265,,11,11,259,,12,05,326,,19,61,328,,0*6E
$GPGSV,2,2,05,19,61,328,,0*56
$GLGSV,2,1,07,65,17,168,45,71,35,051,51,72,46,118,43,76,06,200,41,1*7F
$GLGSV,2,2,07,78,26,307,09,87,52,350,19,88,24,299,12,1*48
$GLGSV,2,1,06,65,17,168,28,71,35,051,39,72,46,118,23,77,29,243,10,3*70
$GLGSV,2,2,06,78,26,307,12,88,24,299,08,3*7C
$GLGSV,1,1,01,86,27,070,,0*44
$GAGSV,2,1,05,02,44,218,43,05,16,150,20,09,28,098,33,11,16,069,34,2*77
$GAGSV,2,2,05,36,58,034,45,2*4D
$GAGSV,2,1,07,02,44,218,43,05,16,150,37,09,28,098,43,11,16,069,40,7*72
$GAGSV,2,2,07,25,11,176,43,30,39,292,17,36,58,034,45,7*4C
$GAGSV,2,1,05,04,12,046,,15,04,266,,18,39,305,,27,01,330,,0*74
$GAGSV,2,2,05,27,01,330,,0*45
$GBGSV,3,1,10,01,43,152,38,03,44,206,39,07,70,221,43,08,52,249,07,1*72
$GBGSV,3,2,10,11,45,078,41,14,50,137,45,21,18,042,46,28,38,303,20,1*74
$GBGSV,3,3,10,34,27,093,21,37,19,283,23,1*78
$GBGSV,2,1,08,01,43,152,35,03,44,206,41,04,35,132,33,07,70,221,36,3*7D
$GBGSV,2,2,08,08,52,249,15,11,45,078,39,14,50,137,44,21,18,042,08,3*7D
$GBGSV,2,1,05,05,08,256,,10,68,260,,12,00,100,,13,42,245,,0*73
$GBGSV,2,2,05,13,42,245,,0*45
$GNRMC,041046.00,A,3727.0262895,N,12639.2515527,E,0.010,,220622,,,F,V*1C
$GNVTG,,T,,M,0.010,N,0.019,K,D*31
$GNGNS,041046.00,3727.0262895,N,12639.2515527,E,FFFF,26,0.63,25.240,17.837,2.0,4095,V*04
$GNGGA,041046.00,3727.0262895,N,12639.2515527,E,5,12,0.63,25.240,M,17.837,M,2.0,4095*57
$GNGSA,A,3,04,17,03,14,01,06,09,,,,,,1.28,0.63,1.11,1*04
$GNGSA,A,3,71,88,65,72,78,,,,,,,,1.28,0.63,1.11,2*02
$GNGSA,A,3,09,11,02,25,36,05,,,,,,,1.28,0.63,1.11,3*00
$GNGSA,A,3,37,14,01,34,03,11,07,04,21,,,,1.28,0.63,1.11,4*0F
$GPGSV,3,1,10,01,15,064,41,03,42,050,45,04,19,103,39,06,46,280,09,1*67
$GPGSV,3,2,10,09,15,136,35,14,37,190,41,17,77,034,45,28,,,46,1*5F
$GPGSV,3,3,10,41,27,238,34,50,47,179,43,1*65
$GPGSV,2,1,07,01,15,064,38,03,42,050,34,04,19,103,28,06,46,280,16,6*61
$GPGSV,2,2,07,09,15,136,21,14,37,190,41,17,77,034,40,6*57
$GPGSV,2,1,05,02,07,265,,11,11,259,,12,05,326,,19,61,328,,0*6E
$GPGSV,2,2,05,19,61,328,,0*56
$GLGSV,2,1,07,65,17,168,45,71,35,051,50,72,46,118,43,76,06,200,41,1*7E
$GLGSV,2,2,07,78,26,307,10,87,52,350,19,88,24,299,11,1*43
$GLGSV,2,1,06,65,17,168,27,71,35,051,38,72,46,118,23,77,29,243,12,3*7C
$GLGSV,2,2,06,78,26,307,09,88,24,299,09,3*77
$GLGSV,1,1,01,86,27,070,,0*44
$GAGSV,1,1,04,02,44,218,43,09,28,098,33,11,16,069,35,36,58,034,45,2*7E
$GAGSV,2,1,07,02,44,218,43,05,16,150,37,09,28,098,43,11,16,069,40,7*72
$GAGSV,2,2,07,25,11,176,43,30,39,292,18,36,58,034,45,7*43
$GAGSV,2,1,05,04,12,046,,15,04,266,,18,39,305,,27,01,330,,0*74
$GAGSV,2,2,05,27,01,330,,0*45
$GBGSV,3,1,10,01,43,152,38,03,44,206,40,07,70,221,43,08,52,249,07,1*7C
$GBGSV,3,2,10,11,45,078,41,14,51,136,45,21,18,042,47,28,38,303,19,1*7F
$GBGSV,3,3,10,34,27,093,20,37,19,283,24,1*7E
$GBGSV,3,1,09,01,43,152,35,03,44,206,43,04,35,132,34,07,70,221,36,3*78
$GBGSV,3,2,09,08,52,249,17,10,68,260,13,11,45,078,38,14,51,136,44,3*73
$GBGSV,3,3,09,21,18,042,07,3*46
$GBGSV,1,1,04,05,08,256,,12,00,100,,13,42,245,,23,18,231,,0*72
$GNRMC,041047.00,A,3727.0262870,N,12639.2515508,E,0.051,,220622,,,F,V*1E
$GNVTG,,T,,M,0.051,N,0.094,K,D*31
$GNGNS,041047.00,3727.0262870,N,12639.2515508,E,FFFF,27,0.67,25.245,17.837,2.0,4095,V*03
$GNGGA,041047.00,3727.0262870,N,12639.2515508,E,5,12,0.67,25.245,M,17.837,M,2.0,4095*51
$GNGSA,A,3,04,17,03,14,01,06,09,,,,,,1.34,0.67,1.16,1*0A
$GNGSA,A,3,71,88,65,72,78,,,,,,,,1.34,0.67,1.16,2*0C
$GNGSA,A,3,09,11,02,25,36,05,,,,,,,1.34,0.67,1.16,3*0E
$GNGSA,A,3,37,14,01,34,03,11,07,04,21,,,,1.34,0.67,1.16,4*01
$GPGSV,3,1,10,01,15,064,42,03,42,050,45,04,19,103,40,06,46,280,15,1*67
$GPGSV,3,2,10,09,15,136,36,14,37,190,39,17,77,034,45,28,,,47,1*52
$GPGSV,3,3,10,41,27,238,34,50,47,179,41,1*67
$GPGSV,2,1,07,01,15,064,38,03,42,050,36,04,19,103,27,06,46,280,17,6*6D
$GPGSV,2,2,07,09,15,136,21,14,37,190,41,17,77,034,39,6*59
$GPGSV,2,1,05,02,07,265,,11,11,259,,12,05,326,,19,61,328,,0*6E
$GPGSV,2,2,05,19,61,328,,0*56
$GLGSV,2,1,07,65,17,168,45,71,35,051,50,72,46,118,42,76,06,200,41,1*7F
$GLGSV,2,2,07,78,26,307,05,87,52,350,21,88,24,299,09,1*45
$GLGSV,2,1,06,65,17,168,27,71,35,051,39,72,46,118,23,77,29,243,10,3*7F
$GLGSV,2,2,06,78,26,307,09,88,24,299,08,3*76
$GLGSV,1,1,01,86,27,070,,0*44
$GAGSV,2,1,05,02,44,218,43,09,28,098,33,11,16,069,35,34,48,291,18,2*7A
$GAGSV,2,2,05,36,58,034,45,2*4D
$GAGSV,2,1,07,02,44,218,44,05,16,150,37,09,28,098,42,11,16,069,40,7*74
$GAGSV,2,2,07,25,11,176,41,30,39,292,17,36,58,034,45,7*4E
$GAGSV,1,1,04,04,12,046,,15,04,266,,18,39,305,,27,01,330,,0*76
$GBGSV,3,1,10,01,43,152,36,03,44,206,40,07,70,221,42,08,52,249,07,1*73
$GBGSV,3,2,10,11,45,078,39,14,51,136,45,21,18,042,47,28,38,303,19,1*70
$GBGSV,3,3,10,34,27,093,28,37,19,283,23,1*71
$GBGSV,3,1,09,01,43,152,34,03,44,206,42,04,35,132,32,07,70,221,35,3*7D
$GBGSV,3,2,09,08,52,249,18,10,68,260,12,11,45,078,36,14,51,136,44,3*73
$GBGSV,3,3,09,21,18,042,08,3*49
$GBGSV,1,1,04,05,08,256,,12,00,100,,13,42,245,,23,18,231,,0*72
$GNRMC,041048.00,A,3727.0262863,N,12639.2515489,E,0.012,,220622,,,F,V*1C
$GNVTG,,T,,M,0.012,N,0.022,K,D*3B
$GNGNS,041048.00,3727.0262863,N,12639.2515489,E,FFFF,27,0.63,25.249,17.837,2.0,4095,V*0E
$GNGGA,041048.00,3727.0262863,N,12639.2515489,E,5,12,0.63,25.249,M,17.837,M,2.0,4095*5C
$GNGSA,A,3,04,17,03,14,01,06,09,,,,,,1.32,0.63,1.16,1*08
$GNGSA,A,3,71,88,65,72,78,,,,,,,,1.32,0.63,1.16,2*0E
$GNGSA,A,3,09,11,02,25,36,05,,,,,,,1.32,0.63,1.16,3*0C
$GNGSA,A,3,37,14,01,34,03,11,07,04,21,,,,1.32,0.63,1.16,4*03
$GPGSV,3,1,10,01,15,064,41,03,42,050,44,04,19,103,40,06,46,280,16,1*66
$GPGSV,3,3,10,41,27,238,34,50,47,179,42,1*64
$GPGSV,2,1,07,01,15,064,38,03,42,050,35,04,19,103,27,06,46,280,17,6*6E
$GPGSV,2,2,07,09,15,136,20,14,37,190,42,17,77,034,41,6*54
$GPGSV,2,1,05,02,07,265,,11,11,259,,12,05,326,,19,61,328,,0*6E
$GPGSV,2,2,05,19,61,328,,0*56
$GLGSV,2,1,07,65,17,168,45,71,35,051,50,72,46,118,43,76,06,200,41,1*7E
$GLGSV,2,2,07,78,26,307,14,87,52,350,22,88,24,299,11,1*4F
$GLGSV,2,1,06,65,17,168,27,71,35,051,39,72,46,118,21,77,29,243,10,3*7D
$GLGSV,2,2,06,78,26,307,10,88,24,299,08,3*7E
$GLGSV,1,1,01,86,27,070,,0*44
$GAGSV,1,1,04,02,44,218,43,09,28,098,33,11,16,069,36,36,58,034,45,2*7D
$GAGSV,2,1,07,02,44,218,44,05,16,150,36,09,28,098,42,11,16,069,40,7*75
$GAGSV,2,2,07,25,11,176,41,30,39,292,17,36,58,034,45,7*4E
$GAGSV,2,1,05,04,12,046,,15,04,266,,18,39,305,,27,01,330,,0*74
$GAGSV,2,2,05,27,01,330,,0*45
$GBGSV,3,1,10,01,43,152,38,03,44,206,39,07,70,221,42,08,52,249,07,1*73
$GBGSV,3,2,10,11,45,078,40,14,51,13$GNRMC,041049.00,A,3727.0262838,N,12639.2515488,E,0.005,,220622,,,F,V*14
$GNVTG,,T,,M,0.005,N,0.010,K,D*3C
$GNGNS,041049.00,3727.0262838,N,12639.2515488,E,FFFF,27,0.59,25.261,17.837,2.0,4095,V*03
$GNGGA,041049.00,3727.0262838,N,12639.2515488,E,5,12,0.59,25.261,M,17.837,M,2.0,4095*51
$GNGSA,A,3,04,17,03,14,01,06,09,,,,,,1.21,0.59,1.05,1*01
$GNGSA,A,3,71,88,65,72,78,,,,,,,,1.21,0.59,1.05,2*07
$GNGSA,A,3,09,11,02,25,36,05,,,,,,,1.21,0.59,1.05,3*05
$GNGSA,A,3,37,14,01,34,03,11,07,04,21,,,,1.21,0.59,1.05,4*0A
$GPGSV,3,1,10,01,15,064,41,03,42,050,44,04,19,103,40,06,46,280,17,1*67
$GPGSV,3,2,10,09,15,136,35,14,37,190,41,17,77,034,45,28,,,47,1*5E
$GPGSV,3,3,10,41,27,238,33,50,47,179,42,1*63
$GPGSV,2,1,07,01,15,064,38,03,42,050,35,04,19,103,29,06,46,280,16,6*61
$GPGSV,2,2,07,09,15,136,21,14,37,190,42,17,77,034,40,6*54
$GPGSV,2,1,05,02,07,265,,11,11,259,,12,05,326,,19,61,328,,0*6E
$GPGSV,2,2,05,19,61,328,,0*56
$GLGSV,2,1,07,65,17,168,45,71,35,051,50,72,46,118,43,76,06,200,41,1*7E
$GLGSV,2,2,07,78,26,307,10,87,52,350,22,88,24,299,18,1*42
$GLGSV,2,1,06,65,17,168,26,71,35,051,39,72,46,118,19,77,29,243,09,3*7F
$GLGSV,2,2,06,78,26,307,12,88,24,299,10,3*75
$GLGSV,1,1,01,86,27,070,,0*44
$GAGSV,1,1,04,02,44,218,43,09,28,098,33,11,16,069,36,36,58,034,45,2*7D
$GAGSV,2,1,08,02,44,218,44,05,16,150,36,09,28,098,42,11,16,069,41,7*7B
$GAGSV,2,2,08,25,11,176,42,30,39,292,16,34,48,291,22,36,58,034,45,7*72
$GAGSV,1,1,04,04,12,046,,15,04,266,,18,39,305,,27,01,330,,0*76
$GBGSV,3,1,10,01,43,152,38,03,44,206,40,07,70,221,42,08,52,249,08,1*72
$GBGSV,3,2,10,11,45,078,41,14,51,136,45,21,18,042,46,28,38,303,17,1*70
$GBGSV,3,3,10,34,27,093,18,37,19,283,25,1*74
$GBGSV,2,1,08,01,43,152,35,03,44,206,42,04,35,132,34,07,70,221,36,3*79
$GBGSV,2,2,08,08,52,249,18,10,68,260,12,11,45,078,38,14,51,136,44,3*7D
$GBGSV,1,1,04,05,08,256,,12,00,100,,13,42,245,,23,18,231,,0*72
$GNRMC,041050.00,A,3727.0262768,N,12639.2515526,E,0.045,,220622,,,F,V*17
$GNVTG,,T,,M,0.045,N,0.083,K,D*32
$GNGNS,041050.00,3727.0262768,N,12639.2515526,E,FFFF,27,0.59,25.267,17.837,2.0,4095,V*02
$GNGGA,041050.00,3727.0262768,N,12639.2515526,E,5,12,0.59,25.267,M,17.837,M,2.0,4095*50
$GNGSA,A,3,04,17,03,14,01,06,09,,,,,,1.21,0.59,1.05,1*01
$GNGSA,A,3,71,88,65,72,78,,,,,,,,1.21,0.59,1.05,2*07
$GNGSA,A,3,09,11,02,25,36,05,,,,,,,1.21,0.59,1.05,3*05
$GNGSA,A,3,37,14,01,34,03,11,07,04,21,,,,1.21,0.59,1.05,4*0A
$GPGSV,3,1,10,01,15,064,41,03,42,050,44,04,19,103,40,06,46,280,18,1*68
$GPGSV,3,2,10,09,15,136,33,14,37,190,40,17,77,034,45,28,,,47,1*59
$GPGSV,3,3,10,41,27,238,33,50,47,179,42,1*63
$GPGSV,2,1,07,01,15,064,38,03,42,050,35,04,19,103,29,06,46,280,15,6*62
$GPGSV,2,2,07,09,15,136,21,14,37,190,43,17,77,034,40,6*55
$GPGSV,2,1,05,02,07,265,,11,11,259,,12,05,326,,19,61,328,,0*6E
$GPGSV,2,2,05,19,61,328,,0*56
$GLGSV,2,1,07,65,17,168,44,71,35,051,50,72,46,118,43,76,06,200,40,1*7E
$GLGSV,2,2,07,78,26,307,15,87,52,350,22,88,24,299,15,1*4A
$GLGSV,2,1,06,65,17,168,27,71,35,051,39,72,46,118,18,77,29,243,16,3*71
$GLGSV,2,2,06,78,26,307,13,88,24,299,10,3*74
$GLGSV,1,1,01,86,27,070,,0*44
$GAGSV,1,1,04,02,44,218,43,09,28,098,33,11,16,069,36,36,58,034,45,2*7D
$GAGSV,2,1,07,02,44,218,44,05,16,150,37,09,28,098,42,11,16,069,40,7*74
$GAGSV,2,2,07,25,11,176,42,30,39,292,15,36,58,034,45,7*4F
$GAGSV,2,1,05,04,12,046,,15,04,266,,18,39,305,,27,01,330,,0*74
$GAGSV,2,2,05,27,01,330,,0*45
$GBGSV,3,1,10,01,43,152,39,03,44,206,40,07,70,221,43,08,52,249,08,1*72
$GBGSV,3,2,10,11,45,078,41,14,51,136,45,21,18,042,46,28,38,303,15,1*72
$GBGSV,3,3,10,34,27,093,19,37,19,283,26,1*76
$GBGSV,2,1,08,01,43,152,35,03,44,206,42,04,35,132,34,07,70,221,36,3*79
$GBGSV,2,2,08,08,52,249,19,10,68,260,09,11,45,078,37,14,51,136,45,3*78
$GBGSV,1,1,04,05,08,256,,12,00,100,,13,42,245,,23,18,231,,0*72
$GNRMC,041051.00,A,3727.0262718,N,12639.2515604,E,0.024,,220622,,,F,V*15
$GNVTG,,T,,M,0.024,N,0.045,K,D*3F
$GNGNS,041051.00,3727.0262718,N,12639.2515604,E,FFFF,27,0.59,25.281,17.837,2.0,4095,V*0F
$GNGGA,041051.00,3727.0262718,N,12639.2515604,E,5,12,0.59,25.281,M,17.837,M,2.0,4095*5D
$GNGSA,A,3,04,17,03,14,01,06,09,,,,,,1.21,0.59,1.05,1*01
$GNGSA,A,3,71,88,65,72,78,,,,,,,,1.21,0.59,1.05,2*07
$GNGSA,A,3,09,11,02,25,36,05,,,,,,,1.21,0.59,1.05,3*05
$GNGSA,A,3,37,14,01,34,03,11,07,04,21,,,,1.21,0.59,1.05,4*0A
$GPGSV,3,1,10,01,15,064,41,03,42,050,44,04,19,103,40,06,46,280,18,1*68
$GPGSV,3,2,10,09,15,136,32,14,37,190,42,17,77,034,45,28,,,47,1*5A
$GPGSV,3,3,10,41,27,238,33,50,47,179,42,1*63
$GPGSV,2,1,07,01,15,064,38,03,42,050,36,04,19,103,29,06,46,280,13,6*67
$GPGSV,2,2,07,09,15,136,22,14,37,190,42,17,77,034,40,6*57
$GPGSV,2,1,05,02,07,265,,11,11,259,,12,05,326,,19,61,328,,0*6E
$GPGSV,2,2,05,19,61,328,,0*56
$GLGSV,2,1,07,65,17,168,44,71,35,051,50,72,46,118,43,76,06,200,40,1*7E
$GLGSV,2,2,07,78,26,307,16,87,52,350,22,88,24,299,19,1*45
$GLGSV,2,1,06,65,17,168,28,71,35,051,39,72,46,118,17,77,29,243,11,3*76
$GLGSV,2,2,06,78,26,307,15,88,24,299,08,3*7B
$GLGSV,1,1,01,86,27,070,,0*44
$GAGSV,1,1,04,02,44,218,43,09,28,098,33,11,16,069,36,36,58,034,45,2*7D
$GAGSV,2,1,07,02,44,218,44,05,16,150,37,09,28,098,42,11,16,069,40,7*74
$GAGSV,2,2,07,25,11,176,43,30,39,292,14,36,58,034,45,7*4F
$GAGSV,2,1,05,04,12,046,,15,04,266,,18,39,305,,27,01,330,,0*74
$GAGSV,2,2,05,27,01,330,,0*45
$GBGSV,3,1,09,01,43,152,39,03,44,206,40,07,70,221,43,11,45,078,41,1*79
$GBGSV,3,2,09,14,51,136,45,21,18,042,46,28,38,303,10,34,27,093,20,1*7E
$GBGSV,3,3,09,37,19,283,26,1*4E
$GBGSV,2,1,08,01,43,152,35,03,44,206,43,04,35,132,35,07,70,221,36,3*79
$GBGSV,2,2,08,08,52,249,19,10,68,260,08,11,45,078,37,14,51,136,45,3*79
$GBGSV,1,1,04,05,08,256,,12,00,100,,13,42,245,,23,18,231,,0*72
$GNRMC,041052.00,A,3727.0262721,N,12639.2515616,E,0.006,,220622,,,F,V*1F
$GNVTG,,T,,M,0.006,N,0.012,K,D*3D
$GNGNS,041052.00,3727.0262721,N,12639.2515616,E,FFFF,27,0.61,25.279,17.837,2.0,4095,V*09
$GNGGA,041052.00,3727.0262721,N,12639.2515616,E,5,12,0.61,25.279,M,17.837,M,2.0,4095*5B
$GNGSA,A,3,04,17,03,14,01,06,09,,,,,,1.24,0.61,1.08,1*02
$GNGSA,A,3,71,88,65,72,78,,,,,,,,1.24,0.61,1.08,2*04
$GNGSA,A,3,09,11,02,25,36,05,,,,,,,1.24,0.61,1.08,3*06
$GNGSA,A,3,37,14,01,34,03,11,07,04,21,,,,1.24,0.61,1.08,4*09
$GPGSV,3,1,10,01,15,064,43,03,42,050,43,04,19,103,40,06,46,280,19,1*6C
$GPGSV,3,2,10,09,15,136,31,14,37,190,42,17,77,034,45,28,,,47,1*59
$GPGSV,3,3,10,41,27,238,34,50,47,179,42,1*64
$GPGSV,2,1,07,01,15,064,38,03,42,050,36,04,19,103,28,06,46,280,12,6*67
$GPGSV,2,2,07,09,15,136,23,14,37,190,43,17,77,034,40,6*57
$GPGSV,2,1,05,02,07,265,,11,11,259,,12,05,326,,19,61,328,,0*6E
$GPGSV,2,2,05,19,61,328,,0*56
$GLGSV,2,1,07,65,17,168,45,71,35,051,50,72,46,118,42,76,06,200,40,1*7E
$GLGSV,2,2,07,78,26,307,21,87,52,350,22,88,24,299,16,1*4E
$GLGSV,2,1,06,65,17,168,28,71,35,051,39,72,46,118,17,77,29,243,11,3*76
$GLGSV,2,2,06,78,26,307,11,88,24,299,09,3*7E
$GLGSV,1,1,01,86,27,070,,0*44
$GAGSV,1,1,04,02,44,218,42,09,28,098,32,11,16,069,34,36,58,034,45,2*7F
$GAGSV,2,1,07,02,44,218,44,05,16,150,37,09,28,098,41,11,16,069,40,7*77
$GAGSV,2,2,07,25,11,176,43,30,39,292,13,36,58,034,46,7*4B
$GAGSV,2,1,05,04,12,046,,15,04,266,,18,39,305,,27,01,330,,0*74
$GAGSV,2,2,05,27,01,330,,0*45
$GBGSV,3,1,09,01,43,152,38,03,44,206,40,07,70,221,43,11,45,078,39,1*77
$GBGSV,3,2,09,14,51,136,45,21,18,042,47,28,38,303,19,34,27,093,20,1*76
$GBGSV,3,3,09,37,19,283,26,1*4E
$GBGSV,2,1,08,01,43,152,34,03,44,206,43,04,35,132,34,07,70,221,36,3*79
$GBGSV,2,2,08,08,52,249,20,10,68,260,08,11,45,078,37,14,51,136,45,3*73
$GNRMC,041053.00,A,3727.0262705,N,12639.2515631,E,0.012,,220622,,,F,V*18
$GNVTG,,T,,M,0.012,N,0.023,K,D*3A
$GNGNS,041053.00,3727.0262705,N,12639.2515631,E,FFFF,26,0.59,25.282,17.837,1.0,4095,V*06
$GNGGA,041053.00,3727.0262705,N,12639.2515631,E,5,12,0.59,25.282,M,17.837,M,1.0,4095*55
$GNGSA,A,3,04,17,03,14,01,06,09,,,,,,1.21,0.59,1.05,1*01
$GNGSA,A,3,71,88,65,72,78,,,,,,,,1.21,0.59,1.05,2*07
$GNGSA,A,3,09,11,02,25,36,05,,,,,,,1.21,0.59,1.05,3*05
$GNGSA,A,3,37,14,01,34,03,11,07,04,21,,,,1.21,0.59,1.05,4*0A
$GPGSV,3,1,10,01,15,064,42,03,42,050,43,04,19,103,40,06,46,280,20,1*67
$GPGSV,3,2,10,09,15,136,30,14,37,190,41,17,77,034,45,28,,,46,1*5A
$GPGSV,3,3,10,41,27,238,33,50,47,179,41,1*60
$GPGSV,2,1,07,01,15,064,37,03,42,050,35,04,19,103,27,06,46,280,09,6*6E
$GPGSV,2,2,07,09,15,136,24,14,37,190,41,17,77,034,39,6*5C
$GPGSV,2,1,05,02,07,265,,11,11,259,,12,05,326,,19,61,328,,0*6E
$GPGSV,2,2,05,19,61,328,,0*56
$GLGSV,2,1,07,65,17,168,45,71,35,051,50,72,46,118,42,76,06,200,40,1*7E
$GLGSV,2,2,07,78,26,307,18,87,52,350,22,88,24,299,20,1*41
$GLGSV,2,1,06,65,17,168,26,71,35,051,38,72,46,118,16,77,29,243,10,3*79
$GLGSV,2,2,06,78,26,307,12,88,24,299,05,3*71
$GLGSV,1,1,01,86,27,070,,0*44
$GAGSV,1,1,04,02,44,218,43,09,28,098,33,11,16,069,34,36,58,034,45,2*7F
$GAGSV,2,1,07,02,44,218,44,05,16,150,37,09,28,098,41,11,16,069,40,7*77
$GAGSV,2,2,07,25,11,176,43,30,39,292,14,36,58,034,46,7*4C
$GAGSV,2,1,05,04,12,046,,15,04,266,,18,39,305,,27,01,330,,0*74
$GAGSV,2,2,05,27,01,330,,0*45
$GBGSV,3,1,09,01,43,152,37,03,44,206,40,07,70,221,43,11,45,078,39,1*78
$GBGSV,3,2,09,14,51,136,45,21,18,042,47,28,38,303,17,34,27,093,22,1*7A
$GBGSV,3,3,09,37,19,283,25,1*4D
$GBGSV,3,1,09,01,43,152,35,03,44,206,42,04,35,132,33,07,70,221,36,3*7E
$GBGSV,3,2,09,08,52,249,19,10,68,260,09,11,45,078,37,14,51,136,45,3*78
$GBGSV,3,3,09,21,18,042,15,3*45
$GNRMC,041054.00,A,3727.0262645,N,12639.2515662,E,0.016,,220622,,,F,V*18
$GNVTG,,T,,M,0.016,N,0.030,K,D*3C
$GNGNS,041054.00,3727.0262645,N,12639.2515662,E,FFFF,27,0.61,25.291,17.837,2.0,4095,V*09
$GNGGA,041054.00,3727.0262645,N,12639.2515662,E,5,12,0.61,25.291,M,17.837,M,2.0,4095*5B
$GNGSA,A,3,04,17,03,14,01,06,09,,,,,,1.22,0.61,1.05,1*09
$GNGSA,A,3,71,88,65,72,78,,,,,,,,1.22,0.61,1.05,2*0F
$GNGSA,A,3,09,11,02,25,36,05,,,,,,,1.22,0.61,1.05,3*0D
$GNGSA,A,3,37,14,01,34,03,11,07,04,21,,,,1.22,0.61,1.05,4*02
$GPGSV,3,1,10,01,15,064,42,03,42,050,43,04,19,103,38,06,46,280,22,1*6A
$GPGSV,3,2,10,09,15,136,29,14,37,190,42,17,77,034,45,28,,,46,1*51
$GPGSV,3,3,10,41,27,238,33,50,47,179,43,1*62
$GPGSV,2,1,06,01,15,064,37,03,42,050,35,04,19,103,26,09,15,136,25,6*67
$GPGSV,2,2,06,14,37,190,42,17,77,034,40,6*6F
$GPGSV,2,1,05,02,07,265,,11,11,259,,12,05,326,,19,61,328,,0*6E
$GPGSV,2,2,05,19,61,328,,0*56
$GLGSV,2,1,07,65,17,168,45,71,35,051,51,72,46,118,41,76,06,200,40,1*7C
$GLGSV,2,2,07,78,26,307,18,87,52,350,21,88,24,299,21,1*43
$GLGSV,2,1,06,65,17,168,31,71,35,051,38,72,46,118,18,77,29,243,15,3*74
$GLGSV,2,2,06,78,26,307,11,88,24,299,15,3*73
$GLGSV,1,1,01,86,27,070,,0*44
$GAGSV,1,1,04,02,44,218,42,09,28,098,32,11,16,069,34,36,58,034,45,2*7F
$GAGSV,2,1,07,02,44,218,43,05,16,150,36,09,28,098,40,11,16,069,41,7*71
$GAGSV,2,2,07,25,11,176,44,30,39,292,15,36,58,034,45,7*49
$GAGSV,2,1,05,04,12,046,,15,04,266,,18,39,305,,27,01,330,,0*74
$GAGSV,2,2,05,27,01,330,,0*45
$GBGSV,3,1,09,01,43,152,39,03,44,206,40,07,70,221,43,11,45,078,40,1*78
$GBGSV,3,2,09,14,51,136,44,21,18,042,47,28,38,303,17,34,27,093,21,1*78
$GBGSV,3,3,09,37,19,283,26,1*4E
$GBGSV,3,1,09,01,43,152,34,03,44,206,42,04,35,132,35,07,70,221,37,3*78
$GBGSV,3,2,09,08,52,249,19,10,68,260,10,11,45,078,37,14,51,136,46,3*73
$GBGSV,3,3,09,21,18,042,14,3*44
$GNRMC,041055.00,A,3727.0262628,N,12639.2515630,E,0.002,,220622,,,F,V*10
$GNVTG,,T,,M,0.002,N,0.004,K,D*3E
$GNGNS,041055.00,3727.0262628,N,12639.2515630,E,FFFF,27,0.69,25.305,17.837,2.0,4095,V*00
$GNGGA,041055.00,3727.0262628,N,12639.2515630,E,5,12,0.69,25.305,M,17.837,M,2.0,4095*52
$GNGSA,A,3,04,17,03,14,01,06,09,,,,,,1.31,0.69,1.12,1*05
$GNGSA,A,3,71,65,72,78,,,,,,,,,1.31,0.69,1.12,2*03
$GNGSA,A,3,09,11,02,25,36,05,,,,,,,1.31,0.69,1.12,3*01
$GNGSA,A,3,37,14,01,34,03,10,11,07,04,21,,,1.31,0.69,1.12,4*0F
$GPGSV,3,1,10,01,15,064,42,03,42,050,42,04,19,103,38,06,46,280,23,1*6A
$GPGSV,3,2,10,09,15,136,30,14,37,190,43,17,77,034,45,28,,,46,1*58
$GPGSV,3,3,10,41,27,238,32,50,47,179,43,1*63
$GPGSV,2,1,06,01,15,064,37,03,42,050,34,04,19,103,27,09,15,136,25,6*67
$GPGSV,2,2,06,14,37,190,42,17,77,034,40,6*6F
$GPGSV,2,1,05,02,07,265,,11,11,259,,12,05,326,,19,61,328,,0*6E
$GPGSV,2,2,05,19,61,328,,0*56
$GLGSV,2,1,07,65,17,168,44,71,35,051,50,72,46,118,42,76,06,200,38,1*70
$GLGSV,2,2,07,78,26,307,16,87,52,350,20,88,24,299,21,1*4C
$GLGSV,2,1,06,65,17,168,27,71,35,051,38,72,46,118,22,77,29,243,13,3*7C
$GLGSV,2,2,06,78,26,307,13,88,24,299,14,3*70
$GLGSV,1,1,01,86,27,070,,0*44
$GAGSV,2,1,05,02,44,218,43,05,16,150,23,09,28,098,30,11,16,069,35,2*76
$GAGSV,2,2,05,36,58,034,45,2*4D
$GAGSV,2,1,07,02,44,218,43,05,16,150,36,09,28,098,40,11,16,069,41,7*71
$GAGSV,2,2,07,25,11,176,43,30,39,292,13,36,58,034,45,7*48
$GAGSV,2,1,05,04,12,046,,15,04,266,,18,39,305,,27,01,330,,0*74
$GAGSV,2,2,05,27,01,330,,0*45
$GBGSV,3,1,10,01,43,152,39,03,44,206,40,04,35,132,31,07,70,221,43,1*7A
$GBGSV,3,2,10,11,45,078,41,14,51,136,44,21,18,042,46,28,38,303,15,1*73
$GBGSV,3,3,10,34,27,093,26,37,19,283,27,1*7B
$GBGSV,3,1,10,01,43,152,35,03,44,206,43,04,35,132,36,07,70,221,37,3*73
$GBGSV,3,2,10,08,52,249,19,10,68,260,11,11,45,078,36,14,51,136,46,3*7B
$GBGSV,3,3,10,21,18,042,13,34,27,093,13,3*71
$GBGSV,1,1,04,05,08,256,,12,00,100,,13,42,245,,23,18,230,,0*73
$GNRMC,041056.00,A,3727.0262593,N,12639.2515659,E,0.018,,220622,,,F,V*14
$GNVTG,,T,,M,0.018,N,0.033,K,D*31
$GNGNS,041056.00,3727.0262593,N,12639.2515659,E,FFFF,27,0.72,25.307,17.837,2.0,4095,V*07
$GNGGA,041056.00,3727.0262593,N,12639.2515659,E,5,12,0.72,25.307,M,17.837,M,2.0,4095*55
$GNGSA,A,3,04,17,03,14,01,09,,,,,,,1.35,0.72,1.14,1*0B
$GNGSA,A,3,71,65,72,78,,,,,,,,,1.35,0.72,1.14,2*0B
$GNGSA,A,3,09,11,02,25,36,05,,,,,,,1.35,0.72,1.14,3*09
$GNGSA,A,3,37,14,01,34,03,10,28,11,07,04,21,,1.35,0.72,1.14,4*0D
$GPGSV,3,1,10,01,15,064,43,03,42,050,42,04,19,103,39,06,46,280,23,1*6A
$GPGSV,3,2,10,09,15,136,29,14,37,190,43,17,77,034,45,28,,,46,1*50
$GPGSV,3,3,10,41,27,238,33,50,47,179,41,1*60
$GPGSV,2,1,06,01,15,064,35,03,42,050,35,04,19,103,29,09,15,136,26,6*69
$GPGSV,2,2,06,14,37,190,42,17,77,034,41,6*6E
$GPGSV,2,1,05,02,07,265,,11,11,259,,12,05,326,,19,61,328,,0*6E
$GPGSV,2,2,05,19,61,328,,0*56
$GLGSV,2,1,07,65,17,168,44,71,35,051,50,72,46,118,43,76,06,200,38,1*71
$GLGSV,2,2,07,78,26,307,17,87,52,350,20,88,24,299,19,1*46
$GLGSV,2,1,06,65,17,168,27,71,35,051,38,72,46,118,23,77,29,243,09,3*76
$GLGSV,2,2,06,78,26,307,09,88,24,299,14,3*7B
$GLGSV,1,1,01,86,27,070,,0*44
$GAGSV,2,1,06,02,44,218,43,05,16,150,25,09,28,098,31,11,16,069,36,2*71
$GAGSV,2,2,06,34,49,292,20,36,58,034,44,2*7E
$GAGSV,2,1,07,02,44,218,44,05,16,150,36,09,28,098,41,11,16,069,41,7*77
$GAGSV,2,2,07,25,11,176,41,30,39,292,14,36,58,034,44,7*4C
$GAGSV,1,1,04,04,12,046,,15,04,266,,18,39,305,,27,01,330,,0*76
$GBGSV,3,1,09,01,43,152,39,03,44,206,40,07,70,221,43,11,45,078,40,1*78
$GBGSV,3,2,09,14,51,136,45,21,18,042,46,28,38,303,16,34,27,093,27,1*7F
$GBGSV,3,3,09,37,19,283,26,1*4E
$GBGSV,3,1,10,01,43,152,36,03,44,206,42,04,35,132,36,07,70,221,37,3*71
$GBGSV,3,2,10,08,52,249,18,10,68,260,11,11,45,078,34,14,51,136,47,3*79
$GBGSV,3,3,10,21,18,042,13,34,27,093,14,3*76
$GBGSV,1,1,04,05,08,256,,12,00,100,,13,42,245,,23,18,230,,0*73
$GNRMC,041057.00,A,3727.0262589,N,12639.2515678,E,0.023,,220622,,,F,V*15
$GNVTG,,T,,M,0.023,N,0.042,K,D*3F
$GNGNS,041057.00,3727.0262589,N,12639.2515678,E,FFFF,27,0.96,25.317,17.837,2.0,4095,V*05
$GNGGA,041057.00,3727.0262589,N,12639.2515678,E,5,12,0.96,25.317,M,17.837,M,2.0,4095*57
$GNGSA,A,3,04,17,03,14,01,06,09,,,,,,1.64,0.96,1.33,1*06
$GNGSA,A,3,71,65,72,,,,,,,,,,1.64,0.96,1.33,2*0F
$GNGSA,A,3,09,11,02,25,36,05,,,,,,,1.64,0.96,1.33,3*02
$GNGSA,A,3,37,14,01,34,03,10,28,11,07,04,21,,1.64,0.96,1.33,4*06
$GPGSV,3,1,10,01,15,064,43,03,42,050,42,04,19,103,40,06,46,280,24,1*63
$GPGSV,3,2,10,09,15,136,29,14,37,190,43,17,77,034,45,28,,,46,1*50
$GPGSV,3,3,10,41,27,238,33,50,47,179,42,1*63
$GPGSV,2,1,06,01,15,064,39,03,42,050,35,04,19,103,30,09,15,136,27,6*6C
$GPGSV,2,2,06,14,37,190,41,17,77,034,41,6*6D
$GPGSV,2,1,05,02,07,265,,11,11,259,,12,05,326,,19,61,328,,0*6E
$GPGSV,2,2,05,19,61,328,,0*56
$GLGSV,2,1,07,65,17,168,45,71,35,051,50,72,46,118,43,76,06,200,38,1*70
$GLGSV,2,2,07,78,26,307,16,87,52,350,20,88,24,299,16,1*48
$GLGSV,2,1,06,65,17,168,26,71,35,051,38,72,46,118,24,77,29,243,15,3*7D
$GLGSV,2,2,06,78,26,307,11,88,24,299,14,3*72
$GLGSV,1,1,01,86,27,070,,0*44
$GAGSV,2,1,06,02,44,218,44,05,16,150,25,09,28,098,31,11,16,069,36,2*76
$GAGSV,2,2,06,34,49,292,18,36,58,034,45,2*74
$GAGSV,2,1,07,02,44,218,44,05,16,150,36,09,28,098,41,11,16,069,41,7*77
$GAGSV,2,2,07,25,11,176,41,30,39,292,15,36,58,034,46,7*4F
$GAGSV,1,1,04,04,12,046,,15,04,266,,18,39,305,,27,01,330,,0*76
$GBGSV,3,1,09,01,43,152,39,03,44,206,40,07,70,221,43,11,45,078,40,1*78
$GBGSV,3,2,09,14,51,136,45,21,18,042,46,28,38,304,16,34,27,093,28,1*77
$GBGSV,3,3,09,37,19,283,25,1*4D
$GBGSV,3,1,10,01,43,152,36,03,44,206,42,04,35,132,35,07,70,221,37,3*72
$GNRMC,041058.00,A,3727.0262572,N,12639.2515692,E,0.023,,220622,,,F,V*1A
$GNVTG,,T,,M,0.023,N,0.043,K,D*3E
$GNGNS,041058.00,3727.0262572,N,12639.2515692,E,FFFF,27,0.69,25.319,17.837,2.0,4095,V*04
$GNGGA,041058.00,3727.0262572,N,12639.2515692,E,5,12,0.69,25.319,M,17.837,M,2.0,4095*56
$GNGSA,A,3,04,17,03,14,01,06,09,,,,,,1.31,0.69,1.12,1*05
$GNGSA,A,3,71,78,65,72,,,,,,,,,1.31,0.69,1.12,2*03
$GNGSA,A,3,09,11,02,25,36,05,,,,,,,1.31,0.69,1.12,3*01
$GNGSA,A,3,37,14,01,34,03,10,11,07,04,21,,,1.31,0.69,1.12,4*0F
$GPGSV,3,1,10,01,15,064,42,03,42,050,43,04,19,103,37,06,46,280,24,1*63
$GPGSV,3,2,10,09,15,136,30,14,37,190,44,17,77,034,45,28,,,46,1*5F
$GPGSV,3,3,10,41,27,238,33,50,47,179,43,1*62
$GPGSV,2,1,07,01,15,064,36,03,42,050,36,04,19,103,31,06,46,280,18,6*6B
$GPGSV,2,2,07,09,15,136,26,14,37,190,43,17,77,034,42,6*50
$GPGSV,2,1,05,02,07,265,,11,11,259,,12,05,326,,19,61,328,,0*6E
$GPGSV,2,2,05,19,61,328,,0*56
$GLGSV,2,1,07,65,17,168,43,71,35,051,51,72,46,118,42,76,06,200,37,1*79
$GLGSV,2,2,07,78,26,307,15,87,52,350,19,88,24,299,14,1*43
$GLGSV,2,1,06,65,17,168,27,71,35,051,37,72,46,118,26,77,29,243,12,3*76
$GLGSV,2,2,06,78,26,307,13,88,24,299,14,3*70
$GLGSV,1,1,01,86,27,070,,0*44
$GAGSV,2,1,05,02,44,218,43,05,16,150,26,09,28,098,30,11,16,069,36,2*70
$GAGSV,2,2,05,36,58,034,45,2*4D
$GAGSV,2,1,07,02,44,218,44,05,16,150,37,09,28,098,39,11,16,069,41,7*79
$GAGSV,2,2,07,25,11,176,42,30,39,292,16,36,58,034,44,7*4D
$GAGSV,2,1,05,04,12,046,,15,04,266,,18,39,305,,27,01,330,,0*74
$GAGSV,2,2,05,27,01,330,,0*45
$GBGSV,3,1,10,01,43,152,39,03,44,206,40,04,35,132,33,07,70,221,43,1*78
$GBGSV,3,2,10,11,45,078,39,14,51,136,44,21,18,042,46,28,38,304,16,1*78
$GBGSV,3,3,10,34,27,093,30,37,19,283,26,1*7D
$GBGSV,3,1,10,01,43,152,36,03,44,206,43,04,35,132,37,07,70,221,37,3*71
$GBGSV,3,2,10,08,52,249,19,10,68,260,13,11,45,078,33,14,51,136,46,3*7C
$GBGSV,3,3,10,21,18,042,11,34,27,093,11,3*71
$GBGSV,1,1,04,05,08,256,,12,00,100,,13,42,245,,23,18,230,,0*73
$GNRMC,041059.00,A,3727.0262563,N,12639.2515697,E,0.019,,220622,,,F,V*17
$GNVTG,,T,,M,0.019,N,0.035,K,D*36
$GNGNS,041059.00,3727.0262563,N,12639.2515697,E,FFFF,27,0.61,25.316,17.837,2.0,4095,V*07
$GNGGA,041059.00,3727.0262563,N,12639.2515697,E,5,12,0.61,25.316,M,17.837,M,2.0,4095*55
$GNGSA,A,3,04,17,03,14,01,06,09,,,,,,1.22,0.61,1.05,1*09
$GNGSA,A,3,71,88,78,65,72,,,,,,,,1.22,0.61,1.05,2*0F
$GNGSA,A,3,09,11,02,25,36,05,,,,,,,1.22,0.61,1.05,3*0D
$GNGSA,A,3,37,14,01,34,03,11,07,04,21,,,,1.22,0.61,1.05,4*02
$GPGSV,3,1,10,01,15,064,41,03,42,050,43,04,19,103,37,06,46,280,24,1*60
$GPGSV,3,2,10,09,15,136,31,14,37,190,43,17,77,034,45,28,,,46,1*59
$GPGSV,3,3,10,41,27,238,33,50,47,179,43,1*62
$GPGSV,2,1,07,01,15,064,38,03,42,050,36,04,19,103,31,06,46,280,17,6*6A
$GPGSV,2,2,07,09,15,136,26,14,37,190,42,17,77,034,41,6*52
$GPGSV,2,1,05,02,07,265,,11,11,259,,12,05,326,,19,61,328,,0*6E
$GPGSV,2,2,05,19,61,328,,0*56
$GLGSV,2,1,07,65,17,168,43,71,35,051,51,72,46,118,40,76,06,200,37,1*7B
$GLGSV,2,2,07,78,26,307,14,87,52,350,18,88,24,299,13,1*44
$GLGSV,2,1,06,65,17,168,33,71,35,051,37,72,46,118,27,77,29,243,13,3*73
$GLGSV,2,2,06,78,26,307,11,88,24,299,18,3*7E
$GLGSV,1,1,01,86,27,070,,0*44
$GAGSV,2,1,05,02,44,218,43,05,16,150,26,09,28,098,29,11,16,069,35,2*7B
$GAGSV,2,2,05,36,58,034,45,2*4D
$GAGSV,2,1,07,02,44,218,43,05,16,150,36,09,28,098,39,11,16,069,41,7*7F
$GAGSV,2,2,07,25,11,176,42,30,39,292,14,36,58,034,44,7*4F
$GAGSV,2,1,05,04,12,046,,15,04,266,,18,39,305,,27,01,330,,0*74
$GAGSV,2,2,05,27,01,330,,0*45
$GBGSV,3,1,10,01,43,152,40,03,44,206,40,04,35,132,33,07,70,221,43,1*76
$GBGSV,3,2,10,11,45,078,40,14,51,136,44,21,18,042,46,28,38,304,15,1*75
$GBGSV,3,3,10,34,27,093,30,37,19,283,27,1*7C
$GBGSV,3,1,09,01,43,152,35,03,44,206,43,04,35,132,37,07,70,221,37,3*7A
$GBGSV,3,2,09,08,52,249,20,11,45,078,35,14,51,136,46,21,18,042,10,3*7C
$GBGSV,3,3,09,34,27,093,08,3*4D
$GBGSV,2,1,05,05,08,256,,10,68,260,,12,00,100,,13,42,245,,0*73
$GBGSV,2,2,05,13,42,245,,0*45
$GNRMC,041100.00,A,3727.0262584,N,12639.2515714,E,0.007,,220622,,,F,V*16
$GNVTG,,T,,M,0.007,N,0.013,K,D*3D
$GNGNS,041100.00,3727.0262584,N,12639.2515714,E,FFFF,27,0.62,25.319,17.837,2.0,4095,V*05
$GNGGA,041100.00,3727.0262584,N,12639.2515714,E,5,12,0.62,25.319,M,17.837,M,2.0,4095*57
$GNGSA,A,3,04,17,03,14,01,06,09,,,,,,1.25,0.62,1.08,1*00
$GNGSA,A,3,71,88,78,65,72,,,,,,,,1.25,0.62,1.08,2*06
$GNGSA,A,3,09,11,02,25,36,05,,,,,,,1.25,0.62,1.08,3*04
$GNGSA,A,3,37,14,01,34,03,11,07,04,21,,,,1.25,0.62,1.08,4*0B
$GPGSV,3,1,10,01,15,064,41,03,42,050,44,04,19,103,37,06,46,280,23,1*60
$GAGSV,2,2,07,25,11,176,42,30,39,292,13,36,58,034,45,7*49
$GNRMC,041101.00,A,3727.0262504,N,12639.2515815,E,0.035,,220622,,,F,V*10
$GNVTG,,T,,M,0.035,N,0.065,K,D*3D
$GNGNS,041101.00,3727.0262504,N,12639.2515815,E,FFFF,27,0.59,25.322,17.837,2.0,4095,V*02
$GNGGA,041101.00,3727.0262504,N,12639.2515815,E,5,12,0.59,25.322,M,17.837,M,2.0,4095*50
$GNGSA,A,3,04,17,03,14,01,06,09,,,,,,1.21,0.59,1.05,1*01
$GNGSA,A,3,71,88,78,65,72,,,,,,,,1.21,0.59,1.05,2*07
$GNGSA,A,3,09,11,02,25,36,05,,,,,,,1.21,0.59,1.05,3*05
$GNGSA,A,3,37,14,01,34,03,11,07,04,21,,,,1.21,0.59,1.05,4*0A
$GPGSV,3,1,10,01,15,064,43,03,42,050,43,04,19,103,37,06,46,280,22,1*64
$GPGSV,3,2,10,09,15,136,30,14,37,190,43,17,77,034,44,28,,,46,1*59
$GPGSV,3,3,10,41,27,238,32,50,47,179,42,1*62
$GPGSV,2,1,07,01,15,064,38,03,42,050,37,04,19,103,30,06,46,280,18,6*65
$GPGSV,2,2,07,09,15,136,27,14,37,190,42,17,77,034,40,6*52
$GPGSV,2,1,05,02,07,265,,11,11,259,,12,05,326,,19,61,328,,0*6E
$GPGSV,2,2,05,19,61,328,,0*56
$GLGSV,2,1,07,65,17,168,42,71,35,051,51,72,46,118,42,76,06,200,36,1*79
$GLGSV,2,2,07,78,26,307,16,87,52,350,17,88,24,299,13,1*49
$GLGSV,2,1,06,65,17,168,30,71,35,051,37,72,46,118,27,77,29,243,12,3*71
$GLGSV,2,2,06,78,26,307,09,88,24,299,14,3*7B
$GLGSV,1,1,01,86,27,070,,0*44
$GAGSV,2,1,05,02,44,218,43,05,16,150,23,09,28,098,28,11,16,069,34,2*7E
$GAGSV,2,2,05,36,58,034,46,2*4E
$GAGSV,2,1,07,02,44,218,43,05,16,150,36,09,28,098,37,11,16,069,40,7*70
$GAGSV,2,2,07,25,11,176,42,30,39,292,14,36,58,034,45,7*4E
$GAGSV,2,1,05,04,12,046,,15,04,266,,18,39,305,,27,01,330,,0*74
$GAGSV,2,2,05,27,01,330,,0*45
$GBGSV,3,1,10,01,43,152,40,03,44,206,40,04,35,132,30,07,70,221,43,1*75
$GBGSV,3,2,10,11,45,078,39,14,51,136,44,21,18,042,46,28,38,304,16,1*78
$GBGSV,3,3,10,34,26,094,25,37,19,282,27,1*7F
$GBGSV,3,1,09,01,43,152,34,03,44,206,42,04,35,132,36,07,70,221,37,3*7B
$GBGSV,3,2,09,08,52,249,21,10,68,260,17,11,45,078,37,14,51,136,46,3*7F
$GBGSV,3,3,09,21,18,042,10,3*40
$GBGSV,1,1,04,05,08,256,,12,00,100,,13,42,245,,23,18,230,,0*73
$GNRMC,041102.00,A,3727.0262458,N,12639.2515890,E,0.003,,220622,,,F,V*13
$GNVTG,,T,,M,0.003,N,0.006,K,D*3D
$GNGNS,041102.00,3727.0262458,N,12639.2515890,E,FFFF,27,0.59,25.332,17.837,2.0,4095,V*05
$GNGGA,041102.00,3727.0262458,N,12639.2515890,E,5,12,0.59,25.332,M,17.837,M,2.0,4095*57
$GNGSA,A,3,04,17,03,14,01,06,09,,,,,,1.21,0.59,1.05,1*01
$GNGSA,A,3,71,88,78,65,72,,,,,,,,1.21,0.59,1.05,2*07
$GNGSA,A,3,09,11,02,25,36,05,,,,,,,1.21,0.59,1.05,3*05
$GNGSA,A,3,37,14,01,34,03,11,07,04,21,,,,1.21,0.59,1.05,4*0A
$GPGSV,3,1,10,01,15,064,43,03,42,050,44,04,19,103,38,06,46,280,22,1*6C
$GPGSV,3,2,10,09,15,136,28,14,37,190,42,17,77,034,44,28,,,46,1*51
$GPGSV,3,3,10,41,27,238,32,50,47,179,42,1*62
$GPGSV,2,1,07,01,15,064,37,03,42,050,37,04,19,103,31,06,46,280,17,6*64
$GPGSV,2,2,07,09,15,136,26,14,37,190,41,17,77,034,40,6*50
$GPGSV,2,1,05,02,07,265,,11,11,259,,12,05,326,,19,61,328,,0*6E
$GPGSV,2,2,05,19,61,328,,0*56
$GLGSV,2,1,07,65,17,168,43,71,35,051,50,72,46,118,42,76,06,200,37,1*78
$GLGSV,2,2,07,78,26,307,17,87,52,350,16,88,24,299,15,1*4F
$GLGSV,2,1,06,65,17,168,30,71,35,051,39,72,46,118,28,77,29,243,10,3*72
$GLGSV,2,2,06,78,26,307,10,88,24,299,14,3*73
$GLGSV,1,1,01,86,27,070,,0*44
$GAGSV,2,1,06,02,44,218,44,05,16,150,22,09,28,098,29,11,16,069,34,2*7A
$GAGSV,2,2,06,34,49,292,21,36,58,034,46,2*7D
$GAGSV,2,1,07,02,44,218,43,05,16,150,36,09,28,098,39,11,16,069,40,7*7E
$GAGSV,2,2,07,25,11,176,42,30,39,292,15,36,58,034,46,7*4C
$GAGSV,1,1,04,04,12,046,,15,04,266,,18,39,305,,27,01,330,,0*76
$GBGSV,3,1,10,01,43,152,37,03,44,206,39,04,35,132,29,07,70,221,43,1*73
$GBGSV,3,2,10,11,45,078,39,14,51,136,45,21,18,042,46,28,38,304,17,1*78
$GBGSV,3,3,10,34,26,094,26,37,19,282,26,1*7D
$GBGSV,3,1,09,01,43,152,33,03,44,206,42,04,35,132,32,07,70,221,37,3*78
$GBGSV,3,2,09,08,52,249,20,10,68,260,16,11,45,078,37,14,51,136,46,3*7F
$GBGSV,3,3,09,21,18,042,09,3*48
$GNRMC,041103.00,A,3727.0262395,N,12639.2515978,E,0.012,,220622,,,F,V*13
$GNVTG,,T,,M,0.012,N,0.023,K,D*3A
$GNGNS,041103.00,3727.0262395,N,12639.2515978,E,FFFF,27,0.59,25.340,17.837,3.0,4095,V*01
$GNGGA,041103.00,3727.0262395,N,12639.2515978,E,5,12,0.59,25.340,M,17.837,M,3.0,4095*53
$GNGSA,A,3,04,17,03,14,01,06,09,,,,,,1.21,0.59,1.05,1*01
$GNGSA,A,3,71,88,78,65,72,,,,,,,,1.21,0.59,1.05,2*07
$GNGSA,A,3,09,11,02,25,36,05,,,,,,,1.21,0.59,1.05,3*05
$GNGSA,A,3,37,14,01,34,03,11,07,04,21,,,,1.21,0.59,1.05,4*0A
$GPGSV,3,1,10,01,15,064,43,03,42,050,44,04,19,103,39,06,46,280,22,1*6D
$GPGSV,3,2,10,09,15,136,27,14,37,190,42,17,77,034,45,28,,,46,1*5F
$GPGSV,3,3,10,41,27,238,33,50,47,179,42,1*63
$GPGSV,2,1,07,01,15,064,37,03,42,050,37,04,19,103,31,06,46,280,17,6*64
$GPGSV,2,2,07,09,15,136,25,14,37,190,41,17,77,034,40,6*53
$GPGSV,2,1,05,02,07,265,,11,11,259,,12,05,326,,19,61,328,,0*6E
$GPGSV,2,2,05,19,61,328,,0*56
$GLGSV,2,1,07,65,17,168,44,71,35,051,50,72,46,118,43,76,06,200,36,1*7F
$GLGSV,2,2,07,78,26,307,17,87,52,350,15,88,24,299,15,1*4C
$GLGSV,2,1,06,65,17,168,30,71,35,051,38,72,46,118,27,77,29,243,11,3*7D
$GLGSV,2,2,06,78,26,307,10,88,24,299,15,3*72
$GLGSV,1,1,01,86,27,070,,0*44
$GAGSV,2,1,05,02,44,218,43,05,16,150,22,09,28,098,29,11,16,069,34,2*7E
$GAGSV,2,2,05,36,58,034,46,2*4E
$GAGSV,2,1,07,02,44,218,43,05,16,150,36,09,28,098,38,11,16,069,40,7*7F
$GAGSV,2,2,07,25,11,176,41,30,39,292,14,36,58,034,46,7*4E
$GAGSV,2,1,05,04,12,046,,15,04,266,,18,39,305,,27,01,330,,0*74
$GAGSV,2,2,05,27,01,330,,0*45
$GBGSV,3,1,10,01,43,152,39,03,44,206,40,04,35,132,28,07,70,221,43,1*72
$GBGSV,3,2,10,11,45,078,39,14,51,136,45,21,18,042,46,28,38,304,18,1*77
$GBGSV,3,3,10,34,26,094,31,37,19,282,26,1*7B
$GBGSV,3,1,09,01,43,152,35,03,44,206,42,04,35,132,35,07,70,221,37,3*79
$GBGSV,3,2,09,08,52,249,20,10,68,260,14,11,45,078,36,14,51,136,44,3*7E
$GBGSV,3,3,09,21,18,042,09,3*48
$GBGSV,1,1,04,05,08,256,,12,00,100,,13,42,245,,23,18,230,,0*73
$GNRMC,041104.00,A,3727.0262346,N,12639.2516044,E,0.009,,220622,,,F,V*15
$GNVTG,,T,,M,0.009,N,0.017,K,D*37
$GNGNS,041104.00,3727.0262346,N,12639.2516044,E,FFFF,27,0.60,25.353,17.837,4.0,4095,V*02
$GNGGA,041104.00,3727.0262346,N,12639.2516044,E,5,12,0.60,25.353,M,17.837,M,4.0,4095*50
$GNGSA,A,3,04,17,03,14,01,06,09,,,,,,1.23,0.60,1.08,1*04
$GNGSA,A,3,71,88,78,65,72,,,,,,,,1.23,0.60,1.08,2*02
$GNGSA,A,3,09,11,02,25,36,05,,,,,,,1.23,0.60,1.08,3*00
$GNGSA,A,3,37,14,01,34,03,11,07,04,21,,,,1.23,0.60,1.08,4*0F
$GPGSV,3,1,10,01,15,064,44,03,42,050,46,04,19,103,39,06,46,280,22,1*68
$GPGSV,3,2,10,09,15,136,27,14,37,190,41,17,77,034,45,28,,,46,1*5C
$GPGSV,3,3,10,41,27,238,33,50,47,179,42,1*63
$GPGSV,2,1,07,01,15,064,37,03,42,050,37,04,19,103,30,06,46,280,18,6*6A
$GPGSV,2,2,07,09,15,136,24,14,37,190,41,17,77,034,40,6*52
$GPGSV,2,2,05,19,61,328,,0*56
$GLGSV,2,1,07,65,17,168,44,71,35,051,49,72,46,118,44,76,06,200,36,1*70
$GLGSV,2,2,07,78,26,307,17,87,52,350,15,88,24,299,14,1*4D
$GLGSV,2,1,06,65,17,168,31,71,35,051,38,72,46,118,28,77,29,243,11,3*73
$GLGSV,2,2,06,78,26,307,11,88,24,299,11,3*77
$GLGSV,1,1,01,86,27,070,,0*44
$GAGSV,2,1,05,02,44,218,43,05,16,150,22,09,28,098,28,11,16,069,35,2*7E
$GAGSV,2,2,05,36,58,034,46,2*4E
$GAGSV,2,1,07,02,44,218,43,05,16,150,35,09,28,098,38,11,16,069,40,7*7C
$GAGSV,2,2,07,25,11,176,41,30,39,292,14,36,58,034,47,7*4F
$GAGSV,2,1,05,04,12,046,,15,04,266,,18,39,305,,27,01,330,,0*74
$GAGSV,2,2,05,27,01,330,,0*45
$GBGSV,3,1,10,01,43,152,38,03,44,206,40,04,35,132,29,07,70,221,43,1*72
$GBGSV,3,2,10,11,45,078,38,14,51,136,45,21,18,042,46,28,38,304,17,1*79
$GBGSV,3,3,10,34,26,094,31,37,19,282,26,1*7B
$GBGSV,3,1,09,01,43,152,34,03,44,206,42,04,35,132,35,07,70,221,37,3*78
$GBGSV,3,2,09,08,52,249,21,10,68,260,12,11,45,078,36,14,$GBGSV,3,3,09,21,18,042,07,3*46
$GBGSV,1,1,04,05,08,256,,12,00,100,,13,42,245,,23,18,230,,0*73
$GNRMC,041105.00,A,3727.0262248,N,12639.2516199,E,0.002,,220622,,,F,V*11
$GNVTG,,T,,M,0.002,N,0.004,K,D*3E
$GNGNS,041105.00,3727.0262248,N,12639.2516199,E,FFFF,27,0.59,25.364,17.837,5.0,4095,V*02
$GNGGA,041105.00,3727.0262248,N,12639.2516199,E,5,12,0.59,25.364,M,17.837,M,5.0,4095*50
$GNGSA,A,3,04,17,03,14,01,06,09,,,,,,1.21,0.59,1.05,1*01
$GNGSA,A,3,71,88,78,65,72,,,,,,,,1.21,0.59,1.05,2*07
$GNGSA,A,3,09,11,02,25,36,05,,,,,,,1.21,0.59,1.05,3*05
$GNGSA,A,3,37,14,01,34,03,11,07,04,21,,,,1.21,0.59,1.05,4*0A
$GPGSV,3,1,10,01,15,064,43,03,42,050,45,04,19,103,39,06,46,280,21,1*6F
$GPGSV,3,2,10,09,15,136,27,14,37,190,43,17,77,034,45,28,,,46,1*5E
$GPGSV,3,3,10,41,27,238,32,50,47,179,42,1*62
$GPGSV,2,1,07,01,15,064,35,03,42,050,35,04,19,103,31,06,46,280,18,6*6B
$GPGSV,2,2,07,09,15,136,23,14,37,190,40,17,77,034,40,6*54
$GPGSV,2,1,05,02,07,265,,11,11,259,,12,05,326,,19,61,328,,0*6E
$GPGSV,2,2,05,19,61,328,,0*56
$GLGSV,2,1,07,65,17,168,44,71,35,051,50,72,46,118,44,76,06,200,35,1*7B
$GLGSV,2,2,07,78,26,307,17,87,52,350,16,88,24,299,13,1*49
$GLGSV,2,1,06,65,17,168,30,71,35,051,38,72,46,118,29,77,29,243,11,3*73
$GLGSV,2,2,06,78,26,307,11,88,24,299,11,3*77
$GLGSV,1,1,01,86,27,070,,0*44
$GAGSV,2,1,05,02,44,218,43,05,16,150,22,09,28,098,28,11,16,069,35,2*7E
$GAGSV,2,2,05,36,58,034,46,2*4E
$GAGSV,2,1,07,02,44,218,43,05,16,150,35,09,28,098,37,11,16,069,40,7*73
$GAGSV,2,2,07,25,11,176,43,30,39,292,13,36,58,034,46,7*4B
$GAGSV,2,1,05,04,12,046,,15,04,266,,18,39,305,,27,01,330,,0*74
$GAGSV,2,2,05,27,01,330,,0*45
$GBGSV,3,1,10,01,43,152,38,03,44,206,40,04,35,132,33,07,70,221,43,1*79
$GBGSV,3,2,10,11,45,078,40,14,51,136,44,21,18,042,46,28,38,304,14,1*74
$GBGSV,3,3,10,34,26,094,32,37,19,282,26,1*78
$GBGSV,3,1,09,01,43,152,33,03,44,206,42,04,35,132,35,07,70,221,37,3*7F
$GBGSV,3,2,09,08,52,249,21,10,68,260,11,11,45,078,35,14,51,136,46,3*7B
$GBGSV,3,3,09,21,18,042,08,3*49
$GBGSV,1,1,04,05,08,256,,12,00,100,,13,42,245,,23,18,230,,0*73
$GNRMC,041106.00,A,3727.0262166,N,12639.2516350,E,0.006,,220622,,,F,V*1E
$GNVTG,,T,,M,0.006,N,0.011,K,D*3E
$GNGNS,041106.00,3727.0262166,N,12639.2516350,E,FFFF,27,0.59,25.366,17.837,6.0,4095,V*08
$GNGGA,041106.00,3727.0262166,N,12639.2516350,E,5,12,0.59,25.366,M,17.837,M,6.0,4095*5A
$GNGSA,A,3,04,17,03,14,01,06,09,,,,,,1.21,0.59,1.05,1*01
$GNGSA,A,3,71,88,78,65,72,,,,,,,,1.21,0.59,1.05,2*07
$GNGSA,A,3,09,11,02,25,36,05,,,,,,,1.21,0.59,1.05,3*05
$GNGSA,A,3,37,14,01,34,03,11,07,04,21,,,,1.21,0.59,1.05,4*0A
$GPGSV,3,1,10,01,15,064,43,03,42,050,45,04,19,103,39,06,46,280,21,1*6F
$GPGSV,3,2,10,09,15,136,28,14,37,190,43,17,77,034,45,28,,,46,1*51
$GPGSV,3,3,10,41,27,238,32,50,47,179,42,1*62
$GPGSV,2,1,07,01,15,064,36,03,42,050,36,04,19,103,32,06,46,280,19,6*69
$GPGSV,2,2,07,09,15,136,23,14,37,190,41,17,77,034,40,6*55
$GPGSV,2,1,05,02,07,265,,11,11,259,,12,05,326,,19,61,328,,0*6E
$GPGSV,2,2,05,19,61,328,,0*56
$GLGSV,2,1,07,65,18,168,43,71,35,051,50,72,46,118,44,76,06,200,35,1*73
$GLGSV,2,2,07,78,26,307,17,87,52,350,16,88,24,299,12,1*48
$GLGSV,2,1,06,65,18,168,31,71,35,051,37,72,46,118,30,77,29,243,10,3*7B
$GLGSV,2,2,06,78,26,307,08,88,24,299,13,3*7D
$GLGSV,1,1,01,86,27,070,,0*44
$GAGSV,2,1,05,02,44,218,43,05,16,150,22,09,28,098,27,11,16,069,35,2*71
$GAGSV,2,2,05,36,58,034,46,2*4E
$GAGSV,2,1,07,02,44,218,42,05,16,150,35,09,28,098,36,11,16,069,40,7*73
$GAGSV,2,2,07,25,11,176,42,30,39,292,13,36,58,034,46,7*4A
$GAGSV,2,1,05,04,12,046,,15,04,266,,18,39,305,,27,01,330,,0*74
$GAGSV,2,2,05,27,01,330,,0*45
$GBGSV,3,1,10,01,43,152,40,03,44,206,40,04,35,132,33,07,70,221,43,1*76
$GBGSV,3,2,10,11,45,078,40,14,51,136,44,21,18,042,46,28,38,304,13,1*73
$GBGSV,3,3,10,34,26,094,32,37,19,282,26,1*78
$GBGSV,3,1,09,01,43,152,33,03,44,206,41,04,35,132,36,07,70,221,37,3*7F
$GNRMC,041107.00,A,3727.0262147,N,12639.2516417,E,0.013,,220622,,,F,V*1C
$GNVTG,,T,,M,0.013,N,0.024,K,D*3C
$GNGNS,041107.00,3727.0262147,N,12639.2516417,E,FFFF,27,0.60,25.362,17.837,7.0,4095,V*01
$GNGGA,041107.00,3727.0262147,N,12639.2516417,E,5,12,0.60,25.362,M,17.837,M,7.0,4095*53
$GNGSA,A,3,04,17,03,14,01,06,09,,,,,,1.21,0.60,1.06,1*08
$GNGSA,A,3,71,88,78,65,72,,,,,,,,1.21,0.60,1.06,2*0E
$GNGSA,A,3,09,11,02,25,36,05,,,,,,,1.21,0.60,1.06,3*0C
$GNGSA,A,3,37,14,01,34,03,11,07,04,21,,,,1.21,0.60,1.06,4*03
$GPGSV,3,1,10,01,15,064,44,03,42,050,46,04,19,103,40,06,46,280,21,1*65
$GPGSV,3,2,10,09,15,136,29,14,37,190,41,17,77,034,45,28,,,46,1*52
$GPGSV,3,3,10,41,27,238,33,50,47,179,41,1*60
$GPGSV,2,1,07,01,15,064,37,03,42,050,37,04,19,103,32,06,46,280,18,6*68
$GPGSV,2,2,07,09,15,136,22,14,37,190,39,17,77,034,40,6*5B
$GPGSV,2,1,05,02,07,265,,11,11,259,,12,05,326,,19,61,328,,0*6E
$GPGSV,2,2,05,19,61,328,,0*56
$GLGSV,2,1,07,65,18,168,44,71,35,051,49,72,46,118,44,76,06,200,35,1*7C
$GLGSV,2,2,07,78,26,307,17,87,52,350,18,88,24,299,10,1*44
$GLGSV,2,1,06,65,18,168,31,71,35,051,38,72,46,118,30,77,29,243,09,3*7C
$GLGSV,2,2,06,78,26,307,10,88,24,299,10,3*77
$GLGSV,1,1,01,86,27,070,,0*44
$GAGSV,2,1,05,02,44,218,43,05,16,150,22,09,28,098,26,11,16,069,35,2*70
$GAGSV,2,2,05,36,58,034,47,2*4F
$GAGSV,2,1,07,02,44,218,43,05,16,150,35,09,28,098,36,11,16,069,40,7*72
$GAGSV,2,2,07,25,11,176,42,30,39,292,14,36,58,034,47,7*4C
$GAGSV,2,1,05,04,12,046,,15,04,266,,18,39,305,,27,01,330,,0*74
$GAGSV,2,2,05,27,01,330,,0*45
$GBGSV,3,1,10,01,43,152,38,03,44,206,40,04,35,132,28,07,70,221,43,1*73
$GBGSV,3,2,10,11,45,078,39,14,51,136,45,21,18,042,46,28,38,304,10,1*7F
$GBGSV,3,3,10,34,26,094,31,37,19,282,26,1*7B
$GBGSV,3,1,10,01,43,152,33,03,44,206,42,04,35,132,32,07,70,221,37,3*70
$GBGSV,3,2,10,08,52,249,23,10,68,260,10,11,45,078,35,14,51,136,44,3*72
$GBGSV,3,3,10,21,18,042,10,34,26,094,14,3*73
$GBGSV,1,1,04,05,08,256,,12,00,100,,13,42,245,,23,18,230,,0*73
$GNRMC,041108.00,A,3727.0262163,N,12639.2516410,E,0.020,,220622,,,F,V*12
$GNVTG,,T,,M,0.020,N,0.037,K,D*3E
$GNGNS,041108.00,3727.0262163,N,12639.2516410,E,FFFF,27,0.66,25.349,17.837,8.0,4095,V*0F
$GNGGA,041108.00,3727.0262163,N,12639.2516410,E,5,12,0.66,25.349,M,17.837,M,8.0,4095*5D
$GNGSA,A,3,04,17,03,14,01,06,09,,,,,,1.31,0.66,1.14,1*0C
$GNGSA,A,3,71,78,65,72,,,,,,,,,1.31,0.66,1.14,2*0A
$GNGSA,A,3,09,11,02,25,36,05,,,,,,,1.31,0.66,1.14,3*08
$GNGSA,A,3,37,14,01,34,03,10,11,07,04,21,,,1.31,0.66,1.14,4*06
$GPGSV,3,1,10,01,15,064,44,03,42,050,46,04,19,103,39,06,46,280,21,1*6B
$GPGSV,3,2,10,09,15,136,30,14,37,190,42,17,77,034,45,28,,,46,1*59
$GPGSV,3,3,10,41,27,238,33,50,47,179,42,1*63
$GPGSV,2,1,07,01,15,064,37,03,42,050,36,04,19,103,32,06,46,280,18,6*69
$GPGSV,2,2,07,09,15,136,21,14,37,190,40,17,77,034,40,6*56
$GPGSV,2,1,05,02,07,265,,11,11,259,,12,05,326,,19,61,328,,0*6E
$GPGSV,2,2,05,19,61,328,,0*56
$GLGSV,2,1,07,65,18,168,45,71,35,051,49,72,46,118,45,76,06,200,32,1*7B
$GLGSV,2,2,07,78,26,307,17,87,52,350,18,88,24,299,09,1*4C
$GLGSV,2,1,06,65,18,168,31,71,35,051,38,72,46,118,31,77,29,243,13,3*76
$GLGSV,2,2,06,78,26,307,11,88,24,299,12,3*74
$GLGSV,1,1,01,86,27,070,,0*44
$GAGSV,2,1,05,02,44,218,43,05,16,150,22,09,28,098,25,11,16,069,36,2*70
$GAGSV,2,2,05,36,58,034,46,2*4E
$GAGSV,2,1,07,02,44,218,43,05,16,150,35,09,28,098,37,11,16,069,40,7*73
$GAGSV,2,2,07,25,11,176,42,30,39,292,14,36,58,034,46,7*4D
$GAGSV,2,1,05,04,12,046,,15,04,266,,18,39,305,,27,01,330,,0*74
$GAGSV,2,2,05,27,01,330,,0*45
$GBGSV,3,1,09,01,43,152,39,03,44,206,40,04,35,132,29,07,70,221,43,1*7B
$GNRMC,041109.00,A,3727.0262192,N,12639.2516417,E,0.012,,220622,,,F,V*1B
$GNVTG,,T,,M,0.012,N,0.022,K,D*3B
$GNGGA,041109.00,3727.0262192,N,12639.2516417,E,5,12,0.71,25.327,M,17.837,M,9.0,4095*5A
$GNGSA,A,3,04,17,03,14,01,06,09,,,,,,1.37,0.71,1.17,1*0F
$GNGSA,A,3,71,78,65,72,,,,,,,,,1.37,0.71,1.17,2*09
$GNGSA,A,3,09,11,02,25,36,05,,,,,,,1.37,0.71,1.17,3*0B
$GNGSA,A,3,37,14,01,34,03,10,11,07,04,21,,,1.37,0.71,1.17,4*05
$GPGSV,3,1,10,01,15,064,44,03,42,050,47,04,19,103,39,06,46,280,20,1*6B
$GPGSV,3,2,10,09,15,136,31,14,37,190,43,17,77,034,45,28,,,46,1*59
$GPGSV,3,3,10,41,27,238,33,50,47,179,42,1*63
$GPGSV,2,1,07,01,15,064,37,03,42,050,37,04,19,103,31,06,46,280,18,6*6B
$GPGSV,2,2,07,09,15,136,21,14,37,190,40,17,77,034,40,6*56
$GPGSV,2,1,05,02,07,265,,11,11,259,,12,05,326,,19,61,328,,0*6E
$GPGSV,2,2,05,19,61,328,,0*56
$GLGSV,2,1,07,65,18,168,45,71,35,051,49,72,46,118,45,76,06,200,34,1*7D
$GLGSV,2,2,07,78,26,307,17,87,52,350,20,88,24,299,08,1*46
$GLGSV,2,1,06,65,18,168,34,71,35,051,38,72,46,118,30,77,29,243,14,3*75
$$GLGSV,1,1,01,86,27,070,,0*44
$GAGSV,2,1,05,02,44,218,42,05,16,150,22,09,28,098,25,11,16,069,34,2*73
$GAGSV,2,2,05,36,58,034,46,2*4E
$GAGSV,2,1,07,02,44,218,42,05,16,150,34,09,28,098,37,11,16,069,40,7*73
$GAGSV,2,2,07,25,11,176,42,30,39,292,13,36,58,034,46,7*4A
$GAGSV,2,1,05,04,12,046,,15,04,266,,18,39,305,,27,01,330,,0*74
$GAGSV,2,2,05,27,01,330,,0*45
$GBGSV,3,1,09,01,43,152,39,03,44,206,39,04,35,132,30,07,70,221,43,1*7D
$GBGSV,3,2,09,11,45,078,40,14,51,136,45,21,18,042,46,34,26,094,31,1*72
$GBGSV,3,3,09,37,19,282,27,1*4E
$GBGSV,3,1,10,01,43,152,31,03,44,206,42,04,35,132,35,07,70,221,37,3*75
$GBGSV,3,2,10,08,52,249,24,10,68,260,11,11,45,078,36,14,51,136,44,3*77
$GBGSV,3,3,10,21,18,042,11,34,26,094,09,3*7E
$GBGSV,2,1,05,05,08,256,,12,00,100,,13,42,245,,23,18,230,,0*71
$GBGSV,2,2,05,23,18,230,,0*4B
$GNRMC,041110.00,A,3727.0262237,N,12639.2516385,E,0.016,,220622,,,F,V*17
$GNVTG,,T,,M,0.016,N,0.030,K,D*3C
$GNGNS,041110.00,3727.0262237,N,12639.2516385,E,FFFF,27,0.69,25.288,17.837,10.0,4095,V*35
$GNGGA,041110.00,3727.0262237,N,12639.2516385,E,5,12,0.69,25.288,M,17.837,M,10.0,4095*67
$GNGSA,A,3,04,17,03,14,01,06,09,,,,,,1.31,0.69,1.12,1*05
$GNGSA,A,3,71,78,65,72,,,,,,,,,1.31,0.69,1.12,2*03
$GNGSA,A,3,09,11,02,25,36,05,,,,,,,1.31,0.69,1.12,3*01
$GNGSA,A,3,37,14,01,34,03,10,11,07,04,21,,,1.31,0.69,1.12,4*0F
$GPGSV,3,1,10,01,15,064,45,03,42,050,46,04,19,103,38,06,46,280,20,1*6A
$GPGSV,3,2,10,09,15,136,31,14,37,190,44,17,77,034,45,28,,,46,1*5E
$GPGSV,3,3,10,41,27,238,33,50,47,179,42,1*63
$GPGSV,2,1,07,01,15,064,37,03,42,050,37,04,19,103,32,06,46,280,17,6*67
$GPGSV,2,2,07,09,15,136,22,14,37,190,41,17,77,034,40,6*54
$GPGSV,2,1,05,02,07,265,,11,11,259,,12,05,326,,19,61,328,,0*6E
$GPGSV,2,2,05,19,61,328,,0*56
$GLGSV,2,2,07,78,26,307,15,87,52,350,20,88,24,299,08,1*44
$GLGSV,2,1,06,65,18,168,31,71,35,051,38,72,46,118,32,77,29,243,13,3*75
$GLGSV,2,2,06,78,26,307,10,88,24,299,11,3*76
$GLGSV,1,1,01,86,27,070,,0*44
$GAGSV,2,1,05,02,44,218,43,05,16,150,23,09,28,098,31,11,16,069,35,2*77
$GAGSV,2,2,05,36,58,034,46,2*4E
$GAGSV,2,1,07,02,44,218,42,05,16,150,34,09,28,098,35,11,16,069,40,7*71
