$GNRMC,041751.00,A,3727.0699239,N,12639.2831100,E,0.044,,220622,,,F,V*1A
$GNVTG,,T,,M,0.044,N,0.081,K,D*31
$GNGNS,041751.00,3727.0699239,N,12639.2831100,E,FFFF,28,0.64,25.655,17.838,,4095,V*29
$GNGGA,041751.00,3727.0699239,N,12639.2831100,E,5,12,0.64,25.655,M,17.838,M,,4095*74
$GNGSA,A,3,17,03,14,01,06,19,04,,,,,,1.47,0.64,1.33,1*0B
$GNGSA,A,3,71,72,65,87,,,,,,,,,1.47,0.64,1.33,2*0C
$GNGSA,A,3,30,09,11,05,02,34,36,,,,,,1.47,0.64,1.33,3*0D
$GNGSA,A,3,03,14,07,08,28,11,10,21,34,04,,,1.47,0.64,1.33,4*07
$GPGSV,3,1,10,01,13,066,23,03,39,048,40,04,21,100,33,06,48,285,30,1*64
$GPGSV,3,2,10,09,18,134,20,14,34,189,37,17,77,051,46,19,64,332,33,1*6E
$GPGSV,3,3,10,28,,,41,50,47,179,42,1*55
$GPGSV,2,1,07,01,13,066,27,03,39,048,37,04,21,100,28,06,48,285,30,6*6A
$GPGSV,2,2,07,09,18,134,27,14,34,189,33,17,77,051,38,6*5C
$GPGSV,2,1,06,02,10,267,,11,14,262,,12,07,324,,20,01,220,,0*61
$GPGSV,2,2,06,20,01,220,,40,06,259,,0*6C
$GLGSV,2,1,06,65,21,167,32,71,33,046,45,72,49,113,23,78,26,303,24,1*7E
$GLGSV,2,2,06,87,53,357,30,88,26,303,23,1*70
$GLGSV,2,1,06,65,21,167,29,71,33,046,32,72,49,113,27,77,26,240,10,3*7C
$GLGSV,2,2,06,78,26,303,17,88,26,303,21,3*76
$GLGSV,1,1,03,76,02,198,,79,00,345,,86,24,074,,0*4E
$GAGSV,2,1,07,02,42,216,26,05,18,149,27,09,29,096,29,11,14,071,21,2*74
$GAGSV,2,2,07,30,40,289,30,34,50,295,37,36,57,037,44,2*4D
$GAGSV,2,1,07,02,42,216,31,05,18,149,29,09,29,096,33,11,14,071,28,7*7B
$GAGSV,2,2,07,30,40,289,29,34,50,295,31,36,57,037,46,7*44
$GAGSV,2,1,05,04,12,044,,15,05,268,,18,43,306,,25,09,176,,0*7D
$GAGSV,2,2,05,25,09,176,,0*4F
$GBGSV,3,1,10,03,44,206,40,04,35,132,33,07,69,220,41,10,68,257,27,1*73
$GBGSV,3,2,10,11,43,081,32,13,43,247,25,14,53,133,34,21,16,041,30,1*7D
$GBGSV,3,3,10,28,40,306,27,34,25,096,39,1*7C
$GBGSV,2,1,08,01,43,152,30,03,44,206,41,04,35,132,31,07,69,220,44,3*76
$GBGSV,2,2,08,08,52,252,31,10,68,257,27,11,43,081,16,14,53,133,20,3*77
$GBGSV,1,1,04,02,27,236,,05,08,256,,23,16,229,,37,18,280,,0*77
$GNRMC,041752.00,A,3727.0696632,N,12639.2836082,E,0.084,,220622,,,F,V*19
$GNVTG,,T,,M,0.084,N,0.156,K,D*36
$GNGNS,041752.00,3727.0696632,N,12639.2836082,E,FFFF,28,0.65,26.320,17.838,,4095,V*23
$GNGGA,041752.00,3727.0696632,N,12639.2836082,E,5,12,0.65,26.320,M,17.838,M,,4095*7E
$GNGSA,A,3,17,03,14,01,06,19,04,09,,,,,1.43,0.65,1.28,1*0D
$GNGSA,A,3,71,72,65,87,,,,,,,,,1.43,0.65,1.28,2*03
$GPGSV,2,1,06,02,10,267,,11,14,262,,12,07,324,,20,01,220,,0*61
$GPGSV,2,2,06,20,01,220,,40,06,259,,0*6C
$GLGSV,2,1,06,65,21,167,32,71,33,046,45,72,49,113,24,78,26,303,23,1*7E
$GLGSV,2,2,06,87,53,357,30,88,26,303,25,1*76
$GLGSV,2,1,06,65,21,167,28,71,33,046,33,72,49,113,27,77,26,240,11,3*7D
$GLGSV,2,2,06,78,26,303,16,88,26,303,21,3*77
$GLGSV,1,1,03,76,02,198,,79,00,345,,86,24,074,,0*4E
$GAGSV,2,1,07,02,42,216,26,05,18,149,31,09,29,096,28,11,14,071,21,2*72
$GAGSV,2,2,07,30,40,289,31,34,50,295,37,36,57,037,44,2*4C
$GAGSV,2,1,07,02,42,216,31,05,18,149,29,09,29,096,33,11,14,071,27,7*74
$GAGSV,2,2,07,30,40,289,28,34,50,295,31,36,57,037,46,7*45
$GAGSV,2,1,05,04,12,044,,15,05,268,,18,43,306,,25,09,176,,0*7D
$GAGSV,2,2,05,25,09,176,,0*4F
$GBGSV,3,1,10,03,44,206,41,04,35,132,34,07,69,220,41,10,68,257,27,1*75
$GBGSV,3,2,10,11,43,081,32,13,43,247,25,14,53,133,34,21,16,041,23,1*7F
$GBGSV,3,3,10,28,40,306,27,34,25,096,39,1*7C
$GBGSV,2,1,08,01,43,152,30,03,44,206,41,04,35,132,31,07,69,220,44,3*76
$GBGSV,2,2,08,08,52,252,31,10,68,257,27,11,43,081,15,14,53,133,21,3*75
$GNRMC,041753.00,A,3727.0694684,N,12639.2840116,E,0.076,,220622,,,F,V*17
$GNVTG,,T,,M,0.076,N,0.141,K,D*3D
$GNGNS,041753.00,3727.0694684,N,12639.2840116,E,FFFF,28,0.65,26.772,17.838,,4095,V*23
$GNGSA,A,3,17,03,14,01,06,19,04,09,,,,,1.43,0.65,1.28,1*0D
$GNGSA,A,3,71,72,65,87,,,,,,,,,1.43,0.65,1.28,2*03
$GNGSA,A,3,30,09,11,05,02,34,36,,,,,,1.43,0.65,1.28,3*02
$GNGSA,A,3,03,14,07,08,28,11,10,21,34,,,,1.43,0.65,1.28,4*0C
$GPGSV,3,1,10,01,13,066,26,03,39,048,40,04,21,100,33,06,48,285,30,1*61
$GPGSV,3,2,10,09,18,134,19,14,34,189,36,17,77,051,46,19,64,332,33,1*65
$GPGSV,3,3,10,28,,,41,50,47,179,42,1*55
$GPGSV,2,1,07,01,13,066,26,03,39,048,38,04,21,100,27,06,48,285,30,6*6B
$GPGSV,2,2,07,09,18,134,27,14,34,189,33,17,77,051,38,6*5C
$GPGSV,2,1,06,02,10,267,,11,14,262,,12,07,324,,20,01,220,,0*61
$GPGSV,2,2,06,20,01,220,,40,06,259,,0*6C
$GLGSV,2,1,06,65,21,167,32,71,33,046,45,72,49,113,24,78,26,303,23,1*7E
$GLGSV,2,2,06,87,53,357,29,88,26,303,26,1*7D
$GLGSV,2,1,06,65,21,167,28,71,33,046,32,72,49,113,27,77,26,240,08,3*74
$GLGSV,2,2,06,78,26,303,14,88,26,303,22,3*76
$GLGSV,1,1,03,76,02,198,,79,00,345,,86,24,074,,0$GAGSV,2,1,07,02,42,216,27,05,18,149,32,09,29,096,29,11,14,071,22,2*72
$GAGSV,2,2,07,30,40,289,31,34,50,295,37,36,57,037,45,2*4D
$GAGSV,2,1,07,02,42,216,31,05,18,149,29,09,29,096,33,11,14,071,27,7*74
$GAGSV,2,2,07,30,40,289,29,34,50,295,30,36,57,037,46,7*45
$GAGSV,2,1,05,04,12,044,,15,05,268,,18,43,306,,25,09,176,,0*7D
$GAGSV,2,2,05,25,09,176,,0*4F
$GBGSV,3,1,10,03,44,206,40,04,35,132,34,07,69,220,41,10,68,257,27,1*74
$GBGSV,3,2,10,11,43,081,31,13,43,247,26,14,53,133,34,21,16,041,29,1*75
$GBGSV,3,3,10,28,40,306,25,34,25,096,38,1*7F
$GBGSV,2,1,08,01,43,152,29,03,44,206,41,04,35,132,31,07,69,220,44,3*7E
$GBGSV,2,2,08,08,52,252,32,10,68,257,28,11,43,081,14,14,53,133,20,3*79
$GBGSV,1,1,04,02,27,236,,05,08,256,,23,16,229,,37,18,280,,0*77
$GNRMC,041754.00,A,3727.0693302,N,12639.2843652,E,0.068,,220622,,,F,V*17
$GNVTG,,T,,M,0.068,N,0.125,K,D*30
$GNGNS,041754.00,3727.0693302,N,12639.2843652,E,FFFF,28,0.65,27.201,17.838,,4095,V*2C
$GNGGA,041754.00,3727.0693302,N,12639.2843652,E,5,12,0.65,27.201,M,17.838,M,,4095*71
$GNGSA,A,3,17,03,14,01,06,19,04,09,,,,,1.43,0.65,1.28,1*0D
$GNGSA,A,3,71,72,65,87,,,,,,,,,1.43,0.65,1.28,2*03
$GNGSA,A,3,30,09,11,05,02,34,36,,,,,,1.43,0.65,1.28,3*02
$GNGSA,A,3,03,14,07,08,28,11,10,21,34,,,,1.43,0.65,1.28,4*0C
$GPGSV,3,1,10,01,13,066,26,03,39,048,41,04,21,100,33,06,48,285,30,1*60
$GPGSV,3,2,10,09,18,134,20,14,34,189,36,17,77,051,46,19,64,332,33,1*6F
$GPGSV,2,1,07,01,13,066,25,03,39,048,37,04,21,100,28,06,48,285,30,6*68
$GPGSV,2,2,07,09,18,134,27,14,34,189,33,17,77,051,38,6*5C
$GPGSV,2,1,06,02,10,267,,11,14,262,,12,07,324,,20,01,220,,0*61
$GPGSV,2,2,06,20,01,220,,40,06,259,,0*6C
$GLGSV,2,1,06,65,21,167,33,71,33,046,45,72,49,113,23,78,26,303,23,1*78
$GLGSV,2,2,06,87,53,357,28,88,26,303,26,1*7C
$GLGSV,2,1,06,65,21,167,28,71,33,046,30,72,49,113,26,77,26,240,12,3*7C
$GLGSV,2,2,06,78,26,303,13,88,26,303,23,3*70
$GLGSV,1,1,03,76,02,198,,79,00,345,,86,24,074,,0*4E
$GAGSV,2,1,07,02,42,216,27,05,18,149,33,09,29,096,31,11,14,071,23,2*7B
$GAGSV,2,2,07,30,40,289,32,34,50,295,37,36,57,037,44,2*4F
$GAGSV,2,1,07,02,42,216,31,05,18,149,29,09,29,096,33,11,14,071,27,7*74
$GAGSV,2,2,07,30,40,289,29,34,50,295,30,36,57,037,46,7*45
$GAGSV,2,1,05,04,12,044,,15,05,268,,18,43,306,,25,09,176,,0*7D
$GAGSV,2,2,05,25,09,176,,0*4F
$GBGSV,3,1,10,03,44,206,40,04,35,132,34,07,69,220,41,10,68,257,26,1*75
$GBGSV,3,2,10,11,43,081,31,13,43,247,26,14,53,133,34,21,16,041,30,1*7D
$GBGSV,3,3,10,28,40,306,25,34,25,096,38,1*7F
$GBGSV,2,1,08,01,43,152,29,03,44,206,41,04,35,132,32,07,69,220,44,3*7D
$GBGSV,2,2,08,08,52,252,32,10,68,257,28,11,43,081,15,14,53,133,21,3*79
$GBGSV,1,1,04,02,27,236,,05,08,256,,23,16,229,,37,18,280,,0*77
$GNRMC,041755.00,A,3727.0692643,N,12639.2846271,E,0.070,,220622,,,F,V*1E
$GNVTG,,T,,M,0.070,N,0.129,K,D*35
$GNGNS,041755.00,3727.0692643,N,12639.2846271,E,FFFF,28,0.65,27.579,17.838,,4095,V*24
$GNGGA,041755.00,3727.0692643,N,12639.2846271,E,5,12,0.65,27.579,M,17.838,M,,4095*79
$GNGSA,A,3,17,03,14,01,06,19,04,09,,,,,1.43,0.65,1.28,1*0D
$GNGSA,A,3,71,72,65,87,,,,,,,,,1.43,0.65,1.28,2*03
$GNGSA,A,3,30,09,11,05,02,34,36,,,,,,1.43,0.65,1.28,3*02
$GNGSA,A,3,03,14,07,08,28,11,10,21,34,,,,1.43,0.65,1.28,4*0C
$GPGSV,3,1,10,01,13,066,26,03,39,048,42,04,21,100,34,06,48,285,30,1*64
$GPGSV,3,2,10,09,18,134,22,14,34,189,35,17,77,051,46,19,64,332,33,1*6E
$GPGSV,3,3,10,28,,,41,50,47,179,42,1*55
$GPGSV,2,1,07,01,13,066,25,03,39,048,37,04,21,100,28,06,48,285,29,6*60
$GPGSV,2,2,07,09,18,134,27,14,34,189,32,17,77,051,38,6*5D
$GPGSV,2,1,06,02,10,267,,11,14,262,,12,07,324,,20,01,220,,0*61
$GPGSV,2,2,06,20,01,220,,40,06,259,,0*6C
$GLGSV,2,1,06,65,21,167,33,71,33,046,45,72,49,113,23,78,26,303,23,1*78
$GLGSV,2,2,06,87,53,357,28,88,26,303,26,1*7C
$GLGSV,2,1,06,65,21,167,28,71,33,046,32,72,49,113,26,77,26,240,08,3*75
$GLGSV,2,2,06,78,26,303,10,88,26,303,24,3*74
$GLGSV,1,1,03,76,02,198,,79,00,345,,86,24,074,,0*4E
$GAGSV,2,1,07,02,42,216,26,05,18,149,32,09,29,096,30,11,14,071,23,2*7A
$GAGSV,2,2,07,30,40,289,31,34,50,295,37,36,57,037,44,2*4C
$GAGSV,2,1,07,02,42,216,31,05,18,149,29,09,29,096,33,11,14,071,27,7*74
$GAGSV,2,2,07,30,40,289,29,34,50,295,30,36,57,037,46,7*45
$GAGSV,2,1,05,04,12,044,,15,05,268,,18,43,306,,25,09,176,,0*7D
$GAGSV,2,2,05,25,09,176,,0*4F
$GBGSV,3,1,10,03,44,206,40,04,35,132,33,07,69,220,41,10,68,257,26,1*72
$GBGSV,3,2,10,11,43,081,31,13,43,247,25,14,53,133,34,21,16,041,29,1*76
$GBGSV,3,3,10,28,40,306,24,34,25,096,38,1*7E
$GBGSV,2,1,08,01,43,152,29,03,44,206,41,04,35,132,32,07,69,220,44,3*7D
$GBGSV,2,2,08,08,52,252,31,10,68,257,28,11,43,081,15,14,53,133,21,3*7A
$GBGSV,1,1,04,02,27,236,,05,08,256,,23,16,229,,37,18,280,,0*77
$GNRMC,041756.00,A,3727.0692064,N,12639.2848672,E,0.052,,220622,,,F,V*17
$GNVTG,,T,,M,0.052,N,0.097,K,D*31
$GNGNS,041756.00,3727.0692064,N,12639.2848672,E,FFFF,28,0.65,28.023,17.838,,4095,V*28
$GNGGA,041756.00,3727.0692064,N,12639.2848672,E,5,12,0.65,28.023,M,17.838,M,,4095*75
$GNGSA,A,3,17,03,14,01,06,19,04,09,,,,,1.43,0.65,1.28,1*0D
$GNGSA,A,3,71,72,65,87,,,,,,,,,1.43,0.65,1.28,2*03
$GNGSA,A,3,30,09,11,05,02,34,36,,,,,,1.43,0.65,1.28,3*02
$GNGSA,A,3,03,14,07,08,28,11,10,21,34,,,,1.43,0.65,1.28,4*0C
$GPGSV,3,1,10,01,13,066,26,03,39,048,41,04,21,100,34,06,48,285,31,1*66
$GPGSV,3,2,10,09,18,134,21,14,34,189,34,17,77,051,46,19,64,332,33,1*6C
$GPGSV,3,3,10,28,,,40,50,47,179,42,1*54
$GPGSV,2,1,07,01,13,066,25,03,39,048,38,04,21,100,28,06,48,285,30,6*67
$GPGSV,2,2,07,09,18,134,27,14,34,189,33,17,77,051,39,6*5D
$GPGSV,2,1,06,02,10,267,,11,14,262,,12,07,324,,20,01,220,,0*61
$GPGSV,2,2,06,20,01,220,,40,06,259,,0*6C
$GLGSV,2,1,06,65,21,167,32,71,33,046,45,72,49,113,23,78,26,303,23,1*79
$GLGSV,2,2,06,87,53,357,27,88,26,303,25,1*70
$GLGSV,2,1,06,65,21,167,29,71,33,046,31,72,49,113,26,77,26,240,08,3*77
$GLGSV,2,2,06,78,26,303,10,88,26,303,25,3*75
$GLGSV,1,1,03,76,02,198,,79,00,345,,86,24,074,,0*4E
$GAGSV,2,1,07,02,42,216,27,05,18,149,33,09,29,096,29,11,14,071,23,2*72
$GAGSV,2,2,07,30,40,289,31,34,50,295,36,36,57,037,44,2*4D
$GAGSV,2,1,07,02,42,216,30,05,18,149,30,09,29,096,33,11,14,071,27,7*7D
$GAGSV,2,2,07,30,40,289,29,34,50,295,29,36,57,037,46,7*4D
$GAGSV,2,1,05,04,12,044,,15,05,268,,18,43,306,,25,09,176,,0*7D
$GAGSV,2,2,05,25,09,176,,0*4F
$GBGSV,3,1,10,03,44,206,40,04,35,132,33,07,69,220,41,10,68,257,26,1*72
$GBGSV,3,2,10,11,43,081,32,13,43,247,25,14,53,133,33,21,16,041,29,1*72
$GBGSV,3,3,10,28,40,306,26,34,25,096,38,1*7C
$GBGSV,2,1,08,01,43,152,28,03,44,206,41,04,35,132,32,07,69,220,44,3*7C
$GNRMC,041757.00,A,3727.0692126,N,12639.2850052,E,0.031,,220622,,,F,V*19
$GNVTG,,T,,M,0.031,N,0.057,K,D*38
$GNGNS,041757.00,3727.0692126,N,12639.2850052,E,FFFF,28,0.67,28.356,17.838,,4095,V*20
$GNGGA,041757.00,3727.0692126,N,12639.2850052,E,5,12,0.67,28.356,M,17.838,M,,4095*7D
$GNGSA,A,3,17,03,14,01,06,19,04,09,,,,,1.47,0.67,1.30,1*02
$GNGSA,A,3,71,72,65,87,,,,,,,,,1.47,0.67,1.30,2*0C
$GNGSA,A,3,30,09,11,05,02,34,36,,,,,,1.47,0.67,1.30,3*0D
$GNGSA,A,3,03,14,07,08,04,11,10,21,34,,,,1.47,0.67,1.30,4*0D
$GPGSV,3,1,10,01,13,066,25,03,39,048,41,04,21,100,34,06,48,285,31,1*65
$GPGSV,3,2,10,09,18,134,20,14,34,189,32,17,77,051,46,19,64,332,33,1*6B
$GPGSV,3,3,10,28,,,40,50,47,179,42,1*54
$GPGSV,2,1,07,01,13,066,25,03,39,048,38,04,21,100,28,06,48,285,30,6*67
$GPGSV,2,2,07,09,18,134,27,14,34,189,33,17,77,051,39,6*5D
$GPGSV,2,1,06,02,10,267,,11,14,262,,12,07,324,,20,01,220,,0*61
$GPGSV,2,2,06,20,01,220,,40,06,259,,0*6C
$GLGSV,2,1,06,65,21,167,32,71,33,046,46,72,49,113,22,78,26,303,22,1*7A
$GLGSV,2,2,06,87,53,357,26,88,26,303,25,1*71
$GLGSV,2,1,06,65,21,167,28,71,33,046,32,72,49,113,26,77,26,240,11,3*7D
$GLGSV,2,2,06,78,26,303,15,88,26,303,25,3*70
$GLGSV,1,1,03,76,02,198,,79,00,345,,86,24,074,,0*4E
$GAGSV,2,1,07,02,42,216,27,05,18,149,33,09,29,096,30,11,14,071,23,2*7A
$GAGSV,2,2,07,30,40,289,31,34,50,295,37,36,57,037,44,2*4C
$GAGSV,2,1,07,02,42,216,29,05,18,149,30,09,29,096,33,11,14,071,27,7*75
$GAGSV,2,2,07,30,40,289,28,34,50,295,29,36,57,037,45,7*4F
$GAGSV,2,1,05,04,12,044,,15,05,268,,18,43,306,,25,09,176,,0*7D
$GAGSV,2,2,05,25,09,176,,0*4F
$GBGSV,3,1,10,03,44,206,39,04,35,132,32,07,69,220,40,10,68,257,25,1*7F
$GBGSV,3,2,10,11,43,081,32,13,43,247,25,14,53,133,32,21,16,041,29,1*73
$GBGSV,3,3,10,28,40,306,25,34,25,096,38,1*7F
$GBGSV,2,1,07,01,43,152,29,03,44,206,41,04,35,132,32,07,69,220,44,3*72
$GBGSV,2,2,07,08,52,252,31,10,68,257,28,14,53,133,21,3*4F
$GBGSV,1,1,04,02,27,236,,05,08,256,,23,16,229,,37,18,280,,0*77
$GNRMC,041758.00,A,3727.0692616,N,12639.2850631,E,0.056,,220622,,,F,V*10
$GNVTG,,T,,M,0.056,N,0.104,K,D*3E
$GNGNS,041758.00,3727.0692616,N,12639.2850631,E,FFFF,28,0.67,28.674,17.838,,4095,V*2D
$GNGGA,041758.00,3727.0692616,N,12639.2850631,E,5,12,0.67,28.674,M,17.838,M,,4095*70
$GNGSA,A,3,17,03,14,01,06,19,04,09,,,,,1.47,0.67,1.30,1*02
$GNGSA,A,3,71,72,65,87,,,,,,,,,1.47,0.67,1.30,2*0C
$GNGSA,A,3,30,09,11,05,02,34,36,,,,,,1.47,0.67,1.30,3*0D
$GNGSA,A,3,03,14,07,08,04,11,10,21,34,,,,1.47,0.67,1.30,4*0D
$GPGSV,3,1,10,01,13,066,24,03,39,048,38,04,21,100,33,06,48,285,30,1*6C
$GPGSV,3,2,10,09,18,134,21,14,34,189,31,17,77,051,43,19,64,332,32,1*6D
$GPGSV,3,3,10,28,,,38,50,47,179,39,1*57
$GPGSV,2,1,07,01,13,066,25,03,39,048,39,04,21,100,28,06,48,285,30,6*66
$GPGSV,2,2,07,09,18,134,28,14,34,189,33,17,77,051,39,6*52
$GPGSV,2,1,06,02,10,267,,11,14,262,,12,07,324,,20,01,220,,0*61
$GPGSV,2,2,06,20,01,220,,40,06,259,,0*6C
$GLGSV,2,1,06,65,21,167,31,71,33,046,44,72,49,113,22,78,26,303,23,1*7A
$GLGSV,2,2,06,87,53,357,24,88,26,303,24,1*72
$GLGSV,2,1,06,65,21,167,29,71,33,046,33,72,49,113,26,77,26,240,09,3*74
$GLGSV,2,2,06,78,26,303,13,88,26,303,26,3*75
$GLGSV,1,1,03,76,02,198,,79,00,345,,86,24,074,,0*4E
$GAGSV,2,1,07,02,42,216,27,05,18,149,32,09,29,096,29,11,14,071,23,2*73
$GAGSV,2,2,07,30,40,289,31,34,50,295,37,36,57,037,45,2*4D
$GAGSV,2,1,07,02,42,216,29,05,18,149,29,09,29,096,33,11,14,071,27,7*7D
$GAGSV,2,2,07,30,40,289,28,34,50,295,29,36,57,037,43,7*49
$GAGSV,2,1,05,04,12,044,,15,05,268,,18,43,306,,25,09,176,,0*7D
$GAGSV,2,2,05,25,09,176,,0*4F
$GBGSV,3,1,10,03,44,206,38,04,35,132,32,07,69,220,39,10,68,257,24,1*71
$GBGSV,3,2,10,11,43,081,32,13,43,247,25,14,53,133,32,21,16,041,29,1*73
$GBGSV,3,3,10,28,40,306,23,34,25,096,36,1*77
$GBGSV,2,1,07,01,43,152,29,03,44,206,41,04,35,132,32,07,69,220,44,3*72
$GBGSV,2,2,07,08,52,252,32,10,68,257,29,14,53,133,21,3*4D
$GNRMC,041759.00,A,3727.0693409,N,12639.2850262,E,0.023,,220622,,,F,V*1C
$GNVTG,,T,,M,0.023,N,0.043,K,D*3E
$GNGNS,041759.00,3727.0693409,N,12639.2850262,E,FFFF,28,0.65,28.961,17.838,,4095,V*2A
$GNGGA,041759.00,3727.0693409,N,12639.2850262,E,5,12,0.65,28.961,M,17.838,M,,4095*77
$GNGSA,A,3,17,03,14,01,06,19,04,09,,,,,1.45,0.65,1.29,1*0A
$GNGSA,A,3,71,72,65,,,,,,,,,,1.45,0.65,1.29,2*0B
$GNGSA,A,3,30,09,11,05,02,34,36,,,,,,1.45,0.65,1.29,3*05
$GNGSA,A,3,03,14,07,08,04,11,10,21,01,34,,,1.45,0.65,1.29,4*04
$GPGSV,3,1,10,01,13,066,23,03,39,048,41,04,21,100,33,06,48,285,30,1*65
$GPGSV,3,2,10,09,18,134,22,14,34,189,32,17,77,051,45,19,64,332,32,1*6B
$GPGSV,3,3,10,28,,,40,50,47,179,41,1*57
$GPGSV,2,1,07,01,13,066,24,03,39,048,39,04,21,100,27,06,48,285,29,6*60
$GPGSV,2,2,07,09,18,134,28,14,34,189,34,17,77,051,39,6*55
$GPGSV,2,1,06,02,10,267,,11,14,262,,12,07,324,,20,01,220,,0*61
$GPGSV,2,2,06,20,01,220,,40,06,259,,0*6C
$GLGSV,2,1,06,65,21,167,31,71,33,046,45,72,49,113,21,78,26,303,23,1*78
$GLGSV,2,2,06,87,53,357,21,88,26,303,22,1*71
$GLGSV,2,1,06,65,21,167,29,71,33,046,33,72,49,113,26,77,26,240,09,3*74
$GLGSV,2,2,06,78,26,303,14,88,26,303,26,3*72
$GLGSV,1,1,03,76,02,198,,79,00,345,,86,24,074,,0*4E
$GAGSV,2,1,07,02,42,216,27,05,18,149,32,09,29,096,29,11,14,071,24,2*74
$GAGSV,2,2,07,30,40,289,32,34,50,295,37,36,57,037,45,2*4E
$GAGSV,2,1,07,02,42,216,30,05,18,149,29,09,29,096,33,11,14,071,27,7*75
$GAGSV,2,2,07,30,40,289,28,34,50,295,30,36,57,037,45,7*47
$GAGSV,2,1,05,04,12,044,,15,05,268,,18,43,306,,25,09,176,,0*7D
$GAGSV,2,2,05,25,09,176,,0*4F
$GBGSV,3,1,10,03,44,206,39,04,35,132,33,07,69,220,40,10,68,257,25,1*7E
$GBGSV,3,2,10,11,43,081,32,13,43,247,25,14,53,133,32,21,16,041,29,1*73
$GBGSV,3,3,10,28,40,306,21,34,25,096,37,1*74
$GNRMC,041800.00,A,3727.0694299,N,12639.2849688,E,0.024,,220622,,,F,V*18
$GNVTG,,T,,M,0.024,N,0.044,K,D*3E
$GNGNS,041800.00,3727.0694299,N,12639.2849688,E,FFFF,28,0.65,29.194,17.838,,4095,V*2A
$GNGGA,041800.00,3727.0694299,N,12639.2849688,E,5,12,0.65,29.194,M,17.838,M,,4095*77
$GNGSA,A,3,17,03,14,01,06,19,04,09,,,,,1.45,0.65,1.29,1*0A
$GNGSA,A,3,71,72,65,,,,,,,,,,1.45,0.65,1.29,2*0B
$GNGSA,A,3,30,09,11,05,02,34,36,,,,,,1.45,0.65,1.29,3*05
$GNGSA,A,3,03,14,07,08,04,11,10,21,01,34,,,1.45,0.65,1.29,4*04
$GPGSV,3,1,10,01,13,066,23,03,39,048,40,04,21,100,33,06,48,285,31,1*65
$GPGSV,3,2,10,09,18,134,23,14,34,189,33,17,77,051,45,19,64,332,32,1*6B
$GPGSV,3,3,10,28,,,40,50,47,179,42,1*54
$GPGSV,2,1,07,01,13,066,25,03,39,048,41,04,21,100,28,06,48,285,29,6*61
$GPGSV,2,2,07,09,18,134,30,14,34,189,34,17,77,051,40,6*52
$GPGSV,2,1,06,02,10,267,,11,14,262,,12,07,324,,20,01,220,,0*61
$GPGSV,2,2,06,20,01,220,,40,06,259,,0*6C
$GLGSV,2,1,06,65,21,167,31,71,33,046,46,72,49,113,22,78,26,303,23,1*78
$GLGSV,2,2,06,87,53,357,19,88,26,303,22,1*7A
$GLGSV,2,1,06,65,21,167,29,71,33,046,33,72,49,113,26,77,26,240,08,3*75
$GLGSV,2,2,06,78,26,303,16,88,26,303,25,3*73
$GLGSV,1,1,03,76,02,198,,79,00,345,,86,24,074,,0*4E
$GAGSV,2,1,07,02,42,216,27,05,18,149,32,09,29,096,29,11,14,071,24,2*74
$GAGSV,2,2,07,30,40,289,32,34,50,295,37,36,57,037,45,2*4E
$GAGSV,2,1,07,02,42,216,30,05,18,149,28,09,29,096,33,11,14,071,27,7*74
$GAGSV,2,2,07,30,40,289,27,34,50,295,29,36,57,037,45,7*40
$GAGSV,2,1,05,04,12,044,,15,05,268,,18,43,306,,25,09,176,,0*7D
$GAGSV,2,2,05,25,09,176,,0*4F
$GBGSV,3,1,10,03,44,206,40,04,35,132,33,07,69,220,40,10,68,257,25,1*70
$GBGSV,3,2,10,11,43,081,32,13,43,247,25,14,53,133,33,21,16,041,29,1*72
$GBGSV,3,3,10,28,40,306,21,34,25,096,38,1*7B
$GBGSV,2,1,07,01,43,152,29,03,44,206,41,04,35,132,31,07,69,220,44,3*71
$GBGSV,2,2,07,08,52,252,32,10,68,257,29,14,53,133,23,3*4F
$GNRMC,041801.00,A,3727.0695587,N,12639.2848394,E,0.013,,220622,,,F,V*1D
$GNVTG,,T,,M,0.013,N,0.024,K,D*3C
$GNGNS,041801.00,3727.0695587,N,12639.2848394,E,FFFF,28,0.65,29.353,17.838,,4095,V*22
$GNGGA,041801.00,3727.0695587,N,12639.2848394,E,5,12,0.65,29.353,M,17.838,M,,4095*7F
$GNGSA,A,3,17,03,14,01,06,19,04,09,,,,,1.45,0.65,1.29,1*0A
$GNGSA,A,3,71,72,65,,,,,,,,,,1.45,0.65,1.29,2*0B
$GNGSA,A,3,30,09,11,05,02,34,36,,,,,,1.45,0.65,1.29,3*05
$GNGSA,A,3,03,14,07,08,04,11,10,21,01,34,,,1.45,0.65,1.29,4*04
$GPGSV,3,1,09,03,39,048,42,04,21,100,35,06,48,285,35,09,18,134,24,1*6F
$GPGSV,3,2,09,14,34,189,34,17,77,051,48,19,64,332,32,28,,,42,1*52
$GPGSV,3,3,09,50,47,179,43,1*53
$GPGSV,2,1,07,01,13,066,25,03,39,048,40,04,21,100,28,06,48,285,29,6*60
$GPGSV,2,2,07,09,18,134,30,14,34,189,34,17,77,051,40,6*52
$GPGSV,2,1,06,02,10,267,,11,14,262,,12,07,324,,20,01,220,,0*61
$GPGSV,2,2,06,20,01,220,,40,06,259,,0*6C
$GLGSV,2,1,06,65,21,167,32,71,33,046,48,72,49,113,22,78,26,303,24,1*72
$GLGSV,2,2,06,87,53,357,16,88,26,303,22,1*75
$GLGSV,2,1,06,65,21,167,29,71,33,046,32,72,49,113,26,77,26,240,07,3*7B
$GLGSV,2,2,06,78,26,303,16,88,26,303,25,3*73
$GLGSV,1,1,03,76,02,198,,79,00,345,,86,24,074,,0*4E
$GAGSV,2,1,07,02,42,216,27,05,18,149,32,09,29,096,30,11,14,071,24,2*7C
$GAGSV,2,2,07,30,40,289,31,34,50,295,37,36,57,037,44,2*4C
$GAGSV,2,1,07,02,42,216,30,05,18,149,28,09,29,096,33,11,14,071,27,7*74
$GAGSV,2,2,07,30,40,289,27,34,50,295,29,36,57,037,47,7*42
$GAGSV,2,1,05,04,12,044,,15,05,268,,18,43,306,,25,09,176,,0*7D
$GAGSV,2,2,05,25,09,176,,0*4F
$GBGSV,3,1,10,03,44,206,42,04,35,132,35,07,69,220,41,10,68,257,26,1*76
$GBGSV,3,2,10,11,43,081,32,13,43,247,25,14,53,133,33,21,16,041,29,1*72
$GBGSV,3,3,10,28,40,306,21,34,25,096,39,1*7A
$GBGSV,2,1,07,01,43,152,29,03,44,206,41,04,35,132,32,07,69,220,44,3*72
$GBGSV,2,2,07,08,52,252,32,10,68,257,28,14,53,133,22,3*4F
$GBGSV,1,1,04,02,27,236,,05,08,256,,23,16,229,,37,18,280,,0*77
$GNRMC,041802.00,A,3727.0696446,N,12639.2847235,E,0.021,,220622,,,F,V*15
$GNVTG,,T,,M,0.021,N,0.039,K,D*31
$GNGNS,041802.00,3727.0696446,N,12639.2847235,E,FFFF,27,0.65,29.595,17.838,,4095,V*28
$GNGGA,041802.00,3727.0696446,N,12639.2847235,E,5,12,0.65,29.595,M,17.838,M,,4095*7A
$GNGSA,A,3,17,03,14,01,06,19,04,09,,,,,1.45,0.65,1.29,1*0A
$GNGSA,A,3,71,72,65,,,,,,,,,,1.45,0.65,1.29,2*0B
$GNGSA,A,3,30,09,11,05,02,34,36,,,,,,1.45,0.65,1.29,3*05
$GNGSA,A,3,03,14,07,08,04,11,10,21,01,34,,,1.45,0.65,1.29,4*04
$GPGSV,3,1,10,01,13,066,22,03,39,048,41,04,21,100,35,06,48,285,31,1*63
$GPGSV,3,2,10,09,18,134,25,14,34,189,32,17,77,051,47,19,64,332,32,1*6E
$GPGSV,3,3,10,28,,,41,50,47,179,42,1*55
$GPGSV,2,1,07,01,13,066,25,03,39,048,40,04,21,100,28,06,48,285,27,6*6E
$GPGSV,2,2,07,09,18,134,29,14,34,189,34,17,77,051,39,6*54
$GPGSV,2,1,06,02,10,267,,11,14,262,,12,07,324,,20,01,220,,0*61
$GPGSV,2,2,06,20,01,220,,40,06,259,,0*6C
$GLGSV,2,1,06,65,21,167,32,71,33,046,47,72,49,113,22,78,26,303,23,1*7A
$GLGSV,2,2,06,87,53,357,13,88,26,303,22,1*70
$GLGSV,2,1,06,65,21,167,29,71,33,046,33,72,49,113,25,77,26,240,11,3*7E
$GLGSV,2,2,06,78,26,303,17,88,26,303,26,3*71
$GLGSV,1,1,03,76,02,198,,79,00,345,,86,24,074,,0*4E
$GAGSV,2,1,07,02,42,216,27,05,18,149,31,09,29,096,30,11,14,071,23,2*78
$GAGSV,2,2,07,30,40,289,31,34,50,295,37,36,57,037,44,2*4C
$GAGSV,2,1,07,02,42,216,30,05,18,149,28,09,29,096,33,11,14,071,27,7*74
$GAGSV,2,2,07,30,40,289,27,34,50,295,28,36,57,037,45,7*41
$GAGSV,2,1,05,04,12,044,,15,05,268,,18,43,306,,25,09,176,,0*7D
$GAGSV,2,2,05,25,09,176,,0*4F
$GBGSV,3,1,10,03,44,206,41,04,35,132,33,07,69,220,40,10,68,257,26,1*72
$GBGSV,3,2,10,11,43,081,32,13,43,247,25,14,53,133,33,21,16,041,29,1*72
$GBGSV,3,3,10,28,40,306,24,34,25,096,38,1*7E
$GBGSV,2,1,07,01,43,152,30,03,44,206,41,04,35,132,32,07,69,220,44,3*7A
$GBGSV,2,2,07,08,52,252,31,10,68,257,28,14,53,133,21,3*4F
$GBGSV,1,1,04,02,27,236,,05,08,256,,23,16,229,,37,18,280,,0*77
$GNRMC,041803.00,A,3727.0697231,N,12639.2846614,E,0.009,,220622,,,F,V*1F
$GNVTG,,T,,M,0.009,N,0.017,K,D*37
$GNGNS,041803.00,3727.0697231,N,12639.2846614,E,FFFF,27,0.67,29.853,17.838,,4095,V*2D
$GNGGA,041803.00,3727.0697231,N,12639.2846614,E,5,12,0.67,29.853,M,17.838,M,,4095*7F
$GNGSA,A,3,17,03,14,01,06,19,04,09,,,,,1.45,0.67,1.29,1*08
$GNGSA,A,3,71,72,65,,,,,,,,,,1.45,0.67,1.29,2*09
$GNGSA,A,3,30,09,11,05,02,34,36,,,,,,1.45,0.67,1.29,3*07
$GNGSA,A,3,03,14,07,08,04,11,10,21,01,34,,,1.45,0.67,1.29,4*06
$GPGSV,3,1,10,01,13,066,22,03,39,048,41,04,21,100,34,06,48,285,31,1*62
$GPGSV,3,2,10,09,18,134,24,14,34,189,33,17,77,051,46,19,64,332,32,1*6F
$GPGSV,3,3,10,28,,,41,50,47,179,42,1*55
$GPGSV,2,1,07,01,13,066,25,03,39,048,39,04,21,100,28,06,48,285,27,6*60
$GPGSV,2,2,07,09,18,134,29,14,34,189,34,17,77,051,39,6*54
$GPGSV,2,1,06,02,10,267,,11,14,262,,12,07,324,,20,01,220,,0*61
$GPGSV,2,2,06,20,01,220,,40,06,259,,0*6C
$GLGSV,2,1,05,65,21,167,32,71,33,046,47,72,49,113,23,78,26,303,23,1*78
$GLGSV,2,2,05,88,26,303,22,1*49
$GLGSV,2,1,06,65,21,167,29,71,33,046,34,72,49,113,25,77,26,240,13,3*7B
$GLGSV,2,2,06,78,26,303,18,88,26,303,26,3*7E
$GLGSV,1,1,04,76,02,198,,79,00,345,,86,24,074,,87,53,357,,0*71
$GAGSV,2,1,07,02,42,216,26,05,18,149,31,09,29,096,30,11,14,071,23,2*79
$GAGSV,2,2,07,30,40,289,30,34,50,295,37,36,57,037,45,2*4C
$GAGSV,2,1,07,02,42,216,30,05,18,149,28,09,29,096,33,11,14,071,27,7*74
$GAGSV,2,2,07,30,40,289,27,34,50,295,29,36,57,037,45,7*40
$GAGSV,2,1,05,04,12,044,,15,05,268,,18,43,306,,25,09,176,,0*7D
$GAGSV,2,2,05,25,09,176,,0*4F
$GBGSV,3,1,10,03,44,206,41,04,35,132,33,07,69,220,41,10,68,257,26,1*73
$GBGSV,3,2,10,11,43,081,31,13,43,247,25,14,53,133,33,21,16,041,29,1*71
$GBGSV,3,3,10,28,40,306,25,34,25,096,38,1*7F
$GBGSV,2,1,07,01,43,152,31,03,44,206,41,04,35,132,32,07,69,220,44,3*7B
$GBGSV,2,2,07,08,52,252,31,10,68,257,28,14,53,133,19,3*44
$GNRMC,041804.00,A,3727.0698209,N,12639.2845853,E,0.022,,220622,,,F,V*1B
$GNVTG,,T,,M,0.022,N,0.041,K,D*3D
$GNGNS,041804.00,3727.0698209,N,12639.2845853,E,FFFF,28,0.65,30.194,17.838,,4095,V*27
$GNGGA,041804.00,3727.0698209,N,12639.2845853,E,5,12,0.65,30.194,M,17.838,M,,4095*7A
$GNGSA,A,3,17,03,14,01,06,19,04,09,,,,,1.45,0.65,1.29,1*0A
$GNGSA,A,3,71,72,65,,,,,,,,,,1.45,0.65,1.29,2*0B
$GNGSA,A,3,30,09,11,05,02,34,36,,,,,,1.45,0.65,1.29,3*05
$GNGSA,A,3,03,14,07,08,04,11,10,21,01,34,,,1.45,0.65,1.29,4*04
$GPGSV,3,1,10,01,13,066,23,03,39,048,41,04,21,100,35,06,48,285,33,1*60
$GPGSV,3,2,10,09,18,134,24,14,34,189,33,17,77,051,46,19,64,332,33,1*6E
$GPGSV,3,3,10,28,,,41,50,47,179,42,1*55
$GPGSV,2,1,07,01,13,066,25,03,39,048,39,04,21,100,28,06,48,285,26,6*61
$GPGSV,2,2,07,09,18,134,29,14,34,189,33,17,77,051,39,6*53
$GPGSV,2,1,06,02,10,267,,11,14,262,,12,07,324,,20,01,220,,0*61
$GPGSV,2,2,06,20,01,220,,40,06,259,,0*6C
$GLGSV,2,1,05,65,21,167,32,71,33,046,47,72,49,113,24,78,26,303,23,1*7F
$GLGSV,2,2,05,88,26,303,23,1*48
$GLGSV,2,1,06,65,21,167,29,71,33,046,34,72,49,113,25,77,26,240,10,3*78
$GLGSV,2,2,06,78,26,303,19,88,26,303,26,3*7F
$GLGSV,1,1,04,76,02,198,,79,00,345,,86,24,074,,87,53,357,,0*71
$GAGSV,2,1,07,02,42,216,26,05,18,149,32,09,29,096,30,11,14,071,23,2*7A
$GAGSV,2,2,07,30,40,289,31,34,50,295,37,36,57,037,45,2*4D
$GAGSV,2,1,07,02,42,216,30,05,18,149,28,09,29,096,33,11,14,071,27,7*74
$GAGSV,2,2,07,30,40,289,27,34,50,295,28,36,57,037,45,7*41
$GAGSV,2,1,05,04,12,044,,15,05,268,,18,43,306,,25,09,176,,0*7D
$GAGSV,2,2,05,25,09,176,,0*4F
$GBGSV,3,1,10,03,44,206,41,04,35,132,33,07,69,220,40,10,68,257,26,1*72
$GBGSV,3,2,10,11,43,081,32,13,43,247,26,14,53,133,33,21,16,041,29,1*71
$GBGSV,3,3,10,28,40,306,25,34,25,096,38,1*7F
$GBGSV,2,1,07,01,43,152,31,03,44,206,42,04,35,132,32,07,69,220,44,3*78
$GBGSV,2,2,07,08,52,252,31,10,68,257,27,14,53,133,19,3*4B
$GBGSV,1,1,04,02,27,236,,05,08,256,,23,16,229,,37,18,280,,0*77
$GNRMC,041805.00,A,3727.0699292,N,12639.2844750,E,0.003,,220622,,,F,V*17
$GNVTG,,T,,M,0.003,N,0.006,K,D*3D
$GNGNS,041805.00,3727.0699292,N,12639.2844750,E,FFFF,28,0.67,30.364,17.838,,4095,V*27
$GNGGA,041805.00,3727.0699292,N,12639.2844750,E,5,12,0.67,30.364,M,17.838,M,,4095*7A
$GNGSA,A,3,17,03,14,01,06,19,04,09,,,,,1.45,0.67,1.29,1*08
$GNGSA,A,3,71,72,65,,,,,,,,,,1.45,0.67,1.29,2*09
$GNGSA,A,3,30,09,11,05,02,34,36,,,,,,1.45,0.67,1.29,3*07
$GNGSA,A,3,03,14,07,08,04,11,10,21,01,34,,,1.45,0.67,1.29,4*06
$GPGSV,3,1,10,01,13,066,22,03,39,048,40,04,21,100,34,06,48,285,32,1*60
$GPGSV,3,2,10,09,18,134,23,14,34,189,33,17,77,051,46,19,64,332,32,1*68
$GPGSV,3,3,10,28,,,40,50,47,179,42,1*54
$GPGSV,2,1,07,01,13,066,25,03,39,048,40,04,21,100,28,06,48,285,26,6*6F
$GPGSV,2,2,07,09,18,134,29,14,34,189,34,17,77,051,39,6*54
$GPGSV,2,1,06,02,10,267,,11,14,262,,12,07,324,,20,01,220,,0*61
$GPGSV,2,2,06,20,01,220,,40,06,259,,0*6C
$GLGSV,2,1,06,65,21,167,32,71,33,046,47,72,49,113,24,78,26,303,25,1*7A
$GLGSV,2,2,06,87,53,357,21,88,26,303,24,1*77
$GLGSV,2,1,06,65,21,167,30,71,33,046,33,72,49,113,26,77,26,240,10,3*74
$GLGSV,2,2,06,78,26,303,18,88,26,303,25,3*7D
$GLGSV,1,1,03,76,02,198,,79,00,345,,86,24,074,,0*4E
$GAGSV,2,1,07,02,42,216,26,05,18,149,32,09,29,096,29,11,14,071,22,2*73
$GAGSV,2,2,07,30,40,289,31,34,50,295,37,36,57,037,44,2*4C
$GAGSV,2,1,07,02,42,216,31,05,18,149,28,09,29,096,33,11,14,071,27,7*75
$GAGSV,2,2,07,30,40,289,28,34,50,295,28,36,57,037,46,7*4D
$GAGSV,2,1,05,04,12,044,,15,05,268,,18,43,306,,25,09,176,,0*7D
$GAGSV,2,2,05,25,09,176,,0*4F
$GBGSV,3,1,10,03,44,206,41,04,35,132,33,07,69,220,40,10,68,257,26,1*72
$GBGSV,3,2,10,11,43,081,32,13,43,247,26,14,53,133,32,21,16,041,29,1*70
$GBGSV,3,3,10,28,40,306,25,34,25,096,38,1*7F
$GBGSV,2,1,08,01,43,152,31,03,44,206,42,04,35,132,31,07,69,220,44,3*74
$GBGSV,2,2,08,08,52,252,31,10,68,257,27,11,43,081,15,14,53,133,21,3*75
$GBGSV,1,1,04,02,27,236,,05,08,256,,23,16,229,,37,18,280,,0*77
$GNVTG,,T,,M,0.023,N,0.043,K,D*3E
$GNGNS,041806.00,3727.0700433,N,12639.2843202,E,FFFF,28,0.63,30.438,17.838,,4095,V*27
$GNGGA,041806.00,3727.0700433,N,12639.2843202,E,5,12,0.63,30.438,M,17.838,M,,4095*7A
$GNGSA,A,3,17,03,14,06,19,01,04,09,,,,,1.42,0.63,1.27,1*05
$GNGSA,A,3,71,72,65,,,,,,,,,,1.42,0.63,1.27,2*04
$GNGSA,A,3,30,09,11,05,02,34,36,,,,,,1.42,0.63,1.27,3*0A
$GNGSA,A,3,03,14,07,08,04,28,11,10,21,34,,,1.42,0.63,1.27,4*00
$GPGSV,3,1,10,01,13,066,22,03,39,048,41,04,21,100,34,06,48,285,31,1*62
$GPGSV,3,2,10,09,18,134,26,14,34,189,33,17,77,051,46,19,64,332,32,1*6D
$GPGSV,3,3,10,28,,,40,50,47,179,42,1*54
$GPGSV,2,1,07,01,13,066,25,03,39,048,40,04,21,100,28,06,48,285,26,6*6F
$GPGSV,2,2,07,09,18,134,29,14,34,189,34,17,77,051,40,6*5A
$GPGSV,2,1,06,02,10,267,,11,14,262,,12,07,324,,20,01,220,,0*61
$GPGSV,2,2,06,20,01,220,,40,06,259,,0*6C
$GLGSV,2,1,06,65,21,167,30,71,33,046,46,72,49,113,24,78,26,303,24,1*78
$GLGSV,2,2,06,87,53,357,21,88,26,303,23,1*70
$GNRMC,041807.00,A,3727.0701633,N,12639.2841710,E,0.037,,220622,,,F,V*1C
$GNVTG,,T,,M,0.037,N,0.068,K,D*32
$GNGNS,041807.00,3727.0701633,N,12639.2841710,E,FFFF,28,0.62,30.416,17.838,,4095,V*2C
$GNGGA,041807.00,3727.0701633,N,12639.2841710,E,5,12,0.62,30.416,M,17.838,M,,4095*71
$GNGSA,A,3,17,03,14,06,19,04,09,,,,,,1.43,0.62,1.30,1*02
$GNGSA,A,3,71,65,,,,,,,,,,,1.43,0.62,1.30,2*07
$GNGSA,A,3,30,09,11,05,02,34,36,,,,,,1.43,0.62,1.30,3*0C
$GNGSA,A,3,03,14,07,08,04,28,11,01,10,21,13,34,1.43,0.62,1.30,4*05
$GPGSV,3,1,10,01,13,066,22,03,39,048,41,04,21,100,34,06,48,285,31,1*62
$GPGSV,3,2,10,09,18,134,24,14,34,189,32,17,77,051,46,19,64,332,32,1*6E
$GPGSV,3,3,10,28,,,40,50,47,179,42,1*54
$GPGSV,2,1,07,01,13,066,24,03,39,048,39,04,21,100,28,06,48,285,26,6*60
$GPGSV,2,2,07,09,18,134,28,14,34,189,32,17,77,051,39,6*53
$GPGSV,2,1,06,02,10,267,,11,14,262,,12,07,324,,20,01,220,,0*61
$GPGSV,2,2,06,20,01,220,,40,06,259,,0*6C
$GLGSV,2,1,06,65,21,167,30,71,33,046,46,72,49,113,24,78,26,303,24,1*78
$GLGSV,2,2,06,87,53,357,22,88,26,303,23,1*73
$GLGSV,2,1,06,65,21,167,30,71,33,046,30,72,49,113,26,77,26,240,10,3*77
$GLGSV,2,2,06,78,26,303,17,88,26,303,24,3*73
$GLGSV,1,1,03,76,02,198,,79,00,345,,86,24,074,,0*4E
$GAGSV,2,1,07,02,42,216,27,05,18,149,30,09,29,096,28,11,14,071,22,2*71
$GAGSV,2,2,07,30,40,289,31,34,50,295,37,36,57,037,45,2*4D
$GAGSV,2,1,07,02,42,216,32,05,18,149,30,09,29,096,33,11,14,071,27,7*7F
$GAGSV,2,2,07,30,40,289,29,34,50,295,29,36,57,037,45,7*4E
$GAGSV,2,1,05,04,12,044,,15,05,268,,18,43,306,,25,09,176,,0*7D
$GAGSV,2,2,05,25,09,176,,0*4F
$GBGSV,3,1,11,01,43,152,27,03,44,206,40,04,35,132,33,07,69,220,40,1*7C
$GBGSV,3,2,11,10,68,257,25,11,43,081,32,13,43,247,27,14,53,133,31,1*71
$GBGSV,3,3,11,21,16,041,33,28,40,306,26,34,25,096,38,1*4C
$GBGSV,3,1,09,01,43,152,31,03,44,206,41,04,35,132,31,07,69,220,44,3*77
$GBGSV,3,2,09,08,52,252,31,10,68,257,28,11,43,081,19,13,43,247,27,3*76
$GBGSV,3,3,09,14,53,133,23,3*4E
$GBGSV,1,1,04,02,27,236,,05,08,256,,23,16,229,,37,18,280,,0*77
$GNRMC,041808.00,A,3727.0702445,N,12639.2840732,E,0.039,,220622,,,F,V*1C
$GNVTG,,T,,M,0.039,N,0.072,K,D*37
$GNGNS,041808.00,3727.0702445,N,12639.2840732,E,FFFF,28,0.62,30.497,17.838,,4095,V*2B
$GNGGA,041808.00,3727.0702445,N,12639.2840732,E,5,12,0.62,30.497,M,17.838,M,,4095*76
$GNGSA,A,3,17,03,14,06,19,04,09,,,,,,1.43,0.62,1.30,1*02
$GNGSA,A,3,71,65,,,,,,,,,,,1.43,0.62,1.30,2*07
$GNGSA,A,3,30,09,11,05,02,34,36,,,,,,1.43,0.62,1.30,3*0C
$GPGSV,2,1,07,01,13,066,25,03,39,048,39,04,21,100,27,06,48,285,25,6*6D
$GPGSV,2,2,07,09,18,134,27,14,34,189,34,17,77,051,39,6*5A
$GPGSV,2,1,06,02,10,267,,11,14,262,,12,07,324,,20,01,220,,0*61
$GPGSV,2,2,06,20,01,220,,40,06,259,,0*6C
$GLGSV,2,1,06,65,21,167,31,71,33,046,46,72,49,113,24,78,26,303,24,1*79
$GLGSV,2,2,06,87,53,357,23,88,26,303,22,1*73
$GLGSV,2,1,06,65,21,167,29,71,33,046,34,72,49,113,25,77,26,240,06,3*7F
$GLGSV,2,2,06,78,26,303,15,88,26,303,24,3*71
$GLGSV,1,1,03,76,02,198,,79,00,345,,86,24,074,,0*4E
$GAGSV,2,1,07,02,42,216,27,05,18,149,32,09,29,096,29,11,14,071,21,2*71
$GAGSV,2,2,07,30,40,289,30,34,50,295,37,36,57,037,45,2*4C
$GAGSV,2,1,07,02,42,216,33,05,18,149,30,09,29,096,33,11,14,071,27,7*7E
$GAGSV,2,2,07,30,40,289,29,34,50,295,29,36,57,037,46,7*4D
$GAGSV,2,1,05,04,12,044,,15,05,268,,18,43,306,,25,09,176,,0*7D
$GAGSV,2,2,05,25,09,176,,0*4F
$GBGSV,3,1,11,01,43,152,27,03,44,206,41,04,35,132,34,07,69,220,41,1*7B
$GBGSV,3,2,11,10,68,257,26,11,43,081,32,13,43,247,27,14,53,133,32,1*71
$GBGSV,3,3,11,21,16,041,32,28,40,306,26,34,25,096,39,1*4C
$GBGSV,3,1,09,01,43,152,32,03,44,206,41,04,35,132,32,07,69,220,44,3*77
$GBGSV,3,2,09,08,52,252,31,10,68,257,27,11,43,081,17,13,43,247,28,3*78
$GBGSV,3,3,09,14,53,133,22,3*4F
$GBGSV,1,1,04,02,27,236,,05,08,256,,23,16,229,,37,18,280,,0*77
$GNRMC,041809.00,A,3727.0703350,N,12639.2839617,E,0.018,,220622,,,F,V*14
$GNVTG,,T,,M,0.018,N,0.033,K,D*31
$GNGNS,041809.00,3727.0703350,N,12639.2839617,E,FFFF,28,0.66,30.541,17.838,,4095,V*2E
$GNGGA,041809.00,3727.0703350,N,12639.2839617,E,5,12,0.66,30.541,M,17.838,M,,4095*73
$GNGSA,A,3,17,03,14,01,06,19,04,09,,,,,1.63,0.66,1.49,1*0B
$GNGSA,A,3,71,65,,,,,,,,,,,1.63,0.66,1.49,2*0F
$GNGSA,A,3,30,09,11,05,02,34,36,,,,,,1.63,0.66,1.49,3*04
$GNGSA,A,3,03,14,07,08,04,28,11,01,10,13,34,,1.63,0.66,1.49,4*0E
$GPGSV,3,1,10,01,13,066,28,03,39,048,42,04,21,100,35,06,48,285,32,1*69
$GPGSV,3,2,10,09,18,134,22,14,34,189,35,17,77,051,46,19,64,332,32,1*6F
$GPGSV,3,3,10,28,,,40,50,47,179,42,1*54
$GPGSV,2,1,07,01,13,066,25,03,39,048,38,04,21,100,27,06,48,285,23,6*6A
$GPGSV,2,2,07,09,18,134,27,14,34,189,34,17,77,051,38,6*5B
$GPGSV,2,1,06,02,10,267,,11,14,262,,12,07,324,,20,01,220,,0*61
$GPGSV,2,2,06,20,01,220,,40,06,259,,0*6C
$GLGSV,2,1,06,65,21,167,30,71,33,046,46,72,49,113,26,78,26,303,25,1*7B
$GLGSV,2,2,06,87,53,357,25,88,26,303,21,1*76
$GLGSV,2,1,06,65,21,167,29,71,33,046,33,72,49,113,25,77,26,240,10,3*7F
$GLGSV,2,2,06,78,26,303,14,88,26,303,24,3*70
$GLGSV,1,1,03,76,02,198,,79,00,345,,86,24,074,,0*4E
$GAGSV,2,1,07,02,42,216,27,05,18,149,32,09,29,096,28,11,14,071,22,2*73
$GAGSV,2,2,07,30,40,289,30,34,50,295,38,36,57,037,44,2*42
$GAGSV,2,1,07,02,42,216,33,05,18,149,32,09,29,096,34,11,14,071,29,7*75
$GAGSV,2,2,07,30,40,289,29,34,50,295,31,36,57,037,47,7*45
$GAGSV,2,1,05,04,12,044,,15,05,268,,18,43,306,,25,09,176,,0*7D
$GAGSV,2,2,05,25,09,176,,0*4F
$GBGSV,3,1,11,01,43,152,28,03,44,206,41,04,35,132,34,07,69,220,41,1*74
$GBGSV,3,2,11,10,68,257,26,11,43,081,32,13,43,247,28,14,53,133,31,1*7D
$GBGSV,3,3,11,21,16,041,27,28,40,306,27,34,25,096,39,1*49
$GBGSV,3,1,09,01,43,152,31,03,44,206,42,04,35,132,31,07,69,220,44,3*74
$GBGSV,3,2,09,08,52,252,31,10,68,257,28,11,43,081,14,13,43,247,27,3*7B
$GBGSV,3,3,09,14,53,133,23,3*4E
$GBGSV,1,1,04,02,27,236,,05,08,256,,23,16,229,,37,18,280,,0*77
$GNRMC,041810.00,A,3727.0703901,N,12639.2839492,E,0.026,,220622,,,F,V*10
$GNVTG,,T,,M,0.026,N,0.048,K,D*30
$GNGNS,041810.00,3727.0703901,N,12639.2839492,E,FFFF,28,0.67,30.662,17.838,,4095,V*24
$GNGGA,041810.00,3727.0703901,N,12639.2839492,E,5,12,0.67,30.662,M,17.838,M,,4095*79
$GNGSA,A,3,17,03,14,06,19,04,09,,,,,,1.62,0.67,1.47,1*04
$GNGSA,A,3,71,72,87,65,,,,,,,,,1.62,0.67,1.47,2*0B
$GNGSA,A,3,30,09,11,05,02,34,36,,,,,,1.62,0.67,1.47,3*0A
$GNGSA,A,3,03,14,07,08,04,28,11,10,13,34,,,1.62,0.67,1.47,4*01
$GPGSV,3,1,10,01,13,066,27,03,39,048,43,04,21,100,35,06,48,285,32,1*67
$GPGSV,3,2,10,09,18,134,20,14,34,189,36,17,77,051,46,19,64,332,32,1*6E
$GPGSV,3,3,10,28,,,42,50,47,179,42,1*56
$GPGSV,2,1,07,01,13,066,26,03,39,048,38,04,21,100,27,06,48,285,21,6*6B
$GPGSV,2,2,07,09,18,134,27,14,34,189,33,17,77,051,38,6*5C
$GBGSV,3,2,09,08,52,252,31,10,68,257,27,11,43,081,14,13,43,247,28,3*7B
$GBGSV,3,3,09,14,53,133,22,3*4F
$GBGSV,1,1,04,02,27,236,,05,08,256,,23,16,229,,37,18,280,,0*77
$GNRMC,041811.00,A,3727.0704241,N,12639.2839959,E,0.017,,220622,,,F,V*11
$GNVTG,,T,,M,0.017,N,0.032,K,D*3F
$GNGNS,041811.00,3727.0704241,N,12639.2839959,E,FFFF,28,0.67,30.810,17.838,,4095,V*2C
$GNGGA,041811.00,3727.0704241,N,12639.2839959,E,5,12,0.67,30.810,M,17.838,M,,4095*71
$GNGSA,A,3,17,03,14,06,19,04,09,,,,,,1.46,0.67,1.30,1*02
$GNGSA,A,3,71,72,87,65,,,,,,,,,1.46,0.67,1.30,2*0D
$GNGSA,A,3,30,09,11,05,02,34,36,,,,,,1.46,0.67,1.30,3*0C
$GNGSA,A,3,03,14,07,08,04,21,11,10,13,34,,,1.46,0.67,1.30,4*0E
$GPGSV,3,1,10,01,13,066,27,03,39,048,41,04,21,100,34,06,48,285,32,1*64
$GPGSV,3,2,10,09,18,134,19,14,34,189,33,17,77,051,46,19,64,332,31,1*62
$GPGSV,3,3,10,28,,,42,50,47,179,42,1*56
$GPGSV,2,1,07,01,13,066,25,03,39,048,38,04,21,100,28,06,48,285,19,6*6C
$GPGSV,2,2,07,09,18,134,28,14,34,189,34,17,77,051,38,6*54
$GPGSV,2,1,06,02,10,267,,11,14,262,,12,07,324,,20,01,220,,0*61
$GPGSV,2,2,06,20,01,220,,40,06,259,,0*6C
$GLGSV,2,1,06,65,21,167,29,71,33,046,46,72,49,113,26,78,26,303,25,1*73
$GLGSV,2,2,06,87,53,357,27,88,26,303,21,1*74
$GLGSV,2,1,06,65,21,167,31,71,33,046,33,72,49,113,25,77,26,240,09,3*7E
$GLGSV,2,2,06,78,26,303,09,88,26,303,25,3*7D
$GLGSV,1,1,03,76,02,198,,79,00,345,,86,24,074,,0*4E
$GAGSV,2,1,07,02,42,216,27,05,18,149,32,09,29,096,28,11,14,071,22,2*73
$GAGSV,2,2,07,30,40,289,29,34,50,295,37,36,57,037,44,2*45
$GAGSV,2,1,07,02,42,216,34,05,18,149,33,09,29,096,33,11,14,071,29,7*74
$GAGSV,2,2,07,30,40,289,31,34,50,295,30,36,57,037,46,7*4C
$GAGSV,2,1,05,04,12,044,,15,05,268,,18,43,306,,25,09,176,,0*7D
$GAGSV,2,2,05,25,09,176,,0*4F
$GBGSV,3,1,10,03,44,206,41,04,35,132,34,07,69,220,40,10,68,257,26,1*75
$GBGSV,3,2,10,11,43,081,33,13,43,247,28,14,53,133,32,21,16,041,27,1*71
$GBGSV,3,3,10,28,40,306,25,34,25,096,39,1*7E
$GBGSV,3,1,09,01,43,152,31,03,44,206,41,04,35,132,31,07,69,220,44,3*77
$GBGSV,3,2,09,08,52,252,31,10,68,257,28,11,43,081,15,13,43,247,28,3*75
$GBGSV,3,3,09,14,53,133,22,3*4F
$GBGSV,1,1,04,02,27,236,,05,08,256,,23,16,229,,37,18,280,,0*77
$GNRMC,041812.00,A,3727.0704807,N,12639.2840268,E,0.046,,220622,,,F,V*19
$GNVTG,,T,,M,0.046,N,0.085,K,D*37
$GNGNS,041812.00,3727.0704807,N,12639.2840268,E,FFFF,28,0.67,30.832,17.838,,4095,V*20
$GNGGA,041812.00,3727.0704807,N,12639.2840268,E,5,12,0.67,30.832,M,17.838,M,,4095*7D
$GNGSA,A,3,17,03,01,14,06,19,04,09,,,,,1.46,0.67,1.30,1*03
$GNGSA,A,3,71,72,87,65,,,,,,,,,1.46,0.67,1.30,2*0D
$GNGSA,A,3,30,09,11,05,02,34,36,,,,,,1.46,0.67,1.30,3*0C
$GNGSA,A,3,03,14,07,08,21,11,10,13,34,,,,1.46,0.67,1.30,4*0A
$GPGSV,3,1,10,01,13,066,29,03,39,048,41,04,21,100,34,06,48,285,32,1*6A
$GPGSV,3,2,10,09,18,134,19,14,34,189,37,17,77,051,46,19,64,332,32,1*65
$GPGSV,3,3,10,28,,,40,50,47,179,41,1*57
$GPGSV,2,1,07,01,13,066,25,03,39,048,39,04,21,100,28,06,48,285,19,6*6D
$GPGSV,2,2,07,09,18,134,28,14,34,189,33,17,77,051,38,6*53
$GPGSV,2,1,06,02,10,267,,11,14,262,,12,07,324,,20,01,220,,0*61
$GPGSV,2,2,06,20,01,220,,40,06,259,,0*6C
$GLGSV,2,1,06,65,21,167,30,71,33,046,47,72,49,113,26,78,26,303,24,1*7B
$GLGSV,2,2,06,87,53,357,27,88,26,303,21,1*74
$GLGSV,2,1,06,65,21,167,32,71,33,046,34,72,49,113,24,77,26,240,07,3*75
$GLGSV,2,2,06,78,26,303,07,88,26,303,25,3*73
$GLGSV,1,1,03,76,02,198,,79,00,345,,86,24,074,,0*4E
$GAGSV,2,1,07,02,42,216,27,05,18,149,31,09,29,096,28,11,14,071,22,2*70
$GAGSV,2,2,07,30,40,289,29,34,50,295,38,36,57,037,44,2*4A
$GAGSV,2,1,07,02,42,216,34,05,18,149,30,09,29,096,34,11,14,071,30,7*78
$GAGSV,2,2,07,30,40,289,30,34,50,295,28,36,57,037,46,7*44
$GAGSV,2,1,05,04,12,044,,15,05,268,,18,43,306,,25,09,176,,0*7D
$GAGSV,2,2,05,25,09,176,,0*4F
$GBGSV,3,1,10,03,44,206,41,04,35,132,34,07,69,220,41,10,68,257,25,1*77
$GBGSV,3,2,10,11,43,081,33,13,43,247,27,14,53,133,33,21,16,041,27,1*7F
$GNRMC,041813.00,A,3727.0705124,N,12639.2840534,E,0.038,,220622,,,F,V*16
$GNVTG,,T,,M,0.038,N,0.071,K,D*35
$GNGNS,041813.00,3727.0705124,N,12639.2840534,E,FFFF,28,0.69,30.861,17.838,,4095,V*2E
$GNGGA,041813.00,3727.0705124,N,12639.2840534,E,5,12,0.69,30.861,M,17.838,M,,4095*73
$GNGSA,A,3,17,03,01,14,06,19,04,09,,,,,1.63,0.69,1.47,1*0A
$GNGSA,A,3,71,72,87,65,,,,,,,,,1.63,0.69,1.47,2*04
$GNGSA,A,3,30,09,11,05,02,34,36,,,,,,1.63,0.69,1.47,3*05
$GNGSA,A,3,03,14,07,08,28,11,10,13,34,,,,1.63,0.69,1.47,4*0A
$GPGSV,3,1,10,01,13,066,29,03,39,048,42,04,21,100,34,06,48,285,31,1*6A
$GPGSV,3,2,10,09,18,134,19,14,34,189,35,17,77,051,46,19,64,332,31,1*64
$GPGSV,3,3,10,28,,,41,50,47,179,41,1*56
$GPGSV,2,1,07,01,13,066,26,03,39,048,39,04,21,100,28,06,48,285,20,6*64
$GPGSV,2,2,07,09,18,134,29,14,34,189,32,17,77,051,38,6*53
$GPGSV,2,1,06,02,10,267,,11,14,262,,12,07,324,,20,01,220,,0*61
$GPGSV,2,2,06,20,01,220,,40,06,259,,0*6C
$GLGSV,2,1,06,65,21,167,29,71,33,046,47,72,49,113,26,78,26,303,23,1*74
$GLGSV,2,2,06,87,53,357,27,88,26,303,21,1*74
$GLGSV,2,1,06,65,21,167,33,71,33,046,34,72,49,113,25,77,26,240,09,3*7B
$GLGSV,2,2,06,78,26,303,14,88,26,303,25,3*71
$GLGSV,1,1,03,76,02,198,,79,00,345,,86,24,074,,0*4E
$GAGSV,2,1,07,02,41,216,28,05,18,149,32,09,29,096,28,11,14,071,23,2*7E
$GAGSV,2,2,07,30,40,289,29,34,50,295,38,36,57,037,44,2*4A
$GAGSV,2,1,07,02,41,216,34,05,18,149,30,09,29,096,34,11,14,071,30,7*7B
$GAGSV,2,2,07,30,40,289,29,34,50,295,27,36,57,037,46,7*43
$GAGSV,2,1,05,04,12,044,,15,05,268,,18,43,306,,25,09,176,,0*7D
$GAGSV,2,2,05,25,09,176,,0*4F
$GBGSV,3,1,10,03,44,206,40,04,35,132,34,07,69,220,41,10,68,257,25,1*76
$GBGSV,3,2,10,11,43,081,33,13,43,247,27,14,53,133,32,21,16,041,26,1*7F
$GBGSV,3,3,10,28,40,306,26,34,25,096,39,1*7D
$GBGSV,3,1,09,01,43,152,30,03,44,206,41,04,35,132,32,07,69,220,44,3*75
$GBGSV,3,2,09,08,52,252,31,10,68,257,28,11,43,081,13,13,43,247,29,3*72
$GBGSV,3,3,09,14,53,133,21,3*4C
$GBGSV,1,1,04,02,27,236,,05,08,256,,23,16,229,,37,18,280,,0*77
$GNRMC,041814.00,A,3727.0705321,N,12639.2840982,E,0.017,,220622,,,F,V*1A
$GNVTG,,T,,M,0.017,N,0.032,K,D*3F
$GPGSV,2,2,07,09,18,134,29,14,34,189,33,17,77,051,38,6*52
$GPGSV,2,1,06,02,10,267,,11,14,262,,12,07,324,,20,01,220,,0*61
$GPGSV,2,2,06,20,01,220,,40,06,259,,0*6C
$GLGSV,2,1,06,65,21,167,30,71,33,046,47,72,49,113,25,78,26,303,23,1*7F
$GLGSV,2,2,06,87,53,357,28,88,26,303,20,1*7A
$GLGSV,2,1,06,65,21,167,32,71,33,046,35,72,49,113,25,77,26,240,09,3*7B
$GLGSV,2,2,06,78,26,303,17,88,26,303,25,3*72
$GLGSV,1,1,03,76,02,198,,79,00,345,,86,24,074,,0*4E
$GAGSV,2,1,07,02,41,216,28,05,18,149,32,09,29,096,28,11,14,071,24,2*79
$GAGSV,2,2,07,30,40,289,30,34,50,295,37,36,57,037,44,2*4D
$GAGSV,2,1,07,02,41,216,34,05,18,149,29,09,29,096,34,11,14,071,29,7*7B
$GAGSV,2,2,07,30,40,289,29,34,50,295,26,36,57,037,46,7*42
$GAGSV,2,1,05,04,12,044,,15,05,268,,18,43,306,,25,09,176,,0*7D
$GAGSV,2,2,05,25,09,176,,0*4F
$GBGSV,3,1,10,03,44,206,40,04,35,132,33,07,69,220,41,10,68,257,26,1*72
$GBGSV,3,2,10,11,43,081,33,13,43,247,27,14,53,133,32,21,16,041,27,1*7$GNRMC,041815.00,A,3727.0705669,N,12639.2841116,E,0.029,,220622,,,F,V*1B
$GNVTG,,T,,M,0.029,N,0.054,K,D*32
$GNGNS,041815.00,3727.0705669,N,12639.2841116,E,FFFF,28,0.69,30.882,17.838,,4095,V*2E
$GNGSA,A,3,17,03,01,14,06,19,04,09,,,,,1.52,0.69,1.36,1*0E
$GNGSA,A,3,71,87,65,,,,,,,,,,1.52,0.69,1.36,2*05
$GNGSA,A,3,30,09,11,05,02,34,36,,,,,,1.52,0.69,1.36,3*01
$GNGSA,A,3,03,14,07,08,21,11,04,10,13,34,,,1.52,0.69,1.36,4*03
$GPGSV,3,1,10,01,13,066,30,03,39,048,43,04,21,100,34,06,48,285,34,1*66
$GPGSV,3,2,10,09,18,134,22,14,34,189,35,17,77,051,46,19,64,332,31,1*6C
$GPGSV,3,3,10,28,,,41,50,47,179,42,1*55
$GPGSV,2,1,07,01,13,066,27,03,39,048,38,04,21,100,27,06,48,285,20,6*6B
$GPGSV,2,2,07,09,18,134,30,14,34,189,33,17,77,051,38,6*5A
$GPGSV,2,1,06,02,10,267,,11,14,262,,12,07,324,,20,01,220,,0*61
$GPGSV,2,2,06,20,01,220,,40,06,259,,0*6C
$GLGSV,2,1,06,65,21,167,29,71,33,046,46,72,49,113,26,78,26,303,23,1*75
$GLGSV,2,2,06,87,53,357,29,88,26,303,18,1*70
$GLGSV,2,1,06,65,21,167,31,71,33,046,32,72,49,113,25,77,26,240,09,3*7F
$GLGSV,2,2,06,78,26,303,13,88,26,303,24,3*77
$GLGSV,1,1,03,76,02,198,,79,00,345,,86,24,074,,0$GAGSV,2,1,07,02,41,216,27,05,18,149,33,09,29,096,28,11,14,071,24,2*77
$GAGSV,2,2,07,30,40,289,29,34,50,295,37,36,57,037,44,2*45
$GAGSV,2,1,07,02,41,216,34,05,18,149,30,09,29,096,34,11,14,071,29,7*73
$GAGSV,2,2,07,30,40,289,28,34,50,295,26,36,57,037,47,7*42
$GAGSV,2,1,05,04,11,044,,15,05,268,,18,43,306,,25,09,176,,0*7E
$GAGSV,2,2,05,25,09,176,,0*4F
$GBGSV,3,1,10,03,44,206,40,04,35,132,34,07,69,220,41,10,68,257,26,1*75
$GBGSV,3,2,10,11,43,081,33,13,43,247,27,14,53,133,33,21,16,041,32,1*7B
$GBGSV,3,3,10,28,40,306,26,34,25,096,39,1*7D
$GBGSV,3,1,09,01,43,152,29,03,44,206,41,04,35,132,30,07,69,220,43,3*78
$GBGSV,3,2,09,08,52,252,31,10,68,257,28,11,43,081,17,13,43,247,28,3*77
$GBGSV,3,3,09,14,53,133,20,3*4D
$GBGSV,1,1,04,02,27,236,,05,08,256,,23,16,229,,37,18,280,,0*77
$GNRMC,041816.00,A,3727.0706050,N,12639.2841452,E,0.032,,220622,,,F,V*18
$GNVTG,,T,,M,0.032,N,0.059,K,D*35
$GNGNS,041816.00,3727.0706050,N,12639.2841452,E,FFFF,28,0.67,30.950,17.838,,4095,V*27
$GNGGA,041816.00,3727.0706050,N,12639.2841452,E,5,12,0.67,30.950,M,17.838,M,,4095*7A
$GNGSA,A,3,17,03,01,14,06,19,04,09,,,,,1.51,0.67,1.35,1*00
$GNGSA,A,3,71,87,65,,,,,,,,,,1.51,0.67,1.35,2*0B
$GNGSA,A,3,03,14,07,08,21,11,04,10,13,34,,,1.51,0.67,1.35,4*0D
$GPGSV,3,1,10,01,13,066,30,03,39,048,42,04,21,100,34,06,48,285,32,1*61
$GPGSV,3,2,10,09,18,134,23,14,34,189,34,17,77,051,46,19,64,332,30,1*6D
$GPGSV,3,3,10,28,,,41,50,47,179,42,1*55
$GPGSV,2,1,07,01,13,066,26,03,39,048,36,04,21,100,27,06,48,285,21,6*65
$GPGSV,2,2,07,09,18,134,30,14,34,189,33,17,77,051,37,6*55
$GPGSV,2,1,06,02,10,267,,11,14,262,,12,07,324,,20,01,220,,0*61
$GPGSV,2,2,06,20,01,220,,40,06,259,,0*6C
$GLGSV,2,1,06,65,21,167,29,71,33,046,46,72,49,113,26,78,26,303,24,1*72
$GLGSV,2,2,06,87,53,357,30,88,26,303,17,1*77
$GLGSV,2,1,06,65,21,167,31,71,33,046,31,72,49,113,24,77,26,240,09,3*7D
$GLGSV,2,2,06,78,26,303,09,88,26,303,25,3*7D
$GLGSV,1,1,03,76,02,198,,79,00,345,,86,24,074,,0*4E
$GAGSV,2,1,07,02,41,216,28,05,18,149,34,09,29,096,28,11,14,071,25,2*7E
$GAGSV,2,2,07,30,40,289,30,34,50,295,36,36,57,037,43,2*4B
$GAGSV,2,1,07,02,41,216,34,05,18,149,30,09,29,096,34,11,14,0$GNRMC,041817.00,A,3727.0706383,N,12639.2841620,E,0.023,,220622,,,F,V*13
$GNVTG,,T,,M,0.023,N,0.042,K,D*3F
$GNGNS,041817.00,3727.0706383,N,12639.2841620,E,FFFF,28,0.67,30.937,17.838,,4095,V*2D
$GNGGA,041817.00,3727.0706383,N,12639.2841620,E,5,12,0.67,30.937,M,17.838,M,,4095*70
$GNGSA,A,3,17,03,01,14,06,19,04,09,,,,,1.51,0.67,1.35,1*00
$GNGSA,A,3,71,87,65,,,,,,,,,,1.51,0.67,1.35,2*0B
$GNGSA,A,3,30,09,11,05,02,34,36,,,,,,1.51,0.67,1.35,3*0F
$GNGSA,A,3,03,14,07,08,21,11,04,10,13,34,,,1.51,0.67,1.35,4*0D
$GPGSV,3,1,10,01,13,066,29,03,39,048,42,04,21,100,35,06,48,285,33,1*69
$GPGSV,3,2,10,09,18,134,23,14,34,189,32,17,77,051,46,19,64,332,30,1*6B
$GPGSV,3,3,10,28,,,41,50,47,179,41,1*56
$GPGSV,2,1,07,01,13,066,26,03,39,048,37,04,21,100,27,06,48,285,21,6*64
$GPGSV,2,2,07,09,18,134,30,14,34,189,33,17,77,051,37,6*55
$GPGSV,2,1,06,02,10,267,,11,14,262,,12,07,324,,20,01,220,,0*61
$GPGSV,2,2,06,20,01,220,,40,06,259,,0*6C
$GLGSV,2,1,06,65,21,167,29,71,33,046,47,72,49,113,26,78,26,303,25,1*72
$GLGSV,2,2,06,87,53,357,30,88,26,303,15,1*75
$GLGSV,2,1,06,65,21,167,31,71,33,046,35,72,49,113,24,77,26,240,10,3*71
$GLGSV,2,2,06,78,26,303,17,88,26,303,25,3*72
$GLGSV,1,1,03,76,02,198,,79,00,345,,86,24,074,,0*4E
$GAGSV,2,1,07,02,41,216,28,05,18,149,33,09,29,096,28,11,14,071,23,2*7F
$GAGSV,2,2,07,30,40,289,29,34,50,295,37,36,57,037,44,2*45
$GAGSV,2,1,07,02,41,216,34,05,18,149,29,09,29,096,34,11,14,071,29,7*7B
$GAGSV,2,2,07,30,40,289,28,34,50,295,26,36,57,037,46,7*43
$GAGSV,2,1,05,04,11,044,,15,05,268,,18,43,306,,25,09,176,,0*7E
$GAGSV,2,2,05,25,09,176,,0*4F
$GBGSV,3,1,10,03,44,206,40,04,35,132,33,07,69,220,40,10,68,257,26,1*73
$GBGSV,3,2,10,11,43,081,33,13,43,247,26,14,53,133,31,21,16,041,32,1*78
$GBGSV,3,3,10,28,40,306,25,34,25,096,38,1*7F
$GBGSV,3,1,09,01,43,152,29,03,44,206,40,04,35,132,31,07,69,220,42,3*79
$GBGSV,3,2,09,08,52,252,30,10,68,257,26,11,43,081,14,13,43,247,27,3*74
$GBGSV,3,3,09,14,53,133,17,3*49
$GBGSV,1,1,04,02,27,236,,05,08,256,,23,16,229,,37,18,280,,0*77
$GNRMC,041818.00,A,3727.0706812,N,12639.2841071,E,0.037,,220622,,,F,V*18
$GNVTG,,T,,M,0.037,N,0.069,K,D*33
$GNGNS,041818.00,3727.0706812,N,12639.2841071,E,FFFF,28,0.67,30.867,17.838,,4095,V*27
$GNGGA,041818.00,3727.0706812,N,12639.2841071,E,5,12,0.67,30.867,M,17.838,M,,4095*7A
$GNGSA,A,3,17,03,01,14,06,19,04,09,,,,,1.46,0.67,1.30,1*03
$GNGSA,A,3,71,72,87,65,,,,,,,,,1.46,0.67,1.30,2*0D
$GNGSA,A,3,30,09,11,05,02,34,36,,,,,,1.46,0.67,1.30,3*0C
$GNGSA,A,3,03,14,07,08,21,11,10,13,34,,,,1.46,0.67,1.30,4*0A
$GPGSV,3,1,10,01,13,066,27,03,39,048,42,04,21,100,35,06,48,285,33,1*67
$GPGSV,3,2,10,09,18,134,24,14,34,189,36,17,77,051,46,19,64,332,30,1*68
$GPGSV,3,3,10,28,,,40,50,47,179,41,1*57
$GPGSV,2,1,07,01,13,066,25,03,39,048,36,04,21,100,27,06,48,285,20,6*67
$GPGSV,2,2,07,09,18,134,30,14,34,189,34,17,77,051,37,6*52
$GPGSV,2,1,06,02,10,267,,11,14,262,,12,07,324,,20,01,220,,0*61
$GPGSV,2,2,06,20,01,220,,40,06,259,,0*6C
$GLGSV,2,1,06,65,21,167,29,71,33,046,47,72,49,113,26,78,26,303,24,1*73
$GLGSV,2,2,06,87,53,357,30,88,26,303,15,1*75
$GLGSV,2,1,06,65,21,167,31,71,33,046,34,72,49,113,24,77,26,240,10,3*70
$GLGSV,2,2,06,78,26,303,15,88,26,303,25,3*70
$GLGSV,1,1,03,76,02,198,,79,00,345,,86,24,074,,0*4E
$GAGSV,2,1,07,02,41,216,28,05,18,149,32,09,29,096,27,11,14,071,22,2*70
$GAGSV,2,2,07,30,40,289,28,34,50,295,37,36,57,037,44,2*44
$GAGSV,2,1,07,02,41,216,34,05,18,149,29,09,29,096,33,11,14,071,28,7*7D
$GAGSV,2,2,07,30,40,289,29,34,50,295,25,36,57,037,46,7*41
$GAGSV,2,1,05,04,11,044,,15,05,268,,18,43,306,,25,09,176,,0*7E
$GAGSV,2,2,05,25,09,176,,0*4F
$GNRMC,041819.00,A,3727.0707270,N,12639.2840259,E,0.022,,220622,,,F,V*1B
$GNVTG,,T,,M,0.022,N,0.040,K,D*3C
$GNGNS,041819.00,3727.0707270,N,12639.2840259,E,FFFF,28,0.69,30.750,17.838,,4095,V*25
$GNGGA,041819.00,3727.0707270,N,12639.2840259,E,5,12,0.69,30.750,M,17.838,M,,4095*78
$GNGSA,A,3,17,03,01,14,06,19,04,09,,,,,1.68,0.69,1.53,1*04
$GNGSA,A,3,71,87,65,,,,,,,,,,1.68,0.69,1.53,2*0F
$GNGSA,A,3,30,09,11,05,02,34,36,,,,,,1.68,0.69,1.53,3*0B
$GNGSA,A,3,03,14,07,08,04,11,28,10,13,34,,,1.68,0.69,1.53,4*00
$GPGSV,3,1,10,01,13,066,27,03,39,048,41,04,21,100,35,06,48,285,31,1*66
$GPGSV,3,2,10,09,18,134,25,14,34,189,32,17,77,051,46,19,64,332,30,1*6D
$GPGSV,3,3,10,28,,,40,50,47,179,41,1*57
$GPGSV,2,1,07,01,13,066,25,03,39,048,38,04,21,100,26,06,48,285,20,6*68
$GPGSV,2,2,07,09,18,134,30,14,34,189,35,17,77,051,37,6*53
$GPGSV,2,1,06,02,10,267,,11,14,262,,12,07,324,,20,01,220,,0*61
$GPGSV,2,2,06,20,01,220,,40,06,259,,0*6C
$GLGSV,2,1,06,65,21,167,28,71,33,046,47,72,49,113,26,78,26,303,24,1*72
$GLGSV,2,2,06,87,53,357,30,88,26,303,14,1*74
$GLGSV,2,1,06,65,21,167,31,71,33,046,33,72,49,113,24,77,26,240,10,3*77
$GLGSV,2,2,06,78,26,303,16,88,26,303,25,3*73
$GLGSV,1,1,03,76,02,198,,79,00,345,,86,24,074,,0*4E
$GAGSV,2,1,07,02,41,216,28,05,18,149,32,09,29,095,27,11,14,071,22,2*73
$GAGSV,2,2,07,30,40,289,28,34,50,295,37,36,57,037,44,2*44
$GAGSV,2,1,07,02,41,216,34,05,18,149,30,09,29,095,33,11,14,071,28,7*76
$GAGSV,2,2,07,30,40,289,28,34,50,295,26,36,57,037,46,7*43
$GAGSV,2,1,05,04,11,044,,15,05,268,,18,43,306,,25,09,176,,0*7E
$GAGSV,2,2,05,25,09,176,,0*4F
$GBGSV,3,1,10,03,44,206,40,04,35,132,33,07,69,220,40,10,68,257,25,1*70
$GBGSV,3,2,10,11,43,081,33,13,43,247,27,14,53,133,31,21,16,041,26,1*7C
$GBGSV,3,3,10,28,40,306,27,34,25,096,38,1*7D
$GBGSV,3,1,09,01,43,152,29,03,44,206,40,04,35,132,31,07,69,220,43,3*78
$GBGSV,3,2,09,08,52,252,31,10,68,257,26,11,43,081,19,13,43,247,27,3*78
$GBGSV,3,3,09,14,53,133,18,3*46
$GBGSV,1,1,04,02,27,236,,05,08,256,,23,16,229,,37,18,280,,0*77
$GNRMC,041820.00,A,3727.0707942,N,12639.2839314,E,0.040,,220622,,,F,V*19
$GNVTG,,T,,M,0.040,N,0.075,K,D*3E
$GNGNS,041820.00,3727.0707942,N,12639.2839314,E,FFFF,28,0.65,30.646,17.838,,4095,V*29
$GNGGA,041820.00,3727.0707942,N,12639.2839314,E,5,12,0.65,30.646,M,17.838,M,,4095*74
$GNGSA,A,3,17,03,01,14,06,19,04,09,,,,,1.47,0.65,1.32,1*02
$GNGSA,A,3,71,87,65,,,,,,,,,,1.47,0.65,1.32,2*09
$GNGSA,A,3,30,09,11,05,02,34,36,,,,,,1.47,0.65,1.32,3*0D
$GNGSA,A,3,03,14,07,08,21,11,28,10,13,34,,,1.47,0.65,1.32,4*01
$GPGSV,3,1,10,01,13,066,28,03,39,048,42,04,21,100,35,06,48,285,32,1*69
$GPGSV,3,2,10,09,18,134,25,14,34,189,32,17,77,051,46,19,64,332,30,1*6D
$GPGSV,3,3,10,28,,,42,50,47,179,42,1*56
$GPGSV,2,1,07,01,13,066,26,03,39,048,38,04,21,100,27,06,48,285,20,6*6A
$GPGSV,2,2,07,09,18,134,31,14,34,189,35,17,77,051,38,6*5D
$GPGSV,2,1,06,02,10,267,,11,14,262,,12,07,324,,20,01,220,,0*61
$GPGSV,2,2,06,20,01,220,,40,06,259,,0*6C
$GLGSV,2,2,06,87,53,357,30,88,26,303,13,1*73
$GLGSV,2,1,06,65,21,167,31,71,33,046,33,72,49,113,25,77,26,240,13,3*75
$GLGSV,2,2,06,78,26,303,14,88,26,303,25,3*71
$GLGSV,1,1,03,76,02,198,,79,00,345,,86,24,074,,0*4E
$GAGSV,2,1,07,02,41,216,28,05,18,149,32,09,29,095,27,11,14,071,23,2*72
$GAGSV,2,2,07,30,40,289,29,34,50,295,37,36,57,037,44,2*45
$GAGSV,2,1,07,02,41,216,34,05,18,149,30,09,29,095,33,11,14,071,29,7*77
$GAGSV,2,2,07,30,40,289,28,34,50,295,26,36,57,037,46,7*43
$GAGSV,2,1,05,04,11,044,,15,05,268,,18,43,306,,25,09,176,,0*7E
$GAGSV,2,2,05,25,09,176,,0*4F
$GBGSV,3,1,10,03,44,206,40,04,35,132,33,07,69,220,40,10,68,257,25,1*70
$GBGSV,3,2,10,11,43,081,33,13,43,247,27,14,53,133,32,21,16,041,32,1*7A
$GBGSV,3,3,10,28,40,306,27,34,25,096,38,1*7D
$GBGSV,3,1,09,01,43,152,29,03,44,206,40,04,35,132,31,07,69,220,44,3*7F
$GBGSV,3,2,09,08,52,252,30,10,68,257,26,11,43,081,19,13,43,247,28,3*76
$GBGSV,3,3,09,14,53,133,16,3*48
$GBGSV,1,1,$GNVTG,,T,,M,0.044,N,0.081,K,D*31
$GNGNS,041821.00,3727.0708233,N,12639.2839174,E,FFFF,28,0.67,30.635,17.838,,4095,V*28
$GNGGA,041821.00,3727.0708233,N,12639.2839174,E,5,12,0.67,30.635,M,17.838,M,,4095*75
$GNGSA,A,3,17,03,01,14,06,19,04,09,,,,,1.52,0.67,1.36,1*00
$GNGSA,A,3,71,87,65,,,,,,,,,,1.52,0.67,1.36,2*0B
$GNGSA,A,3,30,09,11,05,02,34,36,,,,,,1.52,0.67,1.36,3*0F
$GNGSA,A,3,03,14,07,08,21,11,28,10,13,34,,,1.52,0.67,1.36,4*03
$GPGSV,3,1,10,01,13,066,28,03,39,048,42,04,21,100,34,06,48,285,32,1*68
$GPGSV,3,2,10,09,18,134,24,14,34,189,35,17,77,051,46,19,64,332,30,1*6B
$GPGSV,3,3,10,28,,,42,50,47,179,41,1*55
$GPGSV,2,1,07,01,13,066,26,03,39,048,38,04,21,100,28,06,48,285,21,6*64
$GPGSV,2,2,07,09,18,134,32,14,34,189,35,17,77,051,38,6*5E
$GPGSV,2,1,06,02,10,267,,11,14,262,,12,07,324,,20,01,220,,0*61
$GPGSV,2,2,06,20,01,220,,40,06,259,,0*6C
$GLGSV,2,1,06,65,21,167,29,71,33,046,46,72,49,113,25,78,26,303,24,1*71
$GLGSV,2,2,06,87$GLGSV,2,1,06,65,21,167,31,71,33,046,34,72,49,113,25,77,26,240,06,3*76
$GLGSV,2,2,06,78,26,303,20,88,26,303,25,3*76
$GLGSV,1,1,03,76,02,198,,79,00,345,,86,24,074,,0*4E
$GAGSV,2,1,07,02,41,216,28,05,18,149,32,09,29,095,26,11,14,072,22,2*71
$GAGSV,2,2,07,30,40,289,30,34,50,295,37,36,57,037,44,2*4D
$GAGSV,2,1,07,02,41,216,34,05,18,149,29,09,29,095,33,11,14,072,28,7*7D
$GAGSV,2,2,07,30,40,289,27,34,50,295,25,36,57,037,46,7*4F
$GAGSV,2,1,05,04,11,044,,15,05,268,,18,43,306,,25,09,176,,0*7E
$GAGSV,2,2,05,25,09,176,,0*4F
$GBGSV,3,1,10,03,44,206,40,04,35,132,34,07,69,220,40,10,68,257,25,1*77
$GBGSV,3,2,10,11,43,081,33,13,43,247,27,14,53,133,32,21,16,041,32,1*7A
$GBGSV,3,3,10,28,40,306,28,34,25,096,38,1*72
$GBGSV,3,1,09,01,43,152,29,03,44,206,40,04,35,132,31,07,69,220,43,3*78
$GBGSV,3,2,09,08,52,252,30,10,68,257,26,11,43,081,20,13,43,247,28,3*7C
$GBGSV,3,3,09,14,53,133,16,3*48
$GBGSV,1,1,04,02,27,236,,05,08,256,,23,16,229,,37,18,280,,0*77
$GNRMC,041822.00,A,3727.0708348,N,12639.2839208,E,0.056,,220622,,,F,V*1F
$GNVTG,,T,,M,0.056,N,0.104,K,D*3E
$GNGNS,041822.00,3727.0708348,N,12639.2839208,E,FFFF,28,0.65,30.638,17.838,,4095,V*21
$GNGGA,041822.00,3727.0708348,N,12639.2839208,E,5,12,0.65,30.638,M,17.838,M,,4095*7C
$GNGSA,A,3,17,03,01,14,06,19,04,09,,,,,1.47,0.65,1.32,1*02
$GNGSA,A,3,71,87,65,,,,,,,,,,1.47,0.65,1.32,2*09
$GNGSA,A,3,30,09,11,05,02,34,36,,,,,,1.47,0.65,1.32,3*0D
$GNGSA,A,3,03,14,07,08,21,11,28,10,13,34,,,1.47,0.65,1.32,4*01
$GPGSV,3,1,10,01,13,066,30,03,39,048,42,04,21,100,35,06,48,285,33,1*61
$GNRMC,041823.00,A,3727.0708716,N,12639.2838964,E,0.028,,220622,,,F,V*18
$GNVTG,,T,,M,0.028,N,0.052,K,D*35
$GNGNS,041823.00,3727.0708716,N,12639.2838964,E,FFFF,28,0.65,30.702,17.838,,4095,V*27
$GNGGA,041823.00,3727.0708716,N,12639.2838964,E,5,12,0.65,30.702,M,17.838,M,,4095*7A
$GNGSA,A,3,17,03,01,14,06,19,04,09,,,,,1.47,0.65,1.32,1*02
$GNGSA,A,3,71,87,65,,,,,,,,,,1.47,0.65,1.32,2*09
$GNGSA,A,3,30,09,11,05,02,34,36,,,,,,1.47,0.65,1.32,3*0D
$GNGSA,A,3,03,14,07,08,21,11,28,10,13,34,,,1.47,0.65,1.32,4*01
$GPGSV,3,1,10,01,13,066,29,03,39,048,42,04,21,100,35,06,48,285,33,1*69
$GPGSV,3,2,10,09,18,134,26,14,34,189,34,17,77,051,46,19,64,332,30,1*68
$GPGSV,3,3,10,28,,,42,50,47,179,41,1*55
$GPGSV,2,1,07,01,13,066,25,03,39,048,38,04,21,100,28,06,48,285,20,6*66
$GPGSV,2,2,07,09,18,134,31,14,34,189,35,17,77,051,37,6*52
$GPGSV,2,1,06,02,10,267,,11,14,262,,12,07,324,,20,01,220,,0*61
$GPGSV,2,2,06,20,01,220,,40,06,259,,0*6C
$GLGSV,2,1,06,65,21,167,29,71,33,046,47,72,49,113,21,78,26,303,24,1*74
$GLGSV,2,2,06,87,53,357,29,88,26,303,19,1*71
$GLGSV,2,1,06,65,21,167,31,71,33,046,34,72,49,113,26,77,26,240,09,3*7A
$GLGSV,2,2,06,78,26,303,18,88,26,303,24,3*7C
$GLGSV,1,1,03,76,02,198,,79,00,345,,86,24,074,,0*4E
$GAGSV,2,1,07,02,41,216,28,05,18,149,32,09,29,095,25,11,14,072,23,2*73
$GAGSV,2,2,07,30,40,289,30,34,50,295,37,36,57,037,44,2*4D
$GAGSV,2,1,07,02,41,216,35,05,18,149,30,09,29,095,34,11,14,072,29,7*72
$GAGSV,2,2,07,30,40,289,26,34,50,295,23,36,57,037,46,7*48
$GAGSV,2,1,05,04,11,044,,15,05,268,,18,43,306,,25,09,176,,0*7E
$GAGSV,2,2,05,25,09,176,,0*4F
$GBGSV,3,1,10,03,44,206,41,04,35,132,34,07,69,220,40,10,68,257,25,1*76
$GBGSV,3,2,10,11,43,081,33,13,43,247,27,14,53,133,32,21,16,041,33,1*7B
$GBGSV,3,3,10,28,40,306,28,34,25,096,38,1*72
$GBGSV,3,1,09,01,43,152,29,03,44,206,41,04,35,132,32,07,69,220,43,3*7A
$GBGSV,3,2,09,08,52,252,31,10,68,257,26,11,43,081,20,13,43,247,28,3*7D
$GBGSV,3,3,09,14,53,133,17,3*49
$GBGSV,1,1,04,02,27,236,,05,08,256,,23,16,229,,37,18,280,,0*77
$GNRMC,041824.00,A,3727.0709200,N,12639.2838647,E,0.016,,220622,,,F,V*1F
$GNVTG,,T,,M,0.016,N,0.029,K,D*34
$GNGNS,041824.00,3727.0709200,N,12639.2838647,E,FFFF,28,0.65,30.808,17.838,,4095,V*28
$GNGGA,041824.00,3727.0709200,N,12639.2838647,E,5,12,0.65,30.808,M,17.838,M,,4095*75
$GNGSA,A,3,17,03,01,14,06,19,04,09,,,,,1.47,0.65,1.32,1*02
$GNGSA,A,3,71,87,65,,,,,,,,,,1.47,0.65,1.32,2*09
$GNGSA,A,3,30,09,11,05,02,34,36,,,,,,1.47,0.65,1.32,3*0D
$GNGSA,A,3,03,14,07,08,21,11,28,10,13,34,,,1.47,0.65,1.32,4*01
$GPGSV,3,1,10,01,13,066,28,03,39,048,42,04,21,100,35,06,48,285,34,1*6F
$GPGSV,3,2,10,09,18,134,26,14,34,189,34,17,77,051,46,19,64,332,29,1*60
$GPGSV,3,3,10,28,,,41,50,47,179,41,1*56
$GPGSV,2,1,07,01,13,066,25,03,39,048,37,04,21,100,28,06,48,285,20,6*69
$GPGSV,2,2,07,09,18,134,31,14,34,189,34,17,77,051,37,6*53
$GPGSV,2,1,06,02,10,267,,11,14,262,,12,07,324,,20,01,220,,0*61
$GPGSV,2,2,06,20,01,220,,40,06,259,,0*6C
$GLGSV,2,1,06,65,21,167,29,71,33,046,47,72,49,113,21,78,26,303,25,1*75
$GLGSV,2,2,06,87,53,357,30,88,26,303,21,1*72
$GLGSV,2,1,06,65,21,167,30,71,33,046,33,72,49,113,26,77,26,240,12,3*76
$GLGSV,2,2,06,78,26,303,20,88,26,303,24,3*77
$GLGSV,1,1,03,76,02,198,,79,00,345,,86,24,074,,0*4E
$GAGSV,2,2,07,30,40,289,29,34,50,295,37,36,57,037,44,2*45
$GAGSV,2,1,07,02,41,216,35,05,18,149,30,09,29,095,34,11,14,072,29,7*72
$GAGSV,2,2,07,30,40,289,26,34,50,295,22,36,57,037,46,7*49
$GAGSV,2,1,05,04,11,044,,15,06,268,,18,43,306,,25,09,176,,0*7D
$GNRMC,041825.00,A,3727.0709686,N,12639.2838444,E,0.026,,220622,,,F,V*16
$GNVTG,,T,,M,0.026,N,0.048,K,D*30
$GNGGA,041825.00,3727.0709686,N,12639.2838444,E,5,12,0.65,30.913,M,17.838,M,,4095*74
$GNGSA,A,3,17,03,01,14,06,19,04,09,,,,,1.53,0.65,1.38,1*0D
$GNGSA,A,3,71,87,65,,,,,,,,,,1.53,0.65,1.38,2*06
$GNGSA,A,3,30,09,11,05,02,34,36,,,,,,1.53,0.65,1.38,3*02
$GNGSA,A,3,03,14,07,08,21,11,28,04,13,34,,,1.53,0.65,1.38,4*0B
$GPGSV,3,1,10,01,13,066,28,03,39,048,41,04,21,100,35,06,48,285,34,1*6C
$GPGSV,3,2,10,09,18,134,24,14,34,189,36,17,77,051,46,19,64,332,28,1*61
$GPGSV,3,3,10,28,,,41,50,47,179,41,1*56
$GPGSV,2,1,07,01,13,066,25,03,39,048,37,04,21,100,28,06,48,285,20,6*69
$GPGSV,2,2,07,09,18,134,31,14,34,189,35,17,77,051,38,6*5D
$GPGSV,2,1,06,02,10,267,,11,14,262,,12,07,324,,20,01,220,,0*61
$GPGSV,2,2,06,20,01,220,,40,06,259,,0*6C
$GLGSV,2,1,06,65,21,167,30,71,33,046,47,72,49,113,23,78,26,303,25,1*7F
$GLGSV,2,2,06,87,53,357,31,88,26,303,21,1*73
$GLGSV,2,1,06,65,21,167,30,71,33,046,32,72,49,113,26,77,26,240,10,3*75
$GLGSV,$GLGSV,1,1,03,76,02,198,,79,00,345,,86,24,074,,0*4E
$GAGSV,2,1,07,02,41,216,28,05,18,149,33,09,29,095,27,11,14,072,22,2*71
