$GNRMC,045928.00,A,3726.9498416,N,12639.2541954,E,0.005,,210622,,,R,V*0F
$GNVTG,,T,,M,0.005,N,0.009,K,D*34
$GNGNS,045928.00,3726.9498416,N,12639.2541954,E,RRRR,28,0.63,21.249,17.838,2.0,4095,V*08
$GNGGA,045928.00,3726.9498416,N,12639.2541954,E,4,12,0.63,21.249,M,17.838,M,2.0,4095*54
$GNGSA,A,3,17,09,12,19,02,11,06,14,,,,,1.16,0.63,0.97,1*09
$GNGSA,A,3,87,85,72,71,,,,,,,,,1.16,0.63,0.97,2*0E
$GNGSA,A,3,01,08,26,21,13,,,,,,,,1.16,0.63,0.97,3*02
$GNGSA,A,3,33,28,02,08,07,13,03,27,04,01,10,,1.16,0.63,0.97,4*0E
$GPGSV,4,1,13,02,21,280,32,03,24,044,22,04,27,082,16,06,58,311,47,1*6B
$GPGSV,4,2,13,09,30,120,43,11,25,275,38,12,19,315,29,14,17,184,26,1*6F
$GPGSV,4,3,13,17,70,110,45,19,79,001,48,20,14,226,43,28,,,44,1*56
$GPGSV,4,4,13,50,47,179,34,1*58
$GPGSV,2,1,08,03,24,044,16,04,27,082,18,06,58,311,39,09,30,120,35,6*65
$GPGSV,2,2,08,11,25,275,33,12,19,315,21,14,17,184,22,17,70,110,41,6*69
$GPGSV,1,1,01,01,02,078,,0*58
$GLGSV,2,1,06,70,22,033,10,71,57,085,48,72,38,163,44,77,23,278,12,1*7B
$GLGSV,2,2,06,85,19,090,26,87,32,317,32,1*7C
$GLGSV,2,1,05,71,57,085,36,72,38,163,32,77,23,278,14,85,19,090,17,3*78
$GLGSV,2,2,05,87,32,317,08,3*4C
$GLGSV,1,1,03,76,13,229,,78,09,331,,86,52,046,,0*4C
$GAGSV,2,1,06,01,25,304,33,03,25,059,20,08,36,118,44,13,65,358,44,2*72
$GAGSV,2,2,06,21,39,248,39,26,29,286,45,2*7F
$GAGSV,2,1,07,01,25,304,33,08,36,118,41,13,65,358,42,15,31,071,18,7*76
$GAGSV,2,2,07,18,22,124,43,21,39,248,36,26,29,286,46,7*4E
$GAGSV,1,1,02,07,14,169,,27,17,193,,0*72
$GBGSV,3,1,11,01,43,152,42,02,28,236,33,03,44,206,43,04,35,132,38,1*74
$GBGSV,3,2,11,07,61,215,43,08,53,268,41,10,62,244,42,13,44,261,42,1*71
$GBGSV,3,3,11,27,60,327,46,28,55,087,47,33,42,057,28,1*49
$GBGSV,2,1,07,01,43,152,42,03,44,206,42,04,35,132,43,07,61,215,42,3*72
$GBGSV,2,2,07,08,53,268,41,10,62,244,43,13,44,261,37,3*47
$GNRMC,045929.00,A,3726.9498395,N,12639.2541980,E,0.009,,210622,,,R,V*07
$GNVTG,,T,,M,0.009,N,0.017,K,D*37
$GNGNS,045929.00,3726.9498395,N,12639.2541980,E,RRRR,28,0.63,21.251,17.838,2.0,4095,V*05
$GNGGA,045929.00,3726.9498395,N,12639.2541980,E,4,12,0.63,21.251,M,17.838,M,2.0,4095*59
$GNGSA,A,3,17,09,12,19,02,11,06,14,,,,,1.16,0.63,0.97,1*09
$GNGSA,A,3,87,85,72,71,,,,,,,,,1.16,0.63,0.97,2*0E
$GNGSA,A,3,01,08,26,21,13,,,,,,,,1.16,0.63,0.97,3*02
$GNGSA,A,3,33,28,02,08,07,13,03,27,04,01,10,,1.16,0.63,0.97,4*0E
$GPGSV,4,1,13,02,21,280,34,03,24,044,22,04,27,082,16,06,58,311,47,1*6D
$GPGSV,4,2,13,09,30,120,43,11,25,275,35,12,19,315,32,14,17,184,29,1*67
$GPGSV,4,3,13,17,70,110,44,19,79,001,47,20,14,226,43,28,,,42,1*5E
$GPGSV,4,4,13,50,47,179,34,1*58
$GPGSV,2,1,08,03,24,044,16,04,27,082,18,06,58,311,41,09,30,120,36,6*69
$GPGSV,2,2,08,11,25,275,33,12,19,315,22,14,17,184,21,17,70,110,41,6*69
$GPGSV,1,1,01,01,02,078,,0*58
$GLGSV,2,1,06,70,22,033,07,71,57,085,48,72,38,163,45,77,23,278,15,1*7B
$GLGSV,2,2,06,85,19,090,26,87,32,317,33,1*7D
$GLGSV,2,1,05,71,57,085,39,72,38,163,35,77,23,278,18,85,19,090,16,3*7D
$GLGSV,2,2,05,87,32,317,09,3*4D
$GLGSV,1,1,03,76,13,229,,78,09,331,,86,52,046,,0*4C
$GAGSV,2,1,06,01,25,304,43,03,25,059,20,08,36,118,44,13,65,358,43,2*72
$GAGSV,2,2,06,21,39,248,38,26,29,286,40,2*7B
$GAGSV,2,1,07,01,25,304,43,08,36,118,41,13,65,358,43,15,31,071,18,7*70
$GAGSV,2,2,07,18,22,124,43,21,39,248,38,26,29,286,47,7*41
$GAGSV,1,1,02,07,14,169,,27,17,193,,0*72
$GBGSV,3,1,12,01,43,152,41,02,28,236,33,03,44,206,43,04,35,132,38,1*74
$GBGSV,3,2,12,07,61,215,43,08,53,268,42,10,62,244,42,13,44,261,40,1*73
$GBGSV,3,3,12,27,60,327,46,28,55,087,47,33,42,057,28,37,02,211,21,1*7D
$GBGSV,2,1,07,01,43,152,42,03,44,206,43,04,35,132,43,07,61,215,43,3*72
$GBGSV,2,2,07,08,53,268,42,10,62,244,41,13,44,261,36,3*47
$GBGSV,1,1,04,05,08,256,,14,19,042,,15,32,191,,30,13,301,,0*7B
$GNRMC,045930.00,A,3726.9498367,N,12639.2541969,E,0.008,,210622,,,R,V*04
$GNVTG,,T,,M,0.008,N,0.015,K,D*34
$GNGNS,045930.00,3726.9498367,N,12639.2541969,E,RRRR,28,0.63,21.268,17.838,2.0,4095,V*0D
$GNGGA,045930.00,3726.9498367,N,12639.2541969,E,4,12,0.63,21.268,M,17.838,M,2.0,4095*51
$GNGSA,A,3,17,09,12,19,02,11,06,14,,,,,1.16,0.63,0.97,1*09
$GNGSA,A,3,87,85,72,71,,,,,,,,,1.16,0.63,0.97,2*0E
$GNGSA,A,3,01,08,26,21,13,,,,,,,,1.16,0.63,0.97,3*02
$GNGSA,A,3,33,28,02,08,07,13,03,27,04,01,10,,1.16,0.63,0.97,4*0E
$GPGSV,4,1,13,02,21,280,35,03,24,044,22,04,27,082,17,06,58,311,47,1*6D
$GPGSV,4,2,13,09,30,120,42,11,25,275,35,12,19,315,32,14,17,184,28,1*67
$GPGSV,4,3,13,17,69,112,44,19,79,001,47,20,14,226,43,28,,,42,1*54
$GPGSV,4,4,13,50,47,179,34,1*58
$GPGSV,2,1,08,03,24,044,15,04,27,082,19,06,58,311,42,09,30,120,36,6*68
$GPGSV,2,2,08,11,25,275,31,12,19,315,26,14,17,184,23,17,69,112,41,6*67
$GPGSV,1,1,01,01,02,078,,0*58
$GLGSV,2,1,06,70,22,033,10,71,57,085,48,72,38,163,45,77,23,278,20,1*7B
$GLGSV,2,2,06,85,19,090,26,87,32,317,36,1*78
$GLGSV,2,1,05,71,57,085,39,72,38,163,35,77,23,278,12,85,19,090,17,3*76
$GLGSV,2,2,05,87,32,317,09,3*4D
$GLGSV,1,1,03,76,13,229,,78,09,331,,86,52,046,,0*4C
$GAGSV,2,1,06,01,25,304,41,03,25,059,21,08,36,118,44,13,65,358,43,2*71
$GAGSV,2,2,06,21,39,248,38,26,29,286,41,2*7A
$GAGSV,2,1,07,01,25,304,40,08,36,118,41,13,65,358,43,15,31,071,19,7*72
$GAGSV,2,2,07,18,22,124,43,21,39,248,37,26,29,286,47,7*4E
$GAGSV,1,1,02,07,14,169,,27,17,193,,0*72
$GNRMC,045931.00,A,3726.9498400,N,12639.2542001,E,0.020,,210622,,,R,V*0D
$GNVTG,,T,,M,0.020,N,0.038,K,D*31
$GNGNS,045931.00,3726.9498400,N,12639.2542001,E,RRRR,28,0.63,21.254,17.838,2.0,4095,V*01
$GNGGA,045931.00,3726.9498400,N,12639.2542001,E,4,12,0.63,21.254,M,17.838,M,2.0,4095*5D
$GNGSA,A,3,17,09,12,19,02,11,06,14,,,,,1.16,0.63,0.97,1*09
$GNGSA,A,3,87,85,72,71,,,,,,,,,1.16,0.63,0.97,2*0E
$GNGSA,A,3,01,08,26,21,13,,,,,,,,1.16,0.63,0.97,3*02
$GNGSA,A,3,33,28,02,08,07,13,03,27,04,01,10,,1.16,0.63,0.97,4*0E
$GPGSV,4,1,13,02,21,280,36,03,24,044,22,04,27,082,16,06,58,311,47,1*6F
$GPGSV,4,2,13,09,30,120,43,11,25,275,36,12,19,315,31,14,17,184,27,1*69
$GPGSV,4,3,13,17,69,112,44,19,79,001,46,20,14,226,43,28,,,41,1*56
$GPGSV,4,4,13,50,47,179,34,1*58
$GPGSV,2,1,08,03,24,044,15,04,27,082,19,06,58,311,42,09,30,120,36,6*68
$GPGSV,2,2,08,11,25,275,30,12,19,315,27,14,17,184,21,17,69,112,41,6*65
$GPGSV,1,1,01,01,02,078,,0*58
$GLGSV,2,1,06,70,22,033,09,71,57,085,48,72,38,163,45,77,23,278,23,1*70
$GLGSV,2,2,06,85,19,090,26,87,32,317,37,1*79
$GLGSV,2,1,05,71,57,085,39,72,38,163,34,77,23,278,14,85,19,090,17,3*71
$GLGSV,2,2,05,87,32,317,10,3*45
$GLGSV,1,1,03,76,13,229,,78,09,331,,86,52,046,,0*4C
$GAGSV,2,1,06,01,25,304,42,03,25,059,21,08,36,118,44,13,65,358,43,2*72
$GAGSV,2,2,06,21,39,248,38,26,29,286,41,2*7A
$GAGSV,2,1,07,01,25,304,41,08,36,118,41,13,65,358,43,15,31,071,20,7*79
$GAGSV,2,2,07,18,22,124,43,21,39,248,37,26,29,286,47,7*4E
$GAGSV,1,1,02,07,14,169,,27,17,193,,0*72
$GBGSV,3,1,12,01,43,152,41,02,28,236,33,03,44,206,43,04,35,132,38,1*74
$GBGSV,3,2,12,07,61,215,43,08,53,268,42,10,62,244,43,13,44,261,41,1*73
$GBGSV,3,3,12,27,60,327,47,28,55,087,47,33,42,057,28,37,02,211,17,1*79
$GBGSV,2,1,07,01,43,152,43,03,44,206,43,04,35,132,43,07,61,215,43,3*73
$GBGSV,2,2,07,08,53,268,41,10,62,244,42,13,44,261,36,3*47
$GBGSV,1,1,04,05,08,256,,14,19,042,,15,32,191,,30,13,301,,0*7B
$GNRMC,045932.00,A,3726.9498403,N,12639.2541978,E,0.015,,210622,,,R,V*0F
$GNVTG,,T,,M,0.015,N,0.028,K,D*36
$GNGNS,045932.00,3726.9498403,N,12639.2541978,E,RRRR,28,0.63,21.242,17.838,2.0,4095,V*02
$GNGGA,045932.00,3726.9498403,N,12639.2541978,E,4,12,0.63,21.242,M,17.838,M,2.0,4095*5E
$GNGSA,A,3,17,09,12,19,02,11,06,14,,,,,1.16,0.63,0.97,1*09
$GNGSA,A,3,87,85,72,71,,,,,,,,,1.16,0.63,0.97,2*0E
$GNGSA,A,3,01,08,26,21,13,,,,,,,,1.16,0.63,0.97,3*02
$GNGSA,A,3,33,28,02,08,07,13,03,27,04,01,10,,1.16,0.63,0.97,4*0E
$GPGSV,4,1,13,02,21,280,34,03,24,044,22,04,27,082,16,06,58,311,47,1*6D
$GPGSV,4,2,13,09,30,120,42,11,25,275,36,12,19,315,32,14,17,184,28,1*64
$GPGSV,4,3,13,17,69,112,44,19,80,004,46,20,14,226,42,28,,,42,1*57
$GPGSV,4,4,13,50,47,179,34,1*58
$GPGSV,2,1,08,03,24,044,15,04,27,082,18,06,58,311,41,09,30,120,36,6*6A
$GPGSV,2,2,08,11,25,275,31,12,19,315,27,14,17,184,22,17,69,112,41,6*67
$GPGSV,1,1,01,01,02,078,,0*58
$GLGSV,2,1,06,70,22,033,11,71,57,085,48,72,38,163,45,77,23,278,25,1*7F
$GLGSV,2,2,06,85,19,090,26,87,32,317,37,1*79
$GLGSV,2,1,05,71,57,085,38,72,38,163,35,77,23,278,17,85,19,090,17,3*72
$GLGSV,2,2,05,87,32,317,10,3*45
$GLGSV,1,1,03,76,13,229,,78,09,331,,86,52,046,,0*4C
$GAGSV,2,1,06,01,25,304,42,03,25,059,21,08,36,118,44,13,65,358,43,2*72
$GAGSV,2,2,06,21,39,248,38,26,29,286,41,2*7A
$GAGSV,2,1,07,01,25,304,41,08,36,118,40,13,65,358,42,15,31,071,20,7*79
$GAGSV,2,2,07,18,22,124,43,21,39,248,37,26,29,286,47,7*4E
$GAGSV,1,1,02,07,14,169,,27,17,193,,0*72
$GBGSV,3,1,12,01,43,152,41,02,28,236,33,03,44,206,42,04,35,132,38,1*75
$GNRMC,045933.00,A,3726.9498417,N,12639.2541959,E,0.008,,210622,,,R,V*04
$GNVTG,,T,,M,0.008,N,0.014,K,D*35
$GNGNS,045933.00,3726.9498417,N,12639.2541959,E,RRRR,28,0.63,21.228,17.838,1.0,4095,V*0A
$GNGGA,045933.00,3726.9498417,N,12639.2541959,E,4,12,0.63,21.228,M,17.838,M,1.0,4095*56
$GNGSA,A,3,17,09,12,19,02,11,06,14,,,,,1.16,0.63,0.97,1*09
$GNGSA,A,3,87,85,72,71,,,,,,,,,1.16,0.63,0.97,2*0E
$GNGSA,A,3,01,08,26,21,13,,,,,,,,1.16,0.63,0.97,3*02
$GNGSA,A,3,33,28,02,08,07,13,03,27,04,01,10,,1.16,0.63,0.97,4*0E
$GPGSV,4,1,13,02,21,280,34,03,24,044,22,04,27,082,16,06,58,311,47,1*6D
$GPGSV,4,2,13,09,30,120,42,11,25,275,36,12,19,315,31,14,17,184,28,1*67
$GPGSV,4,3,13,17,69,112,44,19,80,004,46,20,15,226,42,28,,,42,1*56
$GPGSV,4,4,13,50,47,179,34,1*58
$GPGSV,2,1,08,03,24,044,14,04,27,082,18,06,58,311,41,09,30,120,35,6*68
$GPGSV,2,2,08,11,25,275,32,12,19,315,27,14,17,184,21,17,69,112,41,6*67
$GPGSV,1,1,01,01,02,078,,0*58
$GLGSV,2,1,06,70,22,033,11,71,57,085,48,72,38,163,46,77,23,278,24,1*7D
$GLGSV,2,2,06,85,19,090,25,87,32,317,36,1*7B
$GLGSV,2,1,05,71,57,085,38,72,38,163,35,77,23,278,18,85,19,090,15,3*7F
$GLGSV,2,2,05,87,32,317,09,3*4D
$GLGSV,1,1,03,76,13,229,,78,09,331,,86,52,046,,0*4C
$GAGSV,2,1,06,01,25,304,42,03,25,059,22,08,36,118,44,13,65,358,43,2*71
$GAGSV,2,2,06,21,39,248,38,26,29,286,41,2*7A
$GAGSV,2,1,07,01,25,304,41,08,36,118,40,13,65,358,42,15,31,071,20,7*79
$GAGSV,2,2,07,18,22,124,43,21,39,248,37,26,29,286,47,7*4E
$GAGSV,1,1,02,07,14,169,,27,17,193,,0*72
$GBGSV,3,1,12,01,43,152,41,02,28,236,33,03,44,206,43,04,35,132,38,1*74
$GBGSV,3,2,12,07,61,215,43,08,53,268,42,10,62,244,43,13,44,261,40,1*72
$GBGSV,3,3,12,27,60,327,46,28,55,087,47,33,42,057,28,37,02,211,17,1*78
$GBGSV,2,1,07,01,43,152,43,03,44,206,43,04,35,132,43,07,61,215,43,3*73
$GBGSV,2,2,07,08,53,268,42,10,62,244,42,13,44,261,37,3*45
$GBGSV,1,1,04,05,08,256,,14,19,042,,15,32,191,,30,13,301,,0*7B
$GNRMC,045934.00,A,3726.9498404,N,12639.2541954,E,0.008,,210622,,,R,V*0C
$GNVTG,,T,,M,0.008,N,0.015,K,D*34
$GNGNS,045934.00,3726.9498404,N,12639.2541954,E,RRRR,28,0.63,21.227,17.838,2.0,4095,V*0E
$GNGGA,045934.00,3726.9498404,N,12639.2541954,E,4,12,0.63,21.227,M,17.838,M,2.0,4095*52
$GNGSA,A,3,17,09,12,19,02,11,06,14,,,,,1.16,0.63,0.97,1*09
$GNGSA,A,3,87,85,72,71,,,,,,,,,1.16,0.63,0.97,2*0E
$GNGSA,A,3,01,08,26,21,13,,,,,,,,1.16,0.63,0.97,3*02
$GNGSA,A,3,33,28,02,08,07,13,03,27,04,01,10,,1.16,0.63,0.97,4*0E
$GPGSV,4,1,13,02,21,280,35,03,24,044,22,04,27,082,16,06,58,311,47,1*6C
$GPGSV,4,2,13,09,30,120,43,11,25,275,37,12,19,315,31,14,17,184,28,1*67
$GPGSV,4,3,13,17,69,112,44,19,80,004,46,20,15,226,42,28,,,42,1*56
$GPGSV,4,4,13,50,47,179,34,1*58
$GPGSV,2,1,08,03,24,044,14,04,27,082,18,06,58,311,42,09,30,120,35,6*6B
$GPGSV,2,2,08,11,25,275,31,12,19,315,28,14,17,184,21,17,69,112,41,6*6B
$GPGSV,1,1,01,01,02,078,,0*58
$GLGSV,2,1,06,70,22,033,11,71,57,085,48,72,38,163,46,77,23,278,24,1*7D
$GLGSV,2,2,06,85,19,090,25,87,32,317,36,1*7B
$GLGSV,1,1,04,71,57,085,38,72,38,163,35,77,23,278,15,87,32,317,09,3*7A
$GLGSV,1,1,03,76,13,229,,78,09,331,,86,52,046,,0*4C
$GAGSV,2,1,06,01,25,304,42,03,25,059,21,08,36,118,44,13,65,358,43,2*72
$GAGSV,2,2,06,21,39,248,38,26,29,286,41,2*7A
$GNRMC,045935.00,A,3726.9498397,N,12639.2541933,E,0.008,,210622,,,R,V*01
$GNVTG,,T,,M,0.008,N,0.015,K,D*34
$GNGNS,045935.00,3726.9498397,N,12639.2541933,E,RRRR,28,0.63,21.233,17.838,2.0,4095,V*06
$GNGGA,045935.00,3726.9498397,N,12639.2541933,E,4,12,0.63,21.233,M,17.838,M,2.0,4095*5A
$GNGSA,A,3,17,09,12,19,02,11,06,14,,,,,1.16,0.63,0.97,1*09
$GNGSA,A,3,87,85,72,71,,,,,,,,,1.16,0.63,0.97,2*0E
$GNGSA,A,3,01,08,26,21,13,,,,,,,,1.16,0.63,0.97,3*02
$GNGSA,A,3,33,28,02,08,07,13,03,27,04,01,10,,1.16,0.63,0.97,4*0E
$GPGSV,4,1,13,02,21,280,35,03,24,044,22,04,27,082,18,06,58,311,47,1*62
$GPGSV,4,2,13,09,30,120,43,11,25,275,36,12,19,315,30,14,17,184,27,1*68
$GPGSV,4,3,13,17,69,112,44,19,80,004,47,20,15,226,42,28,,,43,1*56
$GPGSV,4,4,13,50,47,179,34,1*58
$GPGSV,2,1,08,03,24,044,13,04,27,082,18,06,58,311,41,09,30,120,35,6*6F
$GPGSV,2,2,08,11,25,275,31,12,19,315,28,14,17,184,21,17,69,112,40,6*6A
$GPGSV,1,1,01,01,02,078,,0*58
$GLGSV,2,1,06,70,22,033,08,71,57,085,49,72,38,163,46,77,23,278,24,1*74
$GLGSV,2,2,06,85,19,090,23,87,32,317,37,1*7C
$GLGSV,1,1,04,71,57,085,38,72,38,163,35,77,23,278,13,87,32,317,09,3*7C
$GLGSV,1,1,03,76,13,229,,78,09,331,,86,52,046,,0*4C
$GAGSV,2,1,06,01,25,304,42,03,25,059,21,08,36,118,44,13,65,358,43,2*72
$GAGSV,2,2,06,21,39,248,38,26,29,286,41,2*7A
$GAGSV,2,1,07,01,25,304,41,08,36,118,40,13,65,358,43,15,31,071,21,7*79
$GAGSV,2,2,07,18,22,124,43,21,39,248,38,26,29,286,47,7*41
$GAGSV,1,1,02,07,14,169,,27,17,193,,0*72
$GBGSV,3,1,12,01,43,152,40,02,28,236,34,03,44,206,43,04,35,132,38,1*72
$GBGSV,3,2,12,07,61,215,43,08,53,268,42,10,62,244,43,13,44,261,40,1*72
$GBGSV,3,3,12,27,60,327,46,28,55,087,47,33,42,057,27,37,02,211,18,1*78
$GBGSV,2,1,07,01,43,152,43,03,44,206,43,04,35,132,43,07,61,215,42,3*72
$GBGSV,2,2,07,08,53,268,42,10,62,244,42,13,44,261,37,3*45
$GBGSV,1,1,04,05,08,256,,14,19,042,,15,32,191,,30,13,301,,0*7B
$GNGSA,A,3,87,72,71,,,,,,,,,,1.20,0.64,1.02,2*0C
$GNGSA,A,3,01,08,26,21,13,,,,,,,,1.20,0.64,1.02,3*0D
$GNGSA,A,3,33,28,02,08,07,13,03,27,04,01,10,,1.20,0.64,1.02,4*01
$GPGSV,4,1,13,02,21,280,35,03,24,044,22,04,27,082,18,06,58,311,47,1*62
$GPGSV,4,2,13,09,30,120,42,11,25,275,36,12,19,315,30,14,17,184,27,1*69
$GPGSV,4,3,13,17,69,112,44,19,80,004,47,20,15,226,42,28,,,42,1*57
$GPGSV,4,4,13,50,47,179,34,1*58
$GPGSV,2,2,08,11,25,275,30,12,19,315,28,14,17,184,22,17,69,112,40,6*68
$GPGSV,1,1,01,01,02,078,,0*58
$GLGSV,2,1,06,70,22,033,07,71,57,085,49,72,38,163,46,77,23,278,23,1*7C
$GLGSV,2,2,06,85,19,090,22,87,32,317,37,1*7D
$GLGSV,1,1,04,71,57,085,38,72,38,163,35,77,23,278,10,87,32,317,09,3*7F
$GLGSV,1,1,03,76,13,229,,78,09,331,,86,52,046,,0*4C
$GAGSV,2,1,06,01,25,304,42,03,25,059,21,08,36,118,44,13,65,358,43,2*72
$GAGSV,2,2,06,21,39,248,38,26,29,286,41,2*7A
$GAGSV,2,1,07,01,25,304,42,08,36,118,40,13,65,358,43,15,31,071,21,7*7A
$GAGSV,2,2,07,18,22,124,43,21,39,248,39,26,29,286,47,7*40
$GAGSV,1,1,02,07,14,169,,27,17,193,,0*72
$GBGSV,3,1,12,01,43,152,41,02,28,236,33,03,44,206,43,04,35,132,38,1*74
$GBGSV,3,2,12,07,61,215,43,08,53,268,42,10,62,244,42,13,44,261,40,1*73
$GBGSV,3,3,12,27,60,327,47,28,55,087,47,33,42,057,27,37,02,211,16,1*77
$GBGSV,2,1,07,01,43,152,43,03,44,206,43,04,35,132,43,07,61,215,42,3*72
$GBGSV,2,2,07,08,53,268,42,$GNRMC,045937.00,A,3726.9498415,N,12639.2541949,E,0.010,,210622,,,R,V*0A
$GNVTG,,T,,M,0.010,N,0.018,K,D*30
$GNGNS,045937.00,3726.9498415,N,12639.2541949,E,RRRR,28,0.64,21.224,17.838,2.0,4095,V*05
$GNGGA,045937.00,3726.9498415,N,12639.2541949,E,4,12,0.64,21.224,M,17.838,M,2.0,4095*59
$GNGSA,A,3,17,09,12,19,04,02,11,06,14,,,,1.20,0.64,1.02,1*02
$GNGSA,A,3,87,72,71,,,,,,,,,,1.20,0.64,1.02,2*0C
$GNGSA,A,3,01,08,26,21,13,,,,,,,,1.20,0.64,1.02,3*0D
$GNGSA,A,3,33,28,02,08,07,13,03,27,04,01,10,,1.20,0.64,1.02,4*01
$GPGSV,4,1,13,02,21,280,36,03,24,044,23,04,27,082,19,06,58,311,48,1*6E
$GPGSV,4,2,13,09,30,120,43,11,25,275,36,12,19,315,31,14,17,184,27,1*69
$GPGSV,4,3,13,17,69,112,44,19,80,004,47,20,15,226,43,28,,,43,1*57
$GPGSV,4,4,13,50,47,179,34,1*58
$GPGSV,2,1,08,03,24,044,11,04,27,082,17,06,58,311,41,09,30,120,35,6*62
$GPGSV,2,2,08,11,25,275,30,12,19,315,28,14,17,184,23,17,69,112,40,6*69
$GPGSV,1,1,01,01,02,078,,0*58
$GLGSV,2,1,06,70,22,033,11,71,57,085,49,72,38,163,46,77,23,278,22,1*7A
$GLGSV,2,2,06,85,19,090,22,87,32,317,37,1*7D
$GLGSV,1,1,04,71,57,085,38,72,38,163,35,77,23,278,07,87,32,317,08,3*78
$GLGSV,1,1,03,76,13,229,,78,09,331,,86,52,046,,0*4C
$GAGSV,2,1,06,01,25,304,42,03,25,059,22,08,36,118,44,13,65,358,43,2*71
$GAGSV,2,2,06,21,39,248,38,26,29,286,41,2*7A
$GAGSV,2,1,07,01,25,304,42,08,36,118,40,13,65,358,43,15,31,071,22,7*79
$GAGSV,2,2,07,18,22,124,44,21,39,248,39,26,29,286,47,7*47
$GAGSV,1,1,02,07,14,169,,27,17,193,,0*72
$GBGSV,3,1,12,01,43,152,41,02,28,236,33,03,44,206,43,04,35,132,38,1*74
$GBGSV,3,2,12,07,61,215,43,08,53,268,42,10,62,244,43,13,44,261,40,1*72
$GBGSV,3,3,12,27,60,327,47,28,55,087,47,33,42,057,27,37,02,211,16,1*77
$GBGSV,2,1,07,01,43,152,43,03,44,206,43,04,35,132,43,07,61,215,42,3*72
$GBGSV,2,2,07,08,53,268,42,10,62,244,42,13,44,261,37,3*45
$GBGSV,1,1,04,05,08,256,,14,19,042,,15,32,191,,30,13,301,,0*7B
$GNRMC,045938.00,A,3726.9498416,N,12639.2541942,E,0.007,,210622,,,R,V*0B
$GNVTG,,T,,M,0.007,N,0.013,K,D*3D
$GNGNS,045938.00,3726.9498416,N,12639.2541942,E,RRRR,28,0.70,21.227,17.838,2.0,4095,V*04
$GNGGA,045938.00,3726.9498416,N,12639.2541942,E,4,12,0.70,21.227,M,17.838,M,2.0,4095*58
$GNGSA,A,3,17,09,12,19,04,02,11,06,14,,,,1.31,0.70,1.10,1*04
$GNGSA,A,3,87,72,71,,,,,,,,,,1.31,0.70,1.10,2*0A
$GNGSA,A,3,01,08,26,21,13,,,,,,,,1.31,0.70,1.10,3*0B
$GNGSA,A,3,33,28,02,08,07,13,03,27,04,01,10,,1.31,0.70,1.10,4*07
$GPGSV,4,1,13,02,21,280,35,03,24,044,23,04,27,082,19,06,58,311,48,1*6D
$GPGSV,4,2,13,09,30,120,43,11,25,275,36,12,19,315,30,14,17,184,27,1*68
$GPGSV,4,3,13,17,69,112,44,19,80,004,47,20,15,226,42,28,,,43,1*56
$GPGSV,4,4,13,50,47,179,34,1*58
$GPGSV,2,1,07,04,27,082,18,06,58,311,41,09,30,120,36,11,25,275,31,6*61
$GPGSV,2,2,07,12,19,315,29,14,17,184,24,17,69,112,41,6*55
$GPGSV,1,1,01,01,02,078,,0*58
$GLGSV,2,1,06,70,22,033,09,71,57,085,49,72,38,163,46,77,23,278,21,1*70
$GLGSV,2,2,06,85,19,090,23,87,32,317,37,1*7C
$GLGSV,1,1,04,71,57,085,38,72,38,163,35,77,23,278,07,87,32,317,08,3*78
$GLGSV,1,1,03,76,13,229,,78,09,331,,86,52,046,,0*4C
$GAGSV,2,1,06,01,25,304,42,03,25,059,22,08,36,118,44,13,65,358,43,2*71
$GAGSV,2,2,06,21,39,248,38,26,29,286,41,2*7A
$GAGSV,2,1,07,01,25,304,42,08,36,118,40,13,65,358,42,15,31,071,22,7*78
$GAGSV,2,2,07,18,22,124,44,21,39,248,39,26,29,286,47,7*47
$GAGSV,1,1,02,07,14,169,,27,17,193,,0*72
$GBGSV,3,1,12,01,43,152,40,02,28,236,33,03,44,206,43,04,35,132,38,1*75
$GBGSV,3,2,12,07,61,215,43,08,53,268,42,10,62,244,43,13,44,261,40,1*72
$GBGSV,3,3,12,27,60,327,47,28,55,087,47,33,42,057,27,37,02,211,14,1*75
$GBGSV,2,1,07,01,43,152,43,03,44,206,43,04,35,132,43,07,61,215,42,3*72
$GBGSV,2,2,07,08,53,268,42,10,62,244,42,13,44,261,37,3*45
$GBGSV,1,1,04,05,08,256,,14,19,042,,15,32,191,,30,13,301,,0*7B
$GNRMC,045939.00,A,3726.9498399,N,12639.2541949,E,0.006,,210622,,,R,V*00
$GNVTG,,T,,M,0.006,N,0.012,K,D*3D
$GNGNS,045939.00,3726.9498399,N,12639.2541949,E,RRRR,28,0.70,21.223,17.838,2.0,4095,V*0A
$GNGSA,A,3,17,09,12,19,04,02,11,06,14,,,,1.31,0.70,1.10,1*04
$GNGSA,A,3,87,72,71,,,,,,,,,,1.31,0.70,1.10,2*0A
$GNGSA,A,3,01,08,26,21,13,,,,,,,,1.31,0.70,1.10,3*0B
$GNGSA,A,3,33,28,02,08,07,13,03,27,04,01,10,,1.31,0.70,1.10,4*07
$GPGSV,4,1,13,02,21,280,35,03,24,044,23,04,27,082,21,06,58,311,48,1*66
$GPGSV,4,2,13,09,30,120,43,11,25,275,36,12,19,315,31,14,17,184,28,1*66
$GPGSV,4,3,13,17,69,112,44,19,80,004,47,20,15,226,42,28,,,43,1*56
$GPGSV,4,4,13,50,47,179,34,1*58
$GPGSV,2,1,07,04,27,082,17,06,58,311,41,09,30,120,36,11,25,275,31,6*6E
$GPGSV,2,2,07,12,19,315,29,14,17,184,24,17,69,112,40,6*54
$GPGSV,1,1,01,01,02,078,,0*58
$GLGSV,2,1,06,70,22,033,12,71,57,085,49,72,38,163,46,77,23,278,22,1*79
$GLGSV,2,2,06,85,19,090,23,87,32,317,37,1*7C
$GLGSV,1,1,04,71,57,085,38,72,38,163,36,77,23,278,12,87,32,317,09,3*7E
$GLGSV,1,1,03,76,13,229,,78,09,331,,86,52,046,,0*4C
$GAGSV,2,1,06,01,25,304,43,03,25,059,22,08,36,118,44,1$GAGSV,2,2,06,21,39,248,38,26,29,286,41,2*7A
$GAGSV,2,1,07,01,25,304,41,08,36,118,40,13,65,358,42,15,31,071,22,7*7B
$GAGSV,2,2,07,18,22,124,44,21,39,248,40,26,29,286,47,7*49
$GAGSV,1,1,02,07,14,169,,27,17,193,,0*72
$GBGSV,3,1,12,01,43,152,41,02,28,236,33,03,44,206,43,04,35,132,37,1*7B
$GBGSV,3,2,12,07,61,215,43,08,53,268,42,10,62,244,43,13,44,261,40,1*72
$GBGSV,3,3,12,27,60,327,47,28,55,087,47,33,42,057,27,37,02,211,12,1*73
$GBGSV,2,1,07,01,43,152,43,03,44,206,43,04,35,132,43,07,61,215,42,3*72
$GBGSV,2,2,07,08,53,268,42,10,62,244,42,13,44,261,37,3*45
$GBGSV,1,1,04,05,08,256,,14,19,042,,15,32,191,,30,13,301,,0*7B
$GNRMC,045940.00,A,3726.9498388,N,12639.2541939,E,0.004,,210622,,,R,V*0B
$GNVTG,,T,,M,0.004,N,0.008,K,D*34
$GNGNS,045940.00,3726.9498388,N,12639.2541939,E,RRRR,28,0.70,21.232,17.838,2.0,4095,V*03
$GNGGA,045940.00,3726.9498388,N,12639.2541939,E,4,12,0.70,21.232,M,17.838,M,2.0,4095*5F
$GNGSA,A,3,17,09,12,19,04,02,11,06,14,,,,1.31,0.70,1.10,1*04
$GNGSA,A,3,87,72,71,,,,,,,,,,1.31,0.70,1.10,2*0A
$GNGSA,A,3,01,08,26,21,13,,,,,,,,1.31,0.70,1.10,3*0B
$GNGSA,A,3,33,28,02,08,07,13,03,27,04,01,10,,1.31,0.70,1.10,4*07
$GPGSV,4,1,13,02,21,280,36,03,24,044,23,04,27,082,22,06,58,311,48,1*66
$GPGSV,4,2,13,09,30,120,43,11,25,275,36,12,19,315,31,14,17,184,28,1*66
$GPGSV,4,3,13,17,69,112,44,19,80,004,47,20,15,226,42,28,,,42,1*57
$GPGSV,4,4,13,50,47,179,34,1*58
$GPGSV,2,1,07,04,27,082,17,06,58,311,42,09,30,120,36,11,25,275,31,6*6D
$GPGSV,2,2,07,12,19,315,29,14,17,184,24,17,69,112,40,6*54
$GPGSV,1,1,01,01,02,078,,0*58
$GLGSV,2,1,06,70,22,033,10,71,57,085,49,72,38,163,46,77,23,278,21,1*78
$GLGSV,2,2,06,85,19,090,23,87,32,317,37,1*7C
$GLGSV,1,1,04,71,57,085,38,72,38,163,36,77,23,278,10,87,32,317,09,3*7C
$GLGSV,1,1,03,76,13,229,,78,09,331,,86,52,046,,0*4C
$GAGSV,2,1,06,01,25,304,43,03,25,059,22,08,36,118,44,13,65,358,43,2*70
$GAGSV,2,2,06,21,39,248,39,26,29,286,41,2*7B
$GAGSV,2,1,07,01,25,304,42,08,36,118,40,13,65,358,42,15,31,071,22,7*78
$GAGSV,2,2,07,18,22,124,43,21,39,248,40,26,29,286,47,7*4E
$GAGSV,1,1,02,07,14,169,,27,17,193,,0*72
$GBGSV,3,1,12,01,43,152,41,02,28,236,33,03,44,206,43,04,35,132,38,1*74
$GBGSV,3,2,12,07,61,215,43,08,53,268,42,10,62,244,42,13,44,261,40,1*73
$GBGSV,3,3,12,27,60,327,47,28,55,087,47,33,42,057,26,37,02,211,10,1*70
$GBGSV,2,1,07,01,43,152,43,03,44,206,43,04,35,132,43,07,61,215,42,3*72
$GBGSV,2,2,07,08,53,268,42,10,62,244,42,13,44,261,38,3*4A
$GBGSV,1,1,04,05,08,256,,14,19,042,,15,32,191,,30,13,301,,0*7B
$GNRMC,045941.00,A,3726.9498361,N,12639.2541940,E,0.008,,210622,,,R,V*0F
$GNVTG,,T,,M,0.008,N,0.014,K,D*35
$GNGNS,045941.00,3726.9498361,N,12639.2541940,E,RRRR,28,0.70,21.229,17.838,2.0,4095,V*01
$GNGGA,045941.00,3726.9498361,N,12639.2541940,E,4,12,0.70,21.229,M,17.838,M,2.0,4095*5D
$GNGSA,A,3,17,09,12,19,04,02,11,06,14,,,,1.31,0.70,1.10,1*04
$GNGSA,A,3,87,72,71,,,,,,,,,,1.31,0.70,1.10,2*0A
$GNGSA,A,3,01,08,26,21,13,,,,,,,,1.31,0.70,1.10,3*0B
$GNGSA,A,3,33,28,02,08,07,13,03,27,04,01,10,,1.31,0.70,1.10,4*07
$GPGSV,4,1,13,02,21,280,36,03,24,044,23,04,27,082,23,06,58,311,48,1*67
$GPGSV,4,2,13,09,30,120,43,11,25,275,36,12,19,315,31,14,17,184,31,1*6E
$GPGSV,4,3,13,17,69,112,44,19,80,004,47,20,15,226,42,28,,,42,1*57
$GPGSV,4,4,13,50,47,179,34,1*58
$GPGSV,2,1,07,04,27,082,17,06,58,311,43,09,30,120,37,11,25,275,33,6*6F
$GPGSV,2,2,07,12,19,315,29,14,17,184,24,17,69,112,42,6*56
$GPGSV,1,1,01,01,02,078,,0*58
$GLGSV,2,1,06,70,22,033,15,71,57,085,49,72,38,163,46,77,23,278,22,1*7E
$GLGSV,2,2,06,85,19,090,23,87,32,317,37,1*7C
$GLGSV,1,1,04,71,57,085,38,72,38,163,36,77,23,278,15,87,32,317,10,3*71
$GLGSV,1,1,03,76,13,229,,78,09,331,,86,52,046,,0*4C
$GAGSV,2,1,06,01,25,304,43,03,25,059,22,08,36,118,44,13,65,358,43,2*70
$GAGSV,2,2,06,21,39,248,39,26,29,286,42,2*78
$GAGSV,2,1,07,01,25,304,42,08,36,118,40,13,65,358,42,15,31,071,22,7*78
$GAGSV,2,2,07,18,22,124,44,21,39,248,40,26,29,286,47,7*49
$GAGSV,1,1,02,07,14,169,,27,17,193,,0*72
$GBGSV,3,1,12,01,43,152,40,02,28,236,33,03,44,206,43,04,35,132,38,1*75
$GBGSV,3,2,12,07,61,215,43,08,53,268,42,10,62,244,42,13,44,261,40,1*73
$GBGSV,3,3,12,27,60,327,47,28,55,087,47,33,42,057,26,37,02,211,13,1*73
$GBGSV,2,1,07,01,43,152,43,03,44,206,43,04,35,132,43,07,61,215,42,3*72
$GBGSV,2,2,07,08,53,268,42,10,62,244,42,13,44,261,38,3*4A
$GBGSV,1,1,04,05,08,256,,14,19,042,,15,32,191,,30,13,301,,0*7B
$GNRMC,045942.00,A,3726.9498382,N,12639.2541924,E,0.011,,210622,,,R,V*0B
$GNVTG,,T,,M,0.011,N,0.020,K,D*3A
$GNGNS,045942.00,3726.9498382,N,12639.2541924,E,RRRR,28,0.70,21.230,17.838,2.0,4095,V*05
$GPGSV,4,1,13,02,21,280,36,03,24,044,23,04,27,082,25,06,58,311,48,1*61
$GPGSV,4,2,13,09,30,120,43,11,25,275,36,12,19,315,31,14,17,184,32,1*6D
$GPGSV,4,3,13,17,69,112,44,19,80,004,47,20,15,226,41,28,,,42,1*54
$GPGSV,4,4,13,50,47,179,34,1*58
$GPGSV,1,1,01,03,24,044,18,5*5D
$GPGSV,2,1,07,04,27,082,16,06,58,311,42,09,30,120,36,11,25,275,32,6*6F
$GPGSV,2,2,07,12,19,315,29,14,17,184,24,17,69,112,41,6*55
$GPGSV,1,1,01,01,02,078,,0*58
$GLGSV,2,1,06,70,22,033,09,71,57,085,49,72,38,163,46,77,23,278,22,1*73
$GLGSV,2,2,06,85,19,090,22,87,32,317,37,1*7D
$GLGSV,1,1,04,71,57,085,38,72,38,163,36,77,23,278,13,87,32,317,10,3*77
$GLGSV,1,1,03,76,13,229,,78,09,331,,86,52,046,,0*4C
$GAGSV,2,1,06,01,25,304,43,03,25,059,22,08,36,118,44,13,65,358,43,2*70
$GAGSV,2,2,06,21,39,248,39,26,29,286,42,2*78
$GAGSV,2,1,07,01,25,304,41,08,36,118,40,13,65,358,42,15,31,071,22,7*7B
$GAGSV,2,2,07,18,22,124,43,21,39,248,40,26,29,286,47,7*4E
$GNRMC,045943.00,A,3726.9498382,N,12639.2541921,E,0.009,,210622,,,R,V*06
$GNVTG,,T,,M,0.009,N,0.016,K,D*36
$GNGNS,045943.00,3726.9498382,N,12639.2541921,E,RRRR,28,0.70,21.237,17.838,1.0,4095,V*05
$GNGGA,045943.00,3726.9498382,N,12639.2541921,E,4,12,0.70,21.237,M,17.838,M,1.0,4095*59
$GNGSA,A,3,17,09,12,19,04,02,11,06,14,,,,1.31,0.70,1.10,1*04
$GNGSA,A,3,87,72,71,,,,,,,,,,1.31,0.70,1.10,2*0A
$GNGSA,A,3,01,08,26,21,13,,,,,,,,1.31,0.70,1.10,3*0B
$GNGSA,A,3,33,28,02,08,07,13,03,27,04,01,10,,1.31,0.70,1.10,4*07
$GPGSV,4,1,13,02,21,280,36,03,24,044,23,04,27,082,26,06,58,311,48,1*62
$GPGSV,4,2,13,09,30,120,43,11,25,275,36,12,19,315,31,14,17,184,32,1*6D
$GPGSV,4,3,13,17,69,112,44,19,80,004,47,20,15,226,41,28,,,42,1*54
$GPGSV,4,4,13,50,47,179,34,1*58
$GPGSV,2,1,08,03,24,044,15,04,27,082,16,06,58,311,43,09,30,120,36,6*66
$GPGSV,2,2,08,11,25,275,32,12,19,315,29,14,17,184,25,17,69,112,41,6*6D
$GPGSV,1,1,01,01,02,078,,0*58
$GLGSV,2,1,06,70,22,033,08,71,57,085,49,72,38,163,46,77,23,278,23,1*73
$GLGSV,2,2,06,85,19,090,21,87,32,317,37,1*7E
$GLGSV,1,1,04,71,57,085,38,72,38,163,37,77,23,278,15,87,32,317,08,3*79
$GLGSV,1,1,03,76,13,229,,78,09,331,,86,52,046,,0*4C
$GAGSV,2,1,06,01,25,304,43,03,25,059,22,08,36,118,44,13,65,358,43,2*70
$GAGSV,2,2,06,21,39,248,39,26,29,286,42,2*78
$GAGSV,2,1,07,01,25,304,41,08,36,118,40,13,65,358,42,15,31,071,23,7*7A
$GAGSV,2,2,07,18,22,124,43,21,39,248,40,26,29,286,47,7*4E
$GAGSV,1,1,02,07,14,169,,27,17,193,,0*72
$GBGSV,3,1,12,01,43,152,41,02,28,236,33,03,44,206,42,04,35,132,38,1*75
$GBGSV,3,2,12,07,61,215,43,08,53,268,42,10,62,244,42,13,44,261,40,1*73
$GBGSV,3,3,12,27,60,327,47,28,55,087,47,33,42,057,26,37,02,211,12,1*72
$GBGSV,2,1,07,01,43,152,43,03,44,206,43,04,35,132,43,07,61,215,42,3*72
$GBGSV,2,2,07,08,53,268,42,10,62,244,42,13,44,261,38,3*4A
$GBGSV,1,1,04,05,08,256,,14,19,042,,15,32,191,,30,13,301,,0*7B
$GNRMC,045944.00,A,3726.9498427,N,12639.2541934,E,0.018,,210622,,,R,V*0D
$GNVTG,,T,,M,0.018,N,0.034,K,D*36
$GNGNS,045944.00,3726.9498427,N,12639.2541934,E,RRRR,28,0.70,21.234,17.838,2.0,4095,V*0E
$GNGGA,045944.00,3726.9498427,N,12639.2541934,E,4,12,0.70,21.234,M,17.838,M,2.0,4095*52
$GNGSA,A,3,17,09,12,19,04,02,11,06,14,,,,1.31,0.70,1.10,1*04
$GNGSA,A,3,87,72,71,,,,,,,,,,1.31,0.70,1.10,2*0A
$GNGSA,A,3,01,08,26,21,13,,,,,,,,1.31,0.70,1.10,3*0B
$GNGSA,A,3,33,28,02,08,07,13,03,27,04,01,10,,1.31,0.70,1.10,4*07
$GPGSV,4,1,13,02,21,280,35,03,24,044,23,04,27,082,26,06,58,311,48,1*61
$GPGSV,4,2,13,09,30,120,43,11,25,275,36,12,19,315,31,14,17,184,33,1*6C
$GPGSV,4,3,13,17,69,112,44,19,80,004,47,20,15,226,41,28,,,41,1*57
$GPGSV,4,4,13,50,47,179,34,1*58
$GPGSV,2,1,08,03,24,044,12,04,27,082,16,06,58,311,43,09,30,120,36,6*61
$GPGSV,2,2,08,11,25,275,33,12,19,315,30,14,17,184,26,17,69,112,42,6*64
$GPGSV,1,1,01,01,02,078,,0*58
$GLGSV,2,1,06,70,22,033,09,71,57,085,48,72,38,163,46,77,23,278,23,1*73
$GLGSV,2,2,06,85,19,090,21,87,32,317,37,1*7E
$GLGSV,1,1,04,71,57,085,38,72,38,163,37,77,23,278,17,87,32,317,08,3*7B
$GLGSV,1,1,03,76,13,229,,78,09,331,,86,52,046,,0*4C
$GAGSV,2,1,06,01,25,304,43,03,25,059,22,08,36,118,44,13,65,358,43,2*70
$GAGSV,2,2,06,21,39,248,39,26,29,286,41,2*7B
$GAGSV,2,1,07,01,25,304,41,08,36,118,40,13,65,358,42,15,31,071,22,7*7B
$GAGSV,2,2,07,18,22,124,44,21,39,248,41,26,29,286,47,7*48
$GAGSV,1,1,02,07,14,169,,27,17,193,,0*72
$GBGSV,3,1,12,01,43,152,40,02,28,236,34,03,44,206,42,04,35,132,38,1*73
$GBGSV,3,2,12,07,61,215,43,08,53,268,42,10,62,244,43,13,44,261,41,1*73
$GBGSV,3,3,12,27,60,327,47,28,55,087,47,33,42,057,26,37,02,211,17,1*77
$GBGSV,2,1,07,01,43,152,43,03,44,206,43,04,35,132,43,07,61,215,42,3*72
$GBGSV,2,2,07,08,53,268,42,10,62,244,42,13,44,261,38,3*4A
$GBGSV,1,1,04,05,08,256,,14,19,042,,15,32,191,,30,13,301,,0*7B
$GNRMC,045945.00,A,3726.9498404,N,12639.2541939,E,0.011,,210622,,,R,V*09
$GNVTG,,T,,M,0.011,N,0.021,K,D*3B
$GNGNS,045945.00,3726.9498404,N,12639.2541939,E,RRRR,28,0.70,21.241,17.838,2.0,4095,V*01
$GNGSA,A,3,17,09,12,19,04,02,11,06,14,,,,1.31,0.70,1.10,1*04
$GNGSA,A,3,87,72,71,,,,,,,,,,1.31,0.70,1.10,2*0A
$GNGSA,A,3,01,08,26,21,13,,,,,,,,1.31,0.70,1.10,3*0B
$GNGSA,A,3,33,28,02,08,07,13,03,27,04,01,10,,1.31,0.70,1.10,4*07
$GPGSV,4,1,13,02,21,280,35,03,24,044,23,04,27,082,27,06,58,311,47,1*6F
$GPGSV,4,2,13,09,30,120,43,11,25,275,36,12,19,315,31,14,17,184,32,1*6D
$GPGSV,4,3,13,17,69,112,44,19,80,004,47,20,15,226,41,28,,,41,1*57
$GPGSV,4,4,13,50,47,179,34,1*58
$GPGSV,2,1,08,03,24,044,11,04,27,082,16,06,58,311,43,09,30,120,37,6*63
$GPGSV,2,2,08,11,25,275,33,12,19,315,30,14,17,184,26,17,69,112,41,6*67
$GPGSV,1,1,01,01,02,078,,0*58
$GLGSV,2,1,06,70,22,033,12,71,57,085,48,72,38,163,46,77,23,278,22,1*78
$GLGSV,2,2,06,85,19,090,21,87,32,317,37,1*7E
$GLGSV,1,1,04,71,57,085,38,72,38,163,37,77,23,278,14,87,32,317,08,3*78
$GLGSV,1,1,03,76,13,229,,78,09,331,,86,52,046,,0*4C
$GAGSV,2,1,06,01,25,304,43,03,25,059,22,0$GAGSV,2,2,06,21,39,248,39,26,29,286,41,2*7B
$GAGSV,2,1,07,01,25,304,41,08,36,118,40,13,65,358,42,15,31,071,23,7*7A
$GAGSV,2,2,07,18,22,124,43,21,39,248,41,26,29,286,47,7*4F
$GAGSV,1,1,02,07,14,169,,27,17,193,,0*72
$GBGSV,3,1,12,01,43,152,40,02,28,236,33,03,44,206,42,04,35,132,38,1*74
$GBGSV,3,2,12,07,61,215,43,08,53,268,42,10,62,244,43,13,44,261,41,1*73
$GBGSV,3,3,12,27,60,327,47,28,55,087,47,33,42,057,25,37,02,211,16,1*75
$GBGSV,2,1,07,01,43,152,43,03,44,206,43,04,35,132,43,07,61,215,42,3*72
$GBGSV,2,2,07,08,53,268,42,10,62,244,42,13,44,261,38,3*4A
$GBGSV,1,1,04,05,08,256,,14,19,042,,15,32,191,,30,13,301,,0*7B
$GNRMC,045946.00,A,3726.9498417,N,12639.2541937,E,0.018,,210622,,,R,V*0F
$GNVTG,,T,,M,0.018,N,0.032,K,D*30
$GNGNS,045946.00,3726.9498417,N,12639.2541937,E,RRRR,28,0.70,21.232,17.838,2.0,4095,V*0A
$GNGGA,045946.00,3726.9498417,N,12639.2541937,E,4,12,0.70,21.232,M,17.838,M,2.0,4095*56
$GNGSA,A,3,17,09,12,19,04,02,11,06,14,,,,1.31,0.70,1.10,1*04
$GNGSA,A,3,87,72,71,,,,,,,,,,1.31,0.70,1.10,2*0A
$GNGSA,A,3,01,08,26,21,13,,,,,,,,1.31,0.70,1.10,3*0B
$GNGSA,A,3,33,28,02,08,07,13,03,27,04,01,10,,1.31,0.70,1.10,4*07
$GPGSV,4,1,13,02,21,280,34,03,24,044,23,04,27,082,27,06,58,311,47,1*6E
$GPGSV,4,2,13,09,30,120,43,11,25,275,36,12,19,315,31,14,17,184,33,1*6C
$GPGSV,4,3,13,17,69,112,44,19,80,004,47,20,15,226,41,28,,,41,1*57
$GPGSV,4,4,13,50,47,179,34,1*58
$GPGSV,2,1,08,03,24,044,10,04,27,082,16,06,58,311,42,09,30,120,36,6*62
$GPGSV,2,2,08,11,25,275,33,12,19,315,29,14,17,184,26,17,69,112,41,6*6F
$GPGSV,1,1,01,01,02,078,,0*58
$GLGSV,2,1,06,70,22,033,09,71,57,085,48,72,38,163,46,77,23,278,21,1*71
$GLGSV,2,2,06,85,19,090,21,87,32,317,37,1*7E
$GLGSV,1,1,04,71,57,085,38,72,38,163,37,77,23,278,11,87,32,317,10,3*74
$GLGSV,1,1,03,76,13,229,,78,09,331,,86,52,046,,0*4C
$GAGSV,2,1,06,01,25,304,43,03,25,059,22,08,36,118,44,13,65,358,43,2*70
$GNRMC,045947.00,A,3726.9498406,N,12639.2541937,E,0.010,,210622,,,R,V*06
$GNVTG,,T,,M,0.010,N,0.019,K,D*31
$GNGNS,045947.00,3726.9498406,N,12639.2541937,E,RRRR,28,0.70,21.229,17.838,2.0,4095,V*01
$GNGGA,045947.00,3726.9498406,N,12639.2541937,E,4,12,0.70,21.229,M,17.838,M,2.0,4095*5D
$GNGSA,A,3,17,09,12,19,04,02,11,06,14,,,,1.31,0.70,1.11,1*05
$GNGSA,A,3,87,72,71,,,,,,,,,,1.31,0.70,1.11,2*0B
$GNGSA,A,3,01,08,26,21,13,,,,,,,,1.31,0.70,1.11,3*0A
$GNGSA,A,3,33,28,02,08,07,13,03,27,04,01,10,,1.31,0.70,1.11,4*06
$GPGSV,4,1,13,02,21,280,34,03,24,044,23,04,27,082,27,06,58,311,47,1*6E
$GPGSV,4,2,13,09,30,120,43,11,25,275,36,12,19,315,31,14,17,184,32,1*6D
$GPGSV,4,3,13,17,69,112,44,19,80,004,47,20,15,226,41,28,,,41,1*57
$GPGSV,4,4,13,50,47,179,34,1*58
$GPGSV,2,1,07,04,27,082,16,06,58,311,42,09,30,120,36,11,25,275,33,6*6E
$GPGSV,2,2,07,12,19,315,29,14,17,184,26,17,69,112,41,6*57
$GPGSV,1,1,01,01,02,078,,0*58
$GLGSV,2,1,06,70,22,033,13,71,57,085,48,72,38,163,46,77,23,278,19,1*71
$GLGSV,2,2,06,85,19,090,22,87,32,317,37,1*7D
$GLGSV,1,1,04,71,57,085,38,72,38,163,37,77,23,278,14,87,32,317,10,3*71
$GLGSV,1,1,03,76,13,229,,78,09,331,,86,52,046,,0*4C
$GAGSV,2,1,06,01,25,304,43,03,25,059,23,08,36,118,44,13,65,358,43,2*71
$GAGSV,2,2,06,21,39,248,38,26,29,286,41,2*7A
$GAGSV,2,1,07,01,25,304,42,08,36,118,40,13,65,358,42,15,31,071,22,7*78
$GAGSV,2,2,07,18,22,124,43,21,39,248,41,26,29,286,47,7*4F
$GAGSV,1,1,02,07,14,169,,27,17,193,,0*72
$GBGSV,3,1,12,01,43,152,40,02,28,236,33,03,44,206,43,04,35,132,38,1*75
$GBGSV,3,2,12,07,61,215,43,08,53,268,42,10,62,244,43,13,44,261,41,1*73
$GBGSV,3,3,12,27,60,327,47,28,55,087,47,33,42,057,25,37,02,211,17,1*74
$GBGSV,2,1,07,01,43,152,43,03,44,206,43,04,35,132,43,07,61,215,42,3*72
$GBGSV,2,2,07,08,53,268,42,10,62,244,42,13,44,261,38,3*4A
$GBGSV,1,1,04,05,08,256,,14,19,042,,15,32,191,,30,13,301,,0*7B
$GNRMC,045948.00,A,3726.9498383,N,12639.2541924,E,0.007,,210622,,,R,V*07
$GNVTG,,T,,M,0.007,N,0.013,K,D*3D
$GNGSA,A,3,87,72,71,,,,,,,,,,1.31,0.70,1.11,2*0B
$GNGSA,A,3,01,08,26,21,13,,,,,,,,1.31,0.70,1.11,3*0A
$GNGSA,A,3,33,28,02,08,07,13,03,27,04,01,10,,1.31,0.70,1.11,4*06
$GPGSV,4,1,13,02,21,280,34,03,24,044,23,04,27,082,27,06,58,311,47,1*6E
$GPGSV,4,2,13,09,30,120,43,11,25,275,35,12,19,315,31,14,17,184,31,1*6D
$GPGSV,4,3,13,17,69,112,44,19,80,004,47,20,15,226,40,28,,,41,1*56
$GPGSV,4,4,13,50,47,179,34,1*58
$GPGSV,2,1,07,04,27,082,15,06,58,311,42,09,30,120,36,11,25,275,33,6*6D
$GPGSV,2,2,07,12,19,315,29,14,17,184,26,17,69,112,41,6*57
$GPGSV,1,1,01,01,02,078,,0*58
$GLGSV,2,1,06,70,22,033,10,71,57,085,48,72,38,163,46,77,23,278,17,1*7C
$GLGSV,2,2,06,85,19,090,23,87,32,317,37,1*7C
$GLGSV,1,1,04,71,57,085,38,72,38,163,37,77,23,278,16,87,32,317,10,3*73
$GLGSV,1,1,03,76,13,229,,78,09,331,,86,52,046,,0*4C
$GAGSV,2,1,07,01,25,304,42,03,25,059,22,08,36,118,44,13,65,358,43,2*70
$GAGSV,2,2,07,15,31,071,16,21,39,248,38,26,29,286,41,2*4C
$GAGSV,2,1,0$GNRMC,045949.00,A,3726.9498396,N,12639.2541918,E,0.015,,210622,,,R,V*0E
$GNVTG,,T,,M,0.015,N,0.027,K,D*39
$GNGNS,045949.00,3726.9498396,N,12639.2541918,E,RRRR,28,0.70,21.233,17.838,2.0,4095,V*07
$GNGGA,045949.00,3726.9498396,N,12639.2541918,E,4,12,0.70,21.233,M,17.838,M,2.0,4095*5B
$GNGSA,A,3,17,09,20,12,19,04,02,11,06,14,,,1.31,0.70,1.11,1*07
$GNGSA,A,3,87,72,71,,,,,,,,,,1.31,0.70,1.11,2*0B
$GNGSA,A,3,01,08,26,21,13,,,,,,,,1.31,0.70,1.11,3*0A
$GNGSA,A,3,28,02,08,07,13,03,27,04,01,10,,,1.31,0.70,1.11,4*06
$GPGSV,4,1,13,02,21,280,30,03,24,044,23,04,27,082,27,06,58,311,47,1*6A
$GPGSV,4,2,13,09,30,120,42,11,25,275,34,12,19,315,30,14,17,184,31,1*6C
$GPGSV,4,3,13,17,69,112,44,19,80,004,47,20,15,226,40,28,,,41,1*56
$GPGSV,4,4,13,50,47,179,34,1*58
$GPGSV,2,1,07,04,27,082,17,06,58,311,40,09,30,120,36,11,25,275,32,6*6C
$GPGSV,2,2,07,12,19,315,28,14,17,184,25,17,69,112,39,6*5A
$GPGSV,1,1,01,01,02,078,,0*58
$GLGSV,2,1,06,70,22,033,08,71,57,085,48,72,38,163,46,77,23,278,16,1*74
$GLGSV,2,2,06,85,19,090,23,87,32,317,37,1*7C
$GLGSV,2,1,05,71,57,085,38,72,38,163,37,76,13,229,36,77,23,278,17,3*75
$GLGSV,2,2,05,87,32,317,09,3*4D
$GLGSV,1,1,02,78,09,331,,86,52,046,,0*77
$GAGSV,2,1,06,01,25,304,42,03,25,059,22,08,36,118,44,13,65,358,43,2*71
$GAGSV,2,2,06,21,39,248,38,26,29,286,41,2*7A
$GAGSV,2,1,07,01,25,304,42,08,36,118,41,13,65,358,42,15,31,071,23,7*78
$GAGSV,2,2,07,18,21,125,43,21,39,248,41,26,29,286,47,7*4D
$GAGSV,1,1,02,07,14,169,,27,17,193,,0*72
$GBGSV,3,1,12,01,43,152,41,02,28,236,33,03,44,206,43,04,35,132,38,1*74
$GBGSV,3,2,12,07,61,215,43,08,53,268,42,10,62,244,43,13,44,261,41,1*73
$GBGSV,3,3,12,27,60,327,47,28,55,087,47,33,42,057,25,37,02,211,17,1*74
$GBGSV,2,1,07,01,43,152,42,03,44,206,43,04,35,132,43,07,61,215,42,3*73
$GBGSV,2,2,07,08,53,268,42,10,62,244,42,13,44,261,38,3*4A
$GBGSV,1,1,04,05,08,256,,14,19,042,,15,32,191,,30,13,301,,0*7B
$GNRMC,045950.00,A,3726.9498405,N,12639.2541933,E,0.009,,210622,,,R,V*0F
$GNVTG,,T,,M,0.009,N,0.016,K,D*36
$GNGNS,045950.00,3726.9498405,N,12639.2541933,E,RRRR,28,0.70,21.234,17.838,2.0,4095,V*0C
$GNGGA,045950.00,3726.9498405,N,12639.2541933,E,4,12,0.70,21.234,M,17.838,M,2.0,4095*50
$GNGSA,A,3,17,09,20,12,19,04,02,11,06,14,,,1.31,0.70,1.11,1*07
$GNGSA,A,3,87,72,71,,,,,,,,,,1.31,0.70,1.11,2*0B
$GPGSV,4,3,13,17,69,112,44,19,80,004,47,20,15,226,40,28,,,40,1*57
$GPGSV,4,4,13,50,47,179,34,1*58
$GPGSV,2,1,07,04,27,082,16,06,58,311,41,09,30,120,35,11,25,275,32,6*6F
$GPGSV,2,2,07,12,19,315,28,14,17,184,25,17,69,112,40,6*54
$GPGSV,1,1,01,01,02,078,,0*58
$GLGSV,2,1,06,70,22,033,11,71,57,085,48,72,38,163,46,77,23,278,16,1*7C
$GLGSV,2,2,06,85,19,090,22,87,32,317,37,1*7D
$GLGSV,2,1,05,71,57,085,39,72,38,163,37,76,13,229,36,77,23,278,18,3*7B
$GLGSV,2,2,05,87,32,317,09,3*4D
$GLGSV,1,1,02,78,09,331,,86,52,046,,0*77
$GAGSV,2,1,06,01,25,304,41,03,25,059,22,08,36,118,43,13,65,358,43,2*75
$GAGSV,2,2,06,21,39,248,38,26,29,286,41,2*7A
$GAGSV,2,1,07,01,25,304,42,08,36,118,40,13,65,358,42,15,31,071,23,7*79
$GAGSV,2,2,07,18,21,125,43,21,39,248,41,26,29,286,47,7*4D
$GAGSV,1,1,02,07,14,169,,27,17,193,,0*72
$GBGSV,3,1,12,01,43,152,40,02,28,236,33,03,44,206,42,04,35,132,38,1*74
$GBGSV,3,2,12,07,61,215,43,08,53,268,42,10,62,244,43,13,44,261,41,1*73
$GBGSV,3,3,12,27,60,327,47,28,55,087,47,33,42,057,24,37,02,211,15,1*77
$GBGSV,2,1,07,01,43,152,42,03,44,206,42,04,35,132,43,07,61,215,42,3*72
$GBGSV,2,2,07,08,53,268,42,10,62,244,42,13,44,261,38,3*4A
$GBGSV,1,1,04,05,08,256,,14,19,042,,15,32,191,,30,13,301,,0*7B
$GNRMC,045951.00,A,3726.9498405,N,12639.2541928,E,0.005,,210622,,,R,V*08
$GNVTG,,T,,M,0.005,N,0.010,K,D*3C
$GNGNS,045951.00,3726.9498405,N,12639.2541928,E,RRRR,28,0.68,21.236,17.838,2.0,4095,V*0C
$GNGGA,045951.00,3726.9498405,N,12639.2541928,E,4,12,0.68,21.236,M,17.838,M,2.0,4095*50
$GNGSA,A,3,17,09,20,12,19,04,02,11,06,14,,,1.28,0.68,1.08,1*0E
$GNGSA,A,3,87,72,71,,,,,,,,,,1.28,0.68,1.08,2*02
$GNGSA,A,3,01,08,26,21,13,,,,,,,,1.28,0.68,1.08,3*03
$GNGSA,A,3,28,02,08,07,13,03,27,04,01,10,,,1.28,0.68,1.08,4*0F
$GPGSV,4,1,13,02,21,280,34,03,24,044,23,04,27,082,27,06,58,311,48,1*61
$GPGSV,4,2,13,09,30,120,43,11,25,275,35,12,19,315,30,14,17,184,30,1*6D
$GPGSV,4,3,13,17,69,112,44,19,80,004,47,20,15,226,39,28,,,40,1*59
$GPGSV,4,4,13,50,47,179,34,1*58
$GPGSV,1,1,01,03,24,044,14,5*51
$GPGSV,2,1,07,04,27,082,18,06,58,311,42,09,30,120,35,11,25,275,34,6*64
$GPGSV,2,2,07,12,19,315,29,14,17,184,25,17,69,112,41,6*54
$GPGSV,1,1,01,01,02,078,,0*58
$GLGSV,2,1,06,70,22,033,10,71,57,085,49,72,38,163,46,77,23,278,13,1*79
$GLGSV,2,2,06,85,19,090,21,87,32,317,38,1*71
$GLGSV,2,1,05,71,57,085,38,72,38,163,37,76,13,229,35,77,23,278,19,3*78
$GLGSV,2,2,05,87,32,317,12,3*47
$GLGSV,1,1,02,78,09,331,,86,52,046,,0*77
$GAGSV,2,1,06,01,25,304,43,03,25,059,22,08,36,118,44,13,65,358,43,2*70
$GAGSV,2,2,06,21,39,248,38,26,29,286,42,2*79
$GAGSV,2,1,07,01,25,304,42,08,36,118,41,13,65,358,42,15,31,071,23,7*78
$GAGSV,2,2,07,18,21,125,43,21,39,248,41,26,29,286,47,7*4D
$GAGSV,1,1,02,07,14,169,,27,17,193,,0*72
$GBGSV,3,1,12,01,43,152,40,02,28,236,34,03,44,206,43,04,35,132,38,1*72
$GBGSV,3,2,12,07,61,215,43,08,53,268,42,10,62,244,43,13,44,261,40,1*72
$GBGSV,3,3,12,27,60,327,47,28,55,087,47,33,42,057,23,37,02,211,14,1*71
$GBGSV,2,1,07,01,43,152,42,03,44,206,43,04,35,132,43,07,61,215,42,3*73
$GBGSV,2,2,07,08,53,268,42,10,62,244,42,13,44,261,38,3*4A
$GBGSV,1,1,04,05,08,256,,14,19,042,,15,32,191,,30,13,301,,0*7B
$GNRMC,045952.00,A,3726.9498439,N,12639.2541959,E,0.012,,210622,,,R,V*04
$GNVTG,,T,,M,0.012,N,0.021,K,D*38
$GNGNS,045952.00,3726.9498439,N,12639.2541959,E,RRRR,28,0.68,21.225,17.838,2.0,4095,V*04
$GNGGA,045952.00,3726.9498439,N,12639.2541959,E,4,12,0.68,21.225,M,17.838,M,2.0,4095*58
$GNGSA,A,3,17,09,20,12,19,04,02,11,06,14,,,1.28,0.68,1.08,1*0E
$GNGSA,A,3,87,72,71,,,,,,,,,,1.28,0.68,1.08,2*02
$GLGSV,2,1,06,70,22,033,10,71,57,085,49,72,38,163,46,77,23,278,12,1*78
$GLGSV,2,2,06,85,19,090,22,87,32,317,38,1*72
$GLGSV,2,1,05,71,57,085,38,72,38,163,37,76,13,229,36,77,23,278,21,3*70
$GLGSV,2,2,05,87,32,317,11,3*44
$GLGSV,1,1,02,78,09,331,,86,52,046,,0*77
$GAGSV,2,1,06,01,25,304,43,03,25,059,22,08,36,118,44,13,65,358,43,2*70
$GAGSV,2,2,06,21,39,248,37,26,29,286,42,2*76
$GAGSV,2,1,07,01,25,304,42,08,36,118,41,13,65,358,42,15,31,071,23,7*78
$GAGSV,2,2,07,18,21,125,43,21,39,248,41,26,29,286,47,7*4D
$GAGSV,1,1,02,07,14,169,,27,17,193,,0*72
$GBGSV,3,1,12,01,43,152,40,02,28,236,33,03,44,206,43,04,35,132,38,1*75
$GNRMC,045953.00,A,3726.9498439,N,12639.2541942,E,0.012,,210622,,,R,V*0F
$GNVTG,,T,,M,0.012,N,0.022,K,D*3B
$GNGNS,045953.00,3726.9498439,N,12639.2541942,E,RRRR,28,0.62,21.218,17.838,1.0,4095,V*08
$GNGGA,045953.00,3726.9498439,N,12639.2541942,E,4,12,0.62,21.218,M,17.838,M,1.0,4095*54
$GNGSA,A,3,17,09,20,12,19,04,02,11,06,14,,,1.17,0.62,0.99,1*01
$GNGSA,A,3,87,72,71,,,,,,,,,,1.17,0.62,0.99,2*0D
$GNGSA,A,3,01,08,26,21,13,,,,,,,,1.17,0.62,0.99,3*0C
$GNGSA,A,3,28,02,08,07,13,03,27,04,01,10,,,1.17,0.62,0.99,4*00
$GPGSV,4,1,13,02,21,280,34,03,24,044,23,04,27,082,27,06,58,311,47,1*6E
$GPGSV,4,2,13,09,30,120,43,11,25,275,36,12,19,315,31,14,17,184,31,1*6E
$GPGSV,4,3,13,17,69,112,44,19,80,004,47,20,15,226,39,28,,,39,1*57
$GPGSV,4,4,13,50,47,179,34,1*58
$GPGSV,2,1,07,04,27,082,16,06,58,311,42,09,30,120,36,11,25,275,35,6*68
$GPGSV,2,2,07,12,19,315,30,14,17,184,25,17,69,112,42,6*5F
$GPGSV,1,1,01,01,02,078,,0*58
$GLGSV,2,1,06,70,22,033,12,71,57,085,49,72,38,163,46,77,23,278,15,1*7D
$GLGSV,2,2,06,85,19,090,24,87,32,317,37,1*7B
$GLGSV,2,1,05,71,57,085,38,72,38,163,38,76,13,229,36,77,23,278,21,3*7F
$GLGSV,2,2,05,87,32,317,10,3*45
$GLGSV,1,1,02,78,09,331,,86,52,046,,0*77
$GAGSV,2,1,06,01,25,304,42,03,25,059,22,08,36,118,44,13,65,358,43,2*71
$GAGSV,2,2,06,21,39,248,37,26,29,286,42,2*76
$GAGSV,2,1,07,01,25,304,42,08,36,118,41,13,65,358,42,15,31,071,23,7*78
$GAGSV,2,2,07,18,21,125,43,21,39,248,41,26,29,286,47,7*4D
$GAGSV,1,1,02,07,14,169,,27,17,193,,0*72
$GBGSV,3,1,11,01,43,152,41,02,28,236,33,03,44,206,42,04,35,132,38,1*76
$GBGSV,3,2,11,07,61,215,43,08,53,268,42,10,62,244,43,13,44,261,40,1*71
$GBGSV,3,3,11,27,60,327,47,28,55,087,47,37,02,211,14,1*47
$GBGSV,2,1,07,01,43,152,42,03,44,206,43,04,35,132,43,07,61,215,42,3*73
$GBGSV,2,2,07,08,53,268,42,10,62,244,42,13,44,261,37,3*45
$GBGSV,2,1,05,05,08,256,,14,19,042,,15,32,191,,30,13,301,,0*79
$GBGSV,2,2,05,30,13,301,,0*41
$GNRMC,045954.00,A,3726.9498446,N,12639.2541958,E,0.024,,210622,,,R,V*0E
$GNVTG,,T,,M,0.024,N,0.044,K,D*3E
$GNGNS,045954.00,3726.9498446,N,12639.2541958,E,RRRR,28,0.62,21.205,17.838,2.0,4095,V*03
$GNGGA,045954.00,3726.9498446,N,12639.2541958,E,4,12,0.62,21.205,M,17.838,M,2.0,4095*5F
$GNGSA,A,3,87,72,71,,,,,,,,,,1.17,0.62,0.99,2*0D
$GNGSA,A,3,01,08,26,21,13,,,,,,,,1.17,0.62,0.99,3*0C
$GNGSA,A,3,28,02,08,07,13,03,27,04,01,10,,,1.17,0.62,0.99,4*00
$GPGSV,4,1,13,02,21,280,29,03,24,044,23,04,27,082,27,06,58,311,47,1*62
$GPGSV,4,2,13,09,30,120,43,11,25,275,36,12,19,315,31,14,17,184,31,1*6E
$GPGSV,4,3,13,17,69,112,44,19,80,004,47,20,15,226,39,28,,,39,1*57
$GPGSV,4,4,13,50,47,179,34,1*58
$GPGSV,2,1,07,04,27,082,16,06,58,311,42,09,30,120,35,11,25,275,34,6*6A
$GPGSV,2,2,07,12,19,315,30,14,17,184,25,17,69,112,41,6*5C
$GPGSV,1,1,01,01,02,078,,0*58
$GLGSV,2,1,06,70,22,033,12,71,57,085,48,72,38,163,46,77,23,278,09,1*71
$GLGSV,2,2,06,85,19,090,25,87,32,317,37,1*7A
$GLGSV,2,1,05,71,57,085,38,72,38,163,38,76,13,229,36,77,23,278,21,3*7F
$GLGSV,2,2,05,87,32,317,09,3*4D
$GLGSV,1,1,02,78,09,331,,86,52,046,,0*77
$GAGSV,2,1,06,01,25,303,42,03,25,059,23,08,36,118,44,13,65,358,43,2*77
$GAGSV,2,2,06,21,39,248,37,26,29,286,42,2*76
$GA$GNRMC,045955.00,A,3726.9498438,N,12639.2541960,E,0.016,,210622,,,R,V*0C
$GNVTG,,T,,M,0.016,N,0.030,K,D*3C
$GNGNS,045955.00,3726.9498438,N,12639.2541960,E,RRRR,28,0.62,21.207,17.838,2.0,4095,V*02
$GNGGA,045955.00,3726.9498438,N,12639.2541960,E,4,12,0.62,21.207,M,17.838,M,2.0,4095*5E
$GNGSA,A,3,17,09,20,12,19,04,02,11,06,14,,,1.17,0.62,0.99,1*01
$GNGSA,A,3,87,72,71,,,,,,,,,,1.17,0.62,0.99,2*0D
$GNGSA,A,3,01,08,26,21,13,,,,,,,,1.17,0.62,0.99,3*0C
$GPGSV,4,1,13,02,21,280,30,03,24,044,23,04,27,082,28,06,58,311,47,1*65
$GPGSV,4,2,13,09,30,120,43,11,25,275,36,12,19,315,31,14,17,184,32,1*6D
$GPGSV,4,3,13,17,69,112,44,19,80,004,47,20,15,226,38,28,,,39,1*56
$GPGSV,4,4,13,50,47,179,34,1*58
$GPGSV,2,1,07,04,27,082,17,06,58,311,41,09,30,120,35,11,25,275,33,6*6F
$GPGSV,2,2,07,12,19,315,29,14,17,184,26,17,69,112,40,6*56
$GPGSV,1,1,01,01,02,078,,0*58
$GLGSV,2,1,06,70,22,033,11,71,57,085,48,72,38,163,46,77,23,278,07,1*7C
$GLGSV,2,2,06,85,19,090,26,87,32,317,37,1*79
$GLGSV,2,1,05,71,57,085,38,72,38,163,38,76,13,229,36,77,23,278,22,3*7C
$GLGSV,2,2,05,87,32,317,09,3*4D
$GLGSV,1,1,02,78,09,331,,86,52,046,,0*77
$GAGSV,2,1,07,01,25,303,42,03,25,059,23,08,36,118,44,13,65,358,43,2*76
$GAGSV,2,2,07,15,31,071,16,21,39,248,38,26,29,286,42,2*4F
$GAGSV,2,1,07,01,25,303,41,08,36,118,40,13,65,358,43,15,31,071,23,7*7C
$GAGSV,2,2,07,18,21,125,43,21,39,248,41,26,29,286,47,7*4D
$GAGSV,1,1,02,07,14,169,,27$GBGSV,3,1,11,01,43,152,40,02,28,236,34,03,44,206,43,04,35,132,38,1*71
$GBGSV,3,2,11,07,61,215,43,08,53,268,42,10,62,244,43,13,44,261,40,1*71
$GBGSV,3,3,11,27,60,327,47,28,55,087,47,37,02,211,14,1*47
$GBGSV,2,1,07,01,43,152,43,03,44,206,43,04,35,132,43,07,61,215,42,3*72
$GBGSV,2,2,07,08,53,268,42,10,62,244,42,13,44,261,38,3*4A
$GBGSV,2,1,05,05,08,256,,14,19,042,,15,32,191,,30,13,301,,0*79
$GBGSV,2,2,05,30,13,301,,0*41
$GNRMC,045956.00,A,3726.9498415,N,12639.2541917,E,0.005,,210622,,,R,V*02
$GNVTG,,T,,M,0.005,N,0.009,K,D*34
$GNGNS,045956.00,3726.9498415,N,12639.2541917,E,RRRR,28,0.60,21.213,17.838,2.0,4095,V*09
$GNGGA,045956.00,3726.9498415,N,12639.2541917,E,4,12,0.60,21.213,M,17.838,M,2.0,4095*55
$GNGSA,A,3,17,09,20,12,19,04,02,11,06,14,,,1.09,0.60,0.91,1*04
$GNGSA,A,3,85,87,72,71,,,,,,,,,1.09,0.60,0.91,2*05
$GNGSA,A,3,01,08,26,21,13,,,,,,,,1.09,0.60,0.91,3*09
$GNGSA,A,3,28,08,07,13,03,27,04,01,10,,,,1.09,0.60,0.91,4*07
$GPGSV,4,1,13,02,21,280,30,03,24,044,23,04,27,082,27,06,58,311,47,1*6A
$GPGSV,4,2,13,09,30,120,43,11,25,275,35,12,19,315,32,14,17,184,33,1*6C
$GPGSV,4,3,13,17,69,112,44,19,80,004,47,20,15,226,38,28,,,39,1*56
$GPGSV,4,4,13,50,47,179,34,1*58
$GPGSV,2,1,07,04,27,082,19,06,58,311,42,09,30,120,35,11,25,275,33,6*62
$GPGSV,2,2,07,12,19,315,30,14,17,184,27,17,69,112,41,6*5E
$GPGSV,1,1,01,01,02,078,,0*58
$GLGSV,2,1,06,70,22,033,10,71,57,085,48,72,38,163,45,77,23,278,09,1*70
$GLGSV,2,2,06,85,19,090,27,87,32,317,37,1*78
$GLGSV,2,1,05,71,57,085,38,72,38,163,38,76,13,229,35,77,23,278,21,3*7C
$GLGSV,2,2,05,87,32,317,08,3*4C
$GLGSV,1,1,02,78,09,331,,86,52,046,,0*77
$GAGSV,2,1,06,01,25,303,42,03,25,059,22,08,36,118,44,13,65,358,43,2*76
$GAGSV,2,2,06,21,39,248,38,26,29,286,41,2*7A
$GAGSV,2,1,07,01,25,303,40,08,36,118,40,13,65,358,43,15,31,071,23,7*7D
$GAGSV,2,2,07,18,21,125,43,21,39,248,41,26,29,286,47,7*4D
$GAGSV,1,1,02,07,14,169,,27,17,193,,0*72
$GBGSV,3,1,10,01,43,152,41,02,28,236,33,03,44,206,42,04,35,132,38,1*77
$GBGSV,3,2,10,07,61,215,43,08,53,268,42,10,62,244,43,13,44,261,40,1*70
$GBGSV,3,3,10,27,60,327,47,28,55,087,47,1*77
$GBGSV,2,1,07,01,43,152,43,03,44,206,42,04,35,132,43,07,61,215,42,3*73
$GBGSV,2,2,07,08,53,268,42,10,62,244,42,13,44,261,39,3*4B
$GNRMC,045957.00,A,3726.9498427,N,12639.2541929,E,0.007,,210622,,,R,V*0D
$GNVTG,,T,,M,0.007,N,0.013,K,D*3D
$GNGNS,045957.00,3726.9498427,N,12639.2541929,E,RRRR,28,0.62,21.212,17.838,2.0,4095,V*07
$GNGGA,045957.00,3726.9498427,N,12639.2541929,E,4,12,0.62,21.212,M,17.838,M,2.0,4095*5B
$GNGSA,A,3,17,09,20,12,19,04,02,11,06,14,,,1.17,0.62,0.99,1*01
$GNGSA,A,3,87,72,71,,,,,,,,,,1.17,0.62,0.99,2*0D
$GNGSA,A,3,01,08,26,21,13,,,,,,,,1.17,0.62,0.99,3*0C
$GNGSA,A,3,28,02,08,07,13,03,27,04,01,10,,,1.17,0.62,0.99,4*00
$GPGSV,4,1,13,02,21,280,29,03,24,044,23,04,27,082,28,06,58,311,47,1*6D
$GPGSV,4,2,13,09,30,120,43,11,25,275,35,12,19,315,32,14,17,184,31,1*6E
$GPGSV,4,3,13,17,69,112,44,19,80,004,47,20,15,226,37,28,,,39,1*59
$GPGSV,4,4,13,50,47,179,35,1*59
$GPGSV,2,1,07,04,27,082,18,06,58,311,42,09,30,120,35,11,25,275,33,6*63
$GPGSV,2,2,07,12,19,315,31,14,17,184,26,17,69,112,41,6*5E
$GPGSV,1,1,01,01,02,078,,0*58
$GLGSV,2,1,06,70,22,033,09,71,57,085,48,72,38,163,45,77,23,278,14,1*74
$GLGSV,2,2,06,85,19,090,27,87,32,317,37,1*78
$GLGSV,2,1,05,71,57,085,38,72,38,163,38,76,13,229,35,77,23,278,22,3*7F
$GLGSV,2,2,05,87,32,317,10,3*45
$GLGSV,1,1,02,78,09,331,,86,52,046,,0*77
$GAGSV,2,1,06,01,25,303,41,03,25,059,22,08,36,118,44,13,65,358,43,2*75
$GAGSV,2,2,06,21,39,248,38,26,29,286,42,2*79
$GAGSV,2,1,07,01,25,303,40,08,36,118,41,13,65,358,43,15,31,071,22,7*7D
$GAGSV,2,2,07,18,21,125,43,21,39,248,41,26,29,286,47,7*4D
$GAGSV,1,1,02,07,14,169,,27,17,193,,0*72
$GBGSV,3,1,10,01,43,152,41,02,28,236,34,03,44,206,43,04,35,132,38,1*71
$GBGSV,3,2,10,07,61,215,43,08,53,268,42,10,62,244,43,13,44,261,40,1*70
$GBGSV,3,3,10,27,60,327,47,28,55,087,47,1*77
$GNRMC,045958.00,A,3726.9498436,N,12639.2541931,E,0.018,,210622,,,R,V*05
$GNVTG,,T,,M,0.018,N,0.034,K,D*36
$GNGNS,045958.00,3726.9498436,N,12639.2541931,E,RRRR,28,0.62,21.213,17.838,2.0,4095,V*00
$GNGGA,045958.00,3726.9498436,N,12639.2541931,E,4,12,0.62,21.213,M,17.838,M,2.0,4095*5C
$GNGSA,A,3,17,09,20,12,19,04,02,11,06,14,,,1.17,0.62,0.99,1*01
$GNGSA,A,3,87,72,71,,,,,,,,,,1.17,0.62,0.99,2*0D
$GNGSA,A,3,01,08,26,21,13,,,,,,,,1.17,0.62,0.99,3*0C
$GNGSA,A,3,28,02,08,07,13,03,27,04,01,10,,,1.17,0.62,0.99,4*00
$GPGSV,4,1,13,02,21,280,28,03,24,044,23,04,27,082,28,06,58,311,47,1*6C
$GPGSV,2,1,07,04,27,082,18,06,58,311,41,09,30,120,35,11,25,275,32,6*61
$GPGSV,2,2,07,12,19,315,30,14,17,184,26,17,69,112,40,6*5E
$GPGSV,1,1,01,01,02,078,,0*58
$GLGSV,2,1,06,70,22,033,13,71,57,085,48,72,38,163,45,77,23,278,16,1*7D
$GLGSV,2,2,06,85,19,090,27,87,32,317,36,1*79
$GLGSV,2,1,05,71,57,085,38,72,38,163,39,76,13,229,34,77,23,278,21,3*7C
$GLGSV,2,2,05,87,32,317,09,3*4D
$GLGSV,1,1,02,78,09,331,,86,52,046,,0*77
$GAGSV,2,2,06,21,39,248,38,26,29,286,42,2*79
$GAGSV,2,1,07,01,25,303,40,08,36,118,41,13,65,358,43,15,31,071,23,7*7C
$GAGSV,2,2,07,18,21,125,43,21,39,248,41,26,29,286,47,7*4D
$GAGSV,1,1,02,07,14,169,,27,17,193,,0*72
$GBGSV,3,1,11,01,43,152,41,02,28,236,34,03,44,206,43,04,35,132,38,1*70
$GBGSV,3,2,11,07,61,215,43,08,53,268,42,10,62,244,43,13,44,261,41,1*70
$GBGSV,3,3,11,27,60,327,47,28,55,087,47,37,02,211,04,1*46
$GBGSV,2,1,07,01,43,152,43,03,44,206,43,04,35,132,43,07,61,215,42,3*72
$GBGSV,2,2,07,08,53,268,42,10,62,244,43,13,44,261,39,3*4A
$GBGSV,2,1,05,05,08,256,,14,19,042,,15,32,191,,30,13,301,,0*79
$GBGSV,2,2,05,30,13,301,,0*41
$GNRMC,045959.00,A,3726.9498438,N,12639.2541947,E,0.024,,210622,,,R,V*04
$GNVTG,,T,,M,0.024,N,0.045,K,D*3F
$GNGNS,045959.00,3726.9498438,N,12639.2541947,E,RRRR,28,0.60,21.212,17.838,2.0,4095,V*0D
$GNGGA,045959.00,3726.9498438,N,12639.2541947,E,4,12,0.60,21.212,M,17.838,M,2.0,4095*51
$GNGSA,A,3,17,09,20,12,19,04,02,11,06,14,,,1.09,0.60,0.91,1*04
$GNGSA,A,3,85,87,72,71,,,,,,,,,1.09,0.60,0.91,2*05
$GNGSA,A,3,01,08,26,21,13,,,,,,,,1.09,0.60,0.91,3*09
$GNGSA,A,3,28,08,07,13,03,27,04,01,10,,,,1.09,0.60,0.91,4*07
$GPGSV,4,1,13,02,21,280,27,03,24,044,23,04,27,082,28,06,58,311,47,1*63
$GPGSV,4,2,13,09,30,120,43,11,25,275,34,12,19,315,31,14,17,184,31,1*6C
$GPGSV,4,3,13,17,69,112,44,19,80,004,47,20,15,226,38,28,,,39,1*56
$GPGSV,4,4,13,50,47,179,34,1*58
$GPGSV,2,1,07,04,27,082,17,06,58,311,41,09,30,120,36,11,25,275,32,6*6D
$GPGSV,2,2,07,12,19,315,30,14,17,184,27,17,69,112,40,6*5F
$GPGSV,1,1,01,01,02,078,,0*58
$GLGSV,2,1,06,70,22,033,07,71,57,085,48,72,38,163,45,77,23,278,16,1*78
$GLGSV,2,2,06,85,19,090,26,87,32,317,36,1*78
$GLGSV,2,1,05,71,57,085,39,72,38,163,39,76,13,229,35,77,23,278,22,3*7F
$GLGSV,2,2,05,87,32,317,12,3*47
$GLGSV,1,1,02,78,09,331,,86,52,046,,0*77
$GAGSV,2,1,06,01,25,303,42,03,24,058,22,08,36,118,44,13,65,358,43,2*76
$GAGSV,2,2,06,21,39,248,38,26,29,286,42,2*79
$GAGSV,2,1,07,01,25,303,40,08,36,118,41,13,65,358,43,15,31,071,23,7*7C
$GAGSV,2,2,07,18,21,125,43,21,39,248,41,26,29,286,47,7*4D
$GAGSV,1,1,02,07,14,169,,27,17,193,,0*72
$GBGSV,3,1,11,01,43,152,41,02,28,236,34,03,44,206,43,04,35,132,38,1*70
$GBGSV,3,2,11,07,61,215,43,08,53,268,42,10,62,244,43,13,44,261,41,1*70
$GBGSV,3,3,11,27,60,327,47,28,55,087,47,37,02,211,07,1*45
$GBGSV,2,1,07,01,43,152,43,03,44,206,43,04,35,132,43,07,61,215,42,3*72
$GBGSV,2,2,07,08,53,268,42,10,62,244,43,13,44,261,39,3*4A
$GBGSV,2,1,05,05,08,256,,14,19,042,,15,32,191,,30,13,301,,0*79
$GBGSV,2,2,05,30,13,301,,0*41
$GNRMC,050000.00,A,3726.9498474,N,12639.2541962,E,0.015,,210622,,,R,V*08
$GNVTG,,T,,M,0.015,N,0.028,K,D*36
$GNGNS,050000.00,3726.9498474,N,12639.2541962,E,RRRR,28,0.60,21.214,17.838,2.0,4095,V*05
$GNGGA,050000.00,3726.9498474,N,12639.2541962,E,4,12,0.60,21.214,M,17.838,M,2.0,4095*59
$GNGSA,A,3,17,09,20,12,19,04,02,11,06,14,,,1.09,0.60,0.91,1*04
$GNGSA,A,3,85,87,72,71,,,,,,,,,1.09,0.60,0.91,2*05
$GNGSA,A,3,01,08,26,21,13,,,,,,,,1.09,0.60,0.91,3*09
$GNGSA,A,3,28,08,07,13,03,27,04,01,10,,,,1.09,0.60,0.91,4*07
$GPGSV,4,1,13,02,21,280,26,03,24,044,23,04,27,082,28,06,58,311,47,1*62
$GPGSV,4,2,13,09,30,120,43,11,25,275,38,12,19,315,29,14,17,184,31,1*69
$GPGSV,4,3,13,17,69,112,44,19,80,004,47,20,15,226,37,28,,,39,1*59
$GPGSV,4,4,13,50,47,179,34,1*58
$GPGSV,2,1,07,04,27,082,17,06,58,311,42,09,30,120,36,11,25,275,35,6*69
$GPGSV,2,2,07,12,19,315,29,14,17,184,27,17,69,112,42,6*55
$GPGSV,1,1,01,01,02,078,,0*58
$GLGSV,2,1,06,70,22,033,09,71,57,085,48,72,38,163,45,77,23,278,17,1*77
$GLGSV,2,2,06,85,19,090,26,87,32,317,38,1*76
$GLGSV,2,1,05,71,57,085,39,72,38,163,39,76,13,229,37,77,23,278,23,3*7C
$GLGSV,2,2,05,87,32,317,10,3*45
$GLGSV,1,1,02,78,09,331,,86,52,046,,0*77
$GAGSV,2,1,06,01,25,303,39,03,24,058,22,08,36,118,44,13,65,358,43,2*7A
$GAGSV,2,2,06,21,39,248,38,26,29,286,42,2*79
$GAGSV,2,1,07,01,25,303,40,08,36,118,41,13,65,358,43,15,31,071,22,7*7D
$GAGSV,2,2,07,18,21,125,43,21,39,248,41,26,29,286,48,7*42
$GAGSV,1,1,02,07,14,169,,27,17,193,,0*72
$GBGSV,3,1,11,01,43,152,41,02,28,236,34,03,44,206,43,04,35,132,37,1*7F
$GBGSV,3,2,11,07,61,215,43,08,53,268,42,10,62,244,43,13,44,261,41,1*70
$GBGSV,3,3,11,27,60,327,47,28,55,087,47,37,02,211,10,1*43
$GBGSV,2,1,07,01,43,152,43,03,44,206,43,04,35,132,43,07,61,215,42,3*72
$GBGSV,2,2,07,08,53,268,42,10,62,244,43,13,44,261,39,3*4A
$GBGSV,2,1,05,05,08,256,,14,19,042,,15,32,191,,30,13,301,,0*79
$GBGSV,2,2,05,30,13,301,,0*41
$GNRMC,050001.00,A,3726.9498451,N,12639.2541964,E,0.004,,210622,,,R,V*08
$GNVTG,,T,,M,0.004,N,0.007,K,D*3B
$GNGNS,050001.00,3726.9498451,N,12639.2541964,E,RRRR,28,0.59,21.215,17.838,2.0,4095,V*0E
$GNGGA,050001.00,3726.9498451,N,12639.2541964,E,4,12,0.59,21.215,M,17.838,M,2.0,4095*52
$GNGSA,A,3,17,09,20,12,19,04,11,06,14,,,,1.08,0.59,0.90,1*0C
$GNGSA,A,3,85,87,76,72,71,,,,,,,,1.08,0.59,0.90,2*0E
$GNGSA,A,3,01,08,26,21,13,,,,,,,,1.08,0.59,0.90,3*03
$GNGSA,A,3,28,08,07,13,03,27,04,01,10,,,,1.08,0.59,0.90,4*0D
$GPGSV,4,1,13,02,21,280,28,03,24,044,22,04,27,082,28,06,58,311,48,1*62
$GPGSV,4,2,13,09,30,120,44,11,25,275,33,12,19,315,32,14,17,184,33,1*6D
$GPGSV,4,3,13,17,69,112,44,19,80,004,47,20,15,226,37,28,,,39,1*59
$GPGSV,4,4,13,50,47,179,34,1*58
$GPGSV,2,1,07,04,27,082,17,06,58,311,42,09,30,120,36,11,25,275,33,6*6F
$GPGSV,2,2,07,12,19,315,30,14,17,184,28,17,69,112,41,6*51
$GPGSV,1,1,01,01,02,078,,0*58
$GLGSV,2,1,06,70,22,033,08,71,57,085,48,72,38,163,45,77,23,278,19,1*78
$GLGSV,2,2,06,85,19,090,27,87,32,317,36,1*79
$GLGSV,2,1,05,71,57,085,39,72,38,163,38,76,13,229,34,77,23,278,23,3*7E
$GLGSV,2,2,05,87,32,317,10,3*45
$GLGSV,1,1,02,78,09,331,,86,52,046,,0*77
$GAGSV,2,1,06,01,25,303,41,03,24,058,22,08,36,118,44,13,65,358,43,2*75
$GAGSV,2,2,06,21,39,248,38,26,29,286,41,2*7A
$GAGSV,2,1,07,01,25,303,41,08,36,118,41,13,65,358,43,15,31,071,22,7*7C
$GAGSV,2,2,07,18,21,125,43,21,39,248,41,26,29,286,47,7*4D
$GAGSV,1,1,02,07,14,169,,27,17,193,,0*72
$GBGSV,3,1,11,01,43,152,41,02,28,236,34,03,44,206,43,04,35,132,38,1*70
$GBGSV,3,2,11,07,61,215,43,08,53,268,42,10,62,244,43,13,44,261,40,1*71
$GBGSV,3,3,11,27,60,327,47,28,55,087,47,37,02,211,12,1*41
$GBGSV,2,1,07,01,43,152,42,03,44,206,42,04,35,132,43,07,61,215,42,3*72
$GBGSV,2,2,07,08,53,268,42,10,62,244,42,13,44,261,39,3*4B
$GBGSV,2,1,05,05,08,256,,14,19,042,,15,32,191,,30,13,301,,0*79
$GBGSV,2,2,05,30,13,301,,0*41
$GNRMC,050002.00,A,3726.9498466,N,12639.2541970,E,0.014,,210622,,,R,V*0B
$GNVTG,,T,,M,0.014,N,0.025,K,D*3A
$GNGNS,050002.00,3726.9498466,N,12639.2541970,E,RRRR,28,0.60,21.223,17.838,2.0,4095,V*03
$GNGGA,050002.00,3726.9498466,N,12639.2541970,E,4,12,0.60,21.223,M,17.838,M,2.0,4095*5F
$GNGSA,A,3,17,09,20,12,19,04,02,11,06,14,,,1.09,0.60,0.91,1*04
$GNGSA,A,3,85,87,72,71,,,,,,,,,1.09,0.60,0.91,2*05
$GNGSA,A,3,01,08,26,21,13,,,,,,,,1.09,0.60,0.91,3*09
$GNGSA,A,3,28,08,07,13,03,27,04,01,10,,,,1.09,0.60,0.91,4*07
$GPGSV,4,1,13,02,21,280,27,03,24,044,22,04,27,082,28,06,58,311,48,1*6D
$GPGSV,4,2,13,09,30,120,44,11,25,275,32,12,19,315,31,14,17,184,32,1*6E
$GPGSV,4,3,13,17,69,112,44,19,80,004,47,20,15,226,37,28,,,39,1*59
$GPGSV,4,4,13,50,47,179,34,1*58
$GPGSV,2,1,07,04,27,082,17,06,58,311,41,09,30,120,36,11,25,275,33,6*6C
$GPGSV,2,2,07,12,19,315,29,14,17,184,29,17,69,112,40,6*59
$GPGSV,1,1,01,01,02,078,,0*58
$GLGSV,2,1,06,70,22,033,11,71,57,085,48,72,38,163,45,77,23,278,19,1*70
$GLGSV,2,2,06,85,19,090,27,87,32,317,36,1*79
$GLGSV,2,1,05,71,57,085,39,72,38,163,37,76,13,229,34,77,23,278,24,3*76
$GLGSV,2,2,05,87,32,317,10,3*45
$GLGSV,1,1,02,78,09,331,,86,52,046,,0*77
$GAGSV,2,1,06,01,25,303,42,03,24,058,22,08,37,117,44,13,65,358,43,2*78
$GAGSV,2,2,06,21,39,248,38,26,29,286,41,2*7A
$GAGSV,2,1,07,01,25,303,41,08,37,117,41,13,65,358,43,15,31,071,22,7*72
$GAGSV,2,2,07,18,21,125,43,21,39,248,41,26,29,286,47,7*4D
$GAGSV,1,1,02,07,14,169,,27,17,193,,0*72
$GBGSV,3,1,11,01,43,152,41,02,28,236,33,03,44,206,43,04,35,132,38,1*77
$GBGSV,3,2,11,07,61,215,43,08,53,268,42,10,62,244,43,13,44,261,41,1*70
$GBGSV,3,3,11,27,60,327,47,28,55,087,47,37,02,211,11,1*42
$GBGSV,2,1,07,01,43,152,42,03,44,206,42,04,35,132,43,07,61,215,41,3*71
$GBGSV,2,2,07,08,53,268,42,10,62,244,42,13,44,261,39,3*4B
$GBGSV,2,1,05,05,08,256,,14,19,042,,15,32,191,,30,13,301,,0*79
$GBGSV,2,2,05,30,13,301,,0*41
$GNRMC,050003.00,A,3726.9498456,N,12639.2541967,E,0.023,,210622,,,R,V*0B
$GNVTG,,T,,M,0.023,N,0.042,K,D*3F
$GNGNS,050003.00,3726.9498456,N,12639.2541967,E,RRRR,28,0.60,21.220,17.838,1.0,4095,V*07
$GNGGA,050003.00,3726.9498456,N,12639.2541967,E,4,12,0.60,21.220,M,17.838,M,1.0,4095*5B
$GNGSA,A,3,17,09,20,12,19,04,02,11,06,14,,,1.09,0.60,0.91,1*04
$GNGSA,A,3,85,87,72,71,,,,,,,,,1.09,0.60,0.91,2*05
$GNGSA,A,3,01,08,26,21,13,,,,,,,,1.09,0.60,0.91,3*09
$GNGSA,A,3,28,08,07,13,03,27,04,01,10,,,,1.09,0.60,0.91,4*07
$GPGSV,4,1,13,02,21,280,25,03,24,044,22,04,27,082,28,06,58,311,48,1*6F
$GPGSV,4,2,13,09,30,120,44,11,25,275,33,12,19,315,32,14,17,184,32,1*6C
$GPGSV,4,3,13,17,69,112,44,19,80,004,47,20,15,226,37,28,,,39,1*59
$GPGSV,4,4,13,50,47,179,34,1*58
$GPGSV,2,1,07,04,27,082,17,06,58,311,41,09,30,120,34,11,25,275,33,6*6E
$GPGSV,2,2,07,12,19,315,30,14,17,184,29,17,69,112,41,6*50
$GPGSV,1,1,01,01,02,078,,0*58
$GLGSV,2,1,06,70,22,033,12,71,57,085,48,72,38,163,45,77,23,278,19,1*73
$GLGSV,2,2,06,85,19,090,27,87,32,317,36,1*79
$GLGSV,2,1,05,71,57,085,39,72,38,163,38,76,13,229,34,77,23,278,25,3*78
$GLGSV,2,2,05,87,32,317,08,3*4C
$GLGSV,1,1,02,78,09,331,,86,52,046,,0*77
$GAGSV,2,1,06,01,25,303,42,03,24,058,22,08,37,117,44,13,65,358,43,2*78
$GAGSV,2,2,06,21,39,248,38,26,29,286,41,2*7A
$GAGSV,2,1,07,01,25,303,41,08,37,117,41,13,65,358,43,15,31,071,23,7*73
