$GNRMC,050702.00,A,3726.9809505,N,12639.2764584,E,0.034,,220622,,,F,V*1B
$GNVTG,,T,,M,0.034,N,0.063,K,D*3A
$GNGNS,050702.00,3726.9809505,N,12639.2764584,E,FFFF,28,0.71,20.258,17.838,,4095,V*27
$GNGGA,050702.00,3726.9809505,N,12639.2764584,E,5,12,0.71,20.258,M,17.838,M,,4095*7A
$GNGSA,A,3,02,06,14,19,09,11,20,17,12,03,,,1.29,0.71,1.08,1*00
$GNGSA,A,3,88,72,71,78,65,,,,,,,,1.29,0.71,1.08,2*08
$GNGSA,A,3,15,36,34,09,05,30,,,,,,,1.29,0.71,1.08,3*0F
$GNGSA,A,3,13,07,11,10,28,08,14,,,,,,1.29,0.71,1.08,4*02
$GPGSV,3,1,12,02,24,284,38,03,19,044,12,04,28,077,28,06,60,320,36,1*6C
$GPGSV,3,2,12,09,33,115,24,11,28,279,34,12,22,311,46,14,12,183,15,1*67
$GPGSV,3,3,12,17,64,121,32,19,84,039,20,20,19,229,18,41,27,238,28,1*65
$GPGSV,2,1,06,03,19,044,15,04,28,077,31,06,60,320,26,09,33,115,36,6*69
$GPGSV,2,2,06,11,28,279,26,12,22,311,35,6*61
$GPGSV,1,1,02,40,06,259,,50,47,179,,0*62
$GLGSV,2,1,05,65,48,161,19,77,06,223,20,78,21,275,36,86,11,098,24,1*78
$GLGSV,2,2,05,88,42,327,38,1*46
$GLGSV,2,1,06,65,48,161,09,71,15,029,09,72,55,067,08,77,06,223,05,3*73
$GLGSV,2,2,06,78,21,275,27,88,42,327,28,3*7F
$GLGSV,1,1,03,79,11,326,,81,00,298,,87,54,043,,0*40
$GAGSV,2,1,06,09,34,075,16,15,16,283,31,18,72,305,21,30,36,265,20,2*7C
$GAGSV,2,2,06,34,58,322,32,36,47,061,32,2*78
$GAGSV,2,1,07,05,34,139,27,09,34,075,29,15,16,283,36,18,72,305,31,7*7B
$GAGSV,2,2,07,30,36,265,27,34,58,322,20,36,47,061,21,7*4F
$GAGSV,2,1,05,02,23,207,,03,05,182,,04,04,032,,11,04,086,,0*72
$GAGSV,2,2,05,11,04,086,,0*4B
$GBGSV,2,1,08,07,58,215,11,08,53,272,12,10,60,241,16,11,30,103,28,1*77
$GBGSV,2,2,08,13,45,264,19,14,63,093,33,27,09,301,43,28,56,322,18,1*75
$GBGSV,2,1,06,07,58,215,07,08,53,272,08,10,60,241,08,11,30,103,39,3*78
$GBGSV,2,2,06,13,45,264,19,14,63,093,37,3*77
$GBGSV,2,1,07,01,43,152,,02,28,236,,03,44,206,,04,35,132,,0*79
$GBGSV,2,2,07,04,35,132,,05,08,256,,21,01,034,,0*4B
$GNRMC,050703.00,A,3726.9811060,N,12639.2765332,E,0.047,,220622,,,F,V*1B
$GNVTG,,T,,M,0.047,N,0.087,K,D*34
$GNGNS,050703.00,3726.9811060,N,12639.2765332,E,FFFF,26,0.71,20.156,17.838,,4095,V*20
$GNGGA,050703.00,3726.9811060,N,12639.2765332,E,5,12,0.71,20.156,M,17.838,M,,4095*73
$GNGSA,A,3,02,06,14,19,09,11,20,17,12,03,,,1.29,0.71,1.08,1*00
$GNGSA,A,3,88,72,71,78,65,,,,,,,,1.29,0.71,1.08,2*08
$GNGSA,A,3,15,36,34,09,05,30,,,,,,,1.29,0.71,1.08,3*0F
$GNGSA,A,3,13,07,11,10,28,08,14,,,,,,1.29,0.71,1.08,4*02
$GPGSV,3,1,12,02,24,284,38,03,19,044,06,04,28,077,28,06,60,320,36,1*69
$GPGSV,3,2,12,09,33,115,31,11,28,279,35,12,22,311,47,14,12,183,13,1*65
$GPGSV,3,3,12,17,64,121,32,19,84,039,19,20,19,229,18,41,27,238,27,1*60
$GPGSV,2,1,06,03,19,044,15,04,28,077,31,06,60,320,26,09,33,115,36,6*69
$GPGSV,2,2,06,11,28,279,26,12,22,311,35,6*61
$GPGSV,1,1,02,40,06,259,,50,47,179,,0*62
$GLGSV,2,1,05,65,48,161,19,77,06,223,12,78,21,275,37,86,11,098,21,1*7D
$GLGSV,2,2,05,88,42,327,38,1*46
$GLGSV,2,1,05,65,48,161,10,71,15,029,09,72,55,067,10,78,21,275,28,3*77
$GLGSV,2,2,05,88,42,327,27,3*4A
$GLGSV,1,1,03,79,11,326,,81,00,298,,87,54,043,,0*40
$GAGSV,2,1,06,05,34,139,23,15,16,283,31,18,72,305,21,30,36,265,19,2*75
$GAGSV,2,2,06,34,58,322,31,36,47,061,33,2*7A
$GAGSV,2,1,07,05,34,139,27,09,34,075,29,15,16,283,37,18,72,305,31,7*7A
$GAGSV,2,2,07,30,36,265,27,34,58,322,20,36,47,061,21,7*4F
$GAGSV,2,1,05,02,23,207,,03,05,182,,04,04,032,,11,04,086,,0*72
$GAGSV,2,2,05,11,04,086,,0*4B
$GBGSV,2,1,08,07,58,215,13,08,53,272,14,10,60,241,14,11,30,103,25,1*7C
$GBGSV,2,2,08,13,45,264,20,14,63,093,34,27,09,301,42,28,56,322,18,1*79
$GBGSV,2,1,06,07,58,215,07,08,53,272,08,10,60,241,08,11,30,103,42,3*74
$GBGSV,2,2,06,13,45,264,19,14,63,093,38,3*78
$GBGSV,2,1,07,01,43,152,,02,28,236,,03,44,206,,04,35,132,,0*79
$GBGSV,2,2,07,04,35,132,,05,08,256,,21,01,034,,0*4B
$GNRMC,050704.00,A,3726.9812661,N,12639.2766418,E,0.018,,220622,,,F,V*1E
$GNVTG,,T,,M,0.018,N,0.034,K,D*36
$GNGNS,050704.00,3726.9812661,N,12639.2766418,E,FFFF,24,0.78,19.988,17.838,,4095,V*25
$GNGGA,050704.00,3726.9812661,N,12639.2766418,E,5,12,0.78,19.988,M,17.838,M,,4095*74
$GNGSA,A,3,02,06,19,09,11,20,17,12,03,,,,1.43,0.78,1.19,1*00
$GNGSA,A,3,88,72,71,78,65,,,,,,,,1.43,0.78,1.19,2*0D
$GNGSA,A,3,15,36,34,09,05,30,,,,,,,1.43,0.78,1.19,3*0A
$GNGSA,A,3,13,07,11,28,08,14,,,,,,,1.43,0.78,1.19,4*06
$GPGSV,3,1,12,02,24,284,38,03,19,044,08,04,28,077,30,06,60,320,36,1*6E
$GPGSV,3,2,12,09,33,115,29,11,28,279,35,12,22,311,47,14,12,183,09,1*67
$GPGSV,3,3,12,17,64,121,30,19,84,039,20,20,19,229,20,41,27,238,27,1*63
$GPGSV,2,1,06,03,19,044,15,04,28,077,31,06,60,320,25,09,33,115,33,6*6F
$GPGSV,2,2,06,11,28,279,27,12,22,311,35,6*60
$GPGSV,1,1,02,40,06,259,,50,47,179,,0*62
$GLGSV,1,1,04,65,48,161,18,78,21,275,36,86,11,098,18,88,42,327,38,1*78
$GLGSV,2,1,05,65,48,161,07,71,15,029,12,72,55,067,11,78,21,275,30,3*73
$GLGSV,2,2,05,88,42,327,27,3*4A
$GLGSV,1,1,04,77,06,223,,79,11,326,,81,00,298,,87,54,043,,0*72
$GAGSV,2,1,06,05,34,139,23,15,16,283,32,18,72,305,22,30,36,265,18,2*74
$GAGSV,2,2,06,34,58,322,31,36,47,061,33,2*7A
$GAGSV,2,1,07,05,34,139,27,09,34,075,30,15,16,283,37,18,72,305,32,7*71
$GAGSV,2,2,07,30,36,265,27,34,58,322,19,36,47,061,22,7*46
$GAGSV,2,1,05,02,23,207,,03,05,182,,04,04,032,,11,04,086,,0*72
$GAGSV,2,2,05,11,04,086,,0*4B
$GBGSV,2,1,07,07,58,215,15,08,53,272,16,11,30,103,25,13,45,264,21,1*72
$GBGSV,2,2,07,14,63,093,34,27,09,301,42,28,56,322,19,1*46
$GBGSV,2,1,07,07,58,215,08,08,53,272,08,10,60,241,08,11,30,103,41,3*79
$GBGSV,2,2,07,13,45,264,18,14,63,093,37,28,56,322,19,3*45
$GBGSV,2,1,07,01,43,152,,02,28,236,,03,44,206,,04,35,132,,0*79
$GBGSV,2,2,07,04,35,132,,05,08,256,,21,01,034,,0*4B
$GNRMC,050705.00,A,3726.9814313,N,12639.2767295,E,0.009,,220622,,,F,V*1B
$GNVTG,,T,,M,0.009,N,0.017,K,D*37
$GNGNS,050705.00,3726.9814313,N,12639.2767295,E,FFFF,27,0.71,19.819,17.838,,4095,V*23
$GNGGA,050705.00,3726.9814313,N,12639.2767295,E,5,12,0.71,19.819,M,17.838,M,,4095*71
$GNGSA,A,3,02,06,14,19,09,11,20,17,12,03,,,1.29,0.71,1.08,1*00
$GNGSA,A,3,88,72,71,78,65,,,,,,,,1.29,0.71,1.08,2*08
$GNGSA,A,3,15,36,34,09,05,30,,,,,,,1.29,0.71,1.08,3*0F
$GNGSA,A,3,13,07,11,28,08,14,,,,,,,1.29,0.71,1.08,4*03
$GPGSV,3,1,11,02,24,284,38,03,19,044,12,04,28,077,30,06,60,320,36,1*66
$GPGSV,3,2,11,09,33,115,28,11,28,279,35,12,22,311,47,14,12,183,10,1*6D
$GPGSV,3,3,11,17,64,121,31,19,84,039,18,20,19,229,18,1*5D
$GPGSV,2,1,06,03,19,044,16,04,28,077,31,06,60,320,25,09,33,115,34,6*6B
$GPGSV,2,2,06,11,28,279,27,12,22,311,34,6*61
$GPGSV,1,1,03,40,06,259,,41,27,238,,50,47,179,,0*5A
$GLGSV,1,1,04,65,48,161,18,78,21,275,36,86,11,098,15,88,42,327,37,1*7A
$GLGSV,2,1,05,65,48,161,08,71,15,029,07,72,55,067,08,78,21,275,30,3*70
$GLGSV,2,2,05,88,42,327,27,3*4A
$GLGSV,1,1,04,77,06,223,,79,11,326,,81,00,298,,87,54,043,,0*72
$GAGSV,2,1,06,05,34,139,21,15,16,283,32,18,72,305,23,30,36,265,17,2*78
$GAGSV,2,2,06,34,58,322,30,36,47,061,32,2*7A
$GAGSV,2,1,07,05,34,139,28,09,34,075,32,15,16,283,37,18,72,305,32,7*7C
$GAGSV,2,2,07,30,36,265,26,34,58,322,18,36,47,061,21,7*45
$GAGSV,2,1,05,02,23,207,,03,05,182,,04,04,032,,11,04,086,,0*72
$GAGSV,2,2,05,11,04,086,,0*4B
$GBGSV,2,1,07,07,58,215,16,08,53,272,17,11,30,103,25,13,45,264,22,1*73
$GBGSV,2,2,07,14,63,093,34,27,09,301,42,28,56,322,18,1*47
$GBGSV,2,1,07,07,58,215,08,08,53,272,08,10,60,241,08,11,30,103,41,3*79
$GBGSV,2,2,07,13,45,264,18,14,63,093,38,28,56,322,15,3*46
$GBGSV,2,1,07,01,43,152,,02,28,236,,03,44,206,,04,35,132,,0*79
$GBGSV,2,2,07,04,35,132,,05,08,256,,21,01,034,,0*4B
$GNRMC,050706.00,A,3726.9816474,N,12639.2768711,E,0.040,,220622,,,F,V*17
$GNVTG,,T,,M,0.040,N,0.074,K,D*3F
$GNGNS,050706.00,3726.9816474,N,12639.2768711,E,FFFF,26,0.71,19.781,17.838,,4095,V*2D
$GNGGA,050706.00,3726.9816474,N,12639.2768711,E,5,12,0.71,19.781,M,17.838,M,,4095*7E
$GNGSA,A,3,02,06,14,19,09,11,20,17,12,03,,,1.29,0.71,1.08,1*00
$GNGSA,A,3,88,72,71,78,65,,,,,,,,1.29,0.71,1.08,2*08
$GNGSA,A,3,15,36,34,09,05,30,,,,,,,1.29,0.71,1.08,3*0F
$GNGSA,A,3,13,07,11,28,08,14,,,,,,,1.29,0.71,1.08,4*03
$GPGSV,3,1,11,02,24,284,38,03,19,044,13,04,28,077,29,06,60,320,36,1*6F
$GPGSV,3,2,11,09,33,115,32,11,28,279,36,12,22,311,47,14,12,183,15,1*60
$GPGSV,3,3,11,17,64,121,30,19,84,039,20,20,19,229,17,1*58
$GPGSV,2,1,06,03,19,044,16,04,28,077,31,06,60,320,25,09,33,115,36,6*69
$GPGSV,2,2,06,11,28,279,27,12,22,311,35,6*60
$GPGSV,1,1,03,40,06,259,,41,27,238,,50,47,179,,0*5A
$GLGSV,2,1,05,65,48,161,17,78,21,275,35,86,11,098,09,87,54,043,23,1*75
$GLGSV,2,2,05,88,42,327,37,1*49
$GLGSV,2,1,05,65,48,161,11,71,15,029,09,72,55,067,10,78,21,275,32,3*7D
$GLGSV,2,2,05,88,42,327,28,3*45
$GLGSV,1,1,03,77,06,223,,79,11,326,,81,00,298,,0*4C
$GAGSV,2,1,06,05,34,139,24,15,16,283,32,18,72,305,23,30,36,265,16,2*7C
$GAGSV,2,2,06,34,58,322,32,36,47,061,34,2*7E
$GAGSV,2,1,07,05,34,139,27,09,34,075,32,15,16,283,37,18,72,305,33,7*72
$GAGSV,2,2,07,30,36,265,27,34,58,322,16,36,47,061,18,7*40
$GAGSV,2,1,05,02,23,207,,03,05,182,,04,04,032,,11,04,086,,0*72
$GAGSV,2,2,05,11,04,086,,0*4B
$GBGSV,2,1,07,07,58,215,16,08,53,272,16,11,30,103,22,13,45,264,22,1*75
$GBGSV,2,2,07,14,63,093,33,27,09,301,42,28,56,322,16,1*4E
$GBGSV,2,1,07,07,58,215,08,08,53,272,08,10,60,241,07,11,30,103,40,3*77
$GBGSV,2,2,07,13,45,264,17,14,63,093,37,28,56,322,11,3*42
$GBGSV,2,1,07,01,43,152,,02,28,236,,03,44,206,,04,35,132,,0*79
$GBGSV,2,2,07,04,35,132,,05,08,256,,21,01,034,,0*4B
$GNRMC,050707.00,A,3726.9818347,N,12639.2770027,E,0.036,,220622,,,F,V*15
$GNVTG,,T,,M,0.036,N,0.066,K,D*3D
$GNGNS,050707.00,3726.9818347,N,12639.2770027,E,FFFF,26,0.76,19.610,17.838,,4095,V*20
$GNGGA,050707.00,3726.9818347,N,12639.2770027,E,5,12,0.76,19.610,M,17.838,M,,4095*73
$GNGSA,A,3,02,06,14,19,09,11,20,17,12,03,,,1.41,0.76,1.19,1*09
$GNGSA,A,3,88,72,71,78,65,,,,,,,,1.41,0.76,1.19,2*01
$GNGSA,A,3,15,36,34,09,05,30,,,,,,,1.41,0.76,1.19,3*06
$GNGSA,A,3,13,07,11,28,08,14,,,,,,,1.41,0.76,1.19,4*0A
$GPGSV,3,1,11,02,24,284,39,03,19,044,14,04,28,077,29,06,60,320,36,1*69
$GPGSV,3,2,11,09,33,115,32,11,28,279,36,12,22,311,46,14,12,183,11,1*65
$GPGSV,3,3,11,17,64,121,30,19,84,039,19,20,19,229,17,1*52
$GPGSV,1,1,01,14,12,183,14,5*58
$GPGSV,2,1,06,03,19,044,15,04,28,077,32,06,60,320,26,09,33,115,36,6*6A
$GPGSV,2,2,06,11,28,279,28,12,22,311,33,6*69
$GPGSV,1,1,03,40,06,259,,41,27,238,,50,47,179,,0*5A
$GLGSV,2,1,05,65,48,161,17,78,21,275,33,86,11,098,06,87,54,043,23,1*7C
$GLGSV,2,2,05,88,42,327,37,1*49
$GLGSV,2,1,05,65,48,161,09,71,15,029,12,72,55,067,14,78,21,275,31,3*79
$GLGSV,2,2,05,88,42,327,28,3*45
$GLGSV,1,1,03,77,06,223,,79,11,326,,81,00,298,,0*4C
$GAGSV,2,1,05,05,34,139,24,15,16,283,32,18,72,305,23,34,58,322,31,2*74
$GAGSV,2,2,05,36,47,061,34,2*45
$GAGSV,2,1,07,05,34,139,27,09,34,075,32,15,16,283,37,18,72,305,33,7*72
$GAGSV,2,2,07,30,36,265,27,34,58,322,17,36,47,061,17,7*4E
$GAGSV,2,1,05,02,23,207,,03,05,182,,04,04,032,,11,04,086,,0*72
$GAGSV,2,2,05,11,04,086,,0*4B
$GBGSV,2,1,07,07,58,215,15,08,53,272,16,11,30,103,30,13,45,264,21,1*76
$GBGSV,2,2,07,14,63,093,33,27,09,301,43,28,56,322,19,1*40
$GBGSV,2,1,07,07,58,215,08,08,53,272,08,10,60,241,08,11,30,103,38,3*77
$GBGSV,2,2,07,13,45,264,18,14,63,093,38,28,56,322,08,3*4A
$GBGSV,2,1,07,01,43,152,,02,28,236,,03,44,206,,04,35,132,,0*79
$GBGSV,2,2,07,04,35,132,,05,08,256,,21,01,034,,0*4B
$GNRMC,050708.00,A,3726.9819429,N,12639.2771154,E,0.058,,220622,,,F,V*18
$GNVTG,,T,,M,0.058,N,0.107,K,D*33
$GNGNS,050708.00,3726.9819429,N,12639.2771154,E,FFFF,27,0.71,19.511,17.838,,4095,V*21
$GNGGA,050708.00,3726.9819429,N,12639.2771154,E,5,12,0.71,19.511,M,17.838,M,,4095*73
$GNGSA,A,3,02,06,14,19,09,11,20,17,12,03,,,1.29,0.71,1.08,1*00
$GNGSA,A,3,88,72,71,78,65,87,,,,,,,1.29,0.71,1.08,2*07
$GNGSA,A,3,15,36,34,09,05,30,,,,,,,1.29,0.71,1.08,3*0F
$GNGSA,A,3,13,07,11,28,08,14,,,,,,,1.29,0.71,1.08,4*03
$GPGSV,3,1,11,02,24,284,38,03,19,044,15,04,28,077,30,06,60,320,37,1*60
$GPGSV,3,2,11,09,33,115,34,11,28,279,35,12,22,311,46,14,12,183,17,1*66
$GPGSV,3,3,11,17,64,121,31,19,84,039,20,20,19,229,18,1*56
$GPGSV,2,1,07,03,19,044,14,04,28,077,31,06,60,320,26,09,33,115,36,6*69
$GPGSV,2,2,07,11,28,279,28,12,22,311,35,14,12,183,14,6*57
$GPGSV,1,1,03,40,06,259,,41,27,238,,50,47,179,,0*5A
$GLGSV,2,1,05,65,48,161,16,78,21,275,31,86,11,098,06,87,54,043,21,1*7D
$GLGSV,2,2,05,88,42,327,37,1*49
$GLGSV,2,1,05,65,48,161,09,71,15,029,08,72,55,067,11,78,21,275,30,3*76
$GLGSV,2,2,05,88,42,327,28,3*45
$GLGSV,1,1,03,77,06,223,,79,11,326,,81,00,298,,0*4C
$GAGSV,2,1,05,05,34,139,24,15,16,283,31,18,72,305,23,34,58,322,30,2*76
$GAGSV,2,2,05,36,47,061,33,2*42
$GAGSV,2,1,07,05,34,139,27,09,34,075,33,15,16,283,37,18,72,305,34,7*74
$GAGSV,2,2,07,30,36,265,25,34,58,322,16,36,47,061,20,7*49
$GAGSV,2,1,05,02,23,207,,03,05,182,,04,04,032,,11,04,086,,0*72
$GAGSV,2,2,05,11,04,086,,0*4B
$GBGSV,2,1,07,07,58,215,14,08,53,272,17,11,30,103,29,13,45,264,21,1*7E
$GBGSV,2,2,07,14,63,093,34,27,09,301,41,28,56,322,22,1*4D
$GBGSV,2,1,07,07,58,215,07,08,53,272,09,10,60,241,07,11,30,103,38,3*76
$GBGSV,2,2,07,13,45,264,18,14,63,093,38,28,56,322,08,3*4A
$GBGSV,2,1,07,01,43,152,,02,28,236,,03,44,206,,04,35,132,,0*79
$GBGSV,2,2,07,04,35,132,,05,08,256,,21,01,034,,0*4B
$GNRMC,050709.00,A,3726.9820501,N,12639.2772023,E,0.058,,220622,,,F,V*1A
$GNVTG,,T,,M,0.058,N,0.108,K,D*3C
$GNGNS,050709.00,3726.9820501,N,12639.2772023,E,FFFF,27,0.72,19.343,17.838,,4095,V*21
$GNGGA,050709.00,3726.9820501,N,12639.2772023,E,5,12,0.72,19.343,M,17.838,M,,4095*73
$GNGSA,A,3,02,06,14,19,09,11,20,17,12,03,,,1.33,0.72,1.12,1*03
$GNGSA,A,3,88,72,71,78,65,87,,,,,,,1.33,0.72,1.12,2*04
$GNGSA,A,3,15,36,34,09,05,30,,,,,,,1.33,0.72,1.12,3*0C
$GNGSA,A,3,13,07,11,28,08,14,,,,,,,1.33,0.72,1.12,4*00
$GPGSV,3,1,11,02,24,284,38,03,19,044,18,04,28,077,32,06,60,320,37,1*6F
$GPGSV,3,2,11,09,33,115,33,11,28,279,34,12,22,311,47,14,12,183,10,1*66
$GPGSV,3,3,11,17,64,121,31,19,84,039,20,20,19,229,18,1*56
$GPGSV,2,1,07,03,19,044,14,04,28,077,30,06,60,320,26,09,33,115,36,6*68
$GPGSV,2,2,07,11,28,279,29,12,22,311,34,14,12,183,14,6*57
$GPGSV,1,1,03,40,06,259,,41,27,238,,50,47,179,,0*5A
$GLGSV,2,1,05,65,48,161,15,78,21,275,29,86,11,098,08,87,54,043,19,1*72
$GLGSV,2,2,05,88,42,327,38,1*46
$GLGSV,2,1,05,65,48,161,11,71,15,029,10,72,55,067,16,78,21,275,31,3*70
$GLGSV,2,2,05,88,42,327,28,3*45
$GLGSV,1,1,03,77,06,223,,79,11,326,,81,00,298,,0*4C
$GAGSV,2,1,05,05,34,139,25,15,16,283,32,18,72,305,23,34,58,322,31,2*75
$GAGSV,2,2,05,36,47,061,33,2*42
$GAGSV,2,1,07,05,34,139,28,09,34,075,32,15,16,283,37,18,72,305,33,7*7D
$GAGSV,2,2,07,30,36,265,25,34,58,322,16,36,47,061,11,7*4B
$GAGSV,2,1,05,02,23,207,,03,05,182,,04,04,032,,11,04,086,,0*72
$GAGSV,2,2,05,11,04,086,,0*4B
$GBGSV,2,1,07,07,58,215,14,08,53,272,17,11,30,103,27,13,45,264,20,1*71
$GBGSV,2,2,07,14,63,093,34,27,09,301,42,28,56,322,25,1*49
$GBGSV,1,1,04,11,30,103,39,13,45,264,17,14,63,093,38,28,56,322,07,3*72
$GBGSV,2,1,08,01,43,152,,02,28,236,,03,44,206,,04,35,132,,0*76
$GNRMC,050710.00,A,3726.9821028,N,12639.2772632,E,0.057,,220622,,,F,V*14
$GNVTG,,T,,M,0.057,N,0.105,K,D*3E
$GNGNS,050710.00,3726.9821028,N,12639.2772632,E,FFFF,27,0.70,19.213,17.838,,4095,V*26
$GNGGA,050710.00,3726.9821028,N,12639.2772632,E,5,12,0.70,19.213,M,17.838,M,,4095*74
$GNGSA,A,3,02,06,14,19,09,11,20,17,12,03,,,1.31,0.70,1.11,1*00
$GNGSA,A,3,88,72,71,78,65,87,,,,,,,1.31,0.70,1.11,2*07
$GNGSA,A,3,15,36,34,09,05,30,,,,,,,1.31,0.70,1.11,3*0F
$GNGSA,A,3,13,07,11,28,08,14,,,,,,,1.31,0.70,1.11,4*03
$GPGSV,3,1,11,02,24,284,38,03,19,044,19,04,28,077,31,06,60,320,37,1*6D
$GPGSV,3,2,11,09,33,115,31,11,28,279,35,12,22,311,47,14,12,183,12,1*67
$GPGSV,3,3,11,17,64,121,30,19,84,039,21,20,19,229,19,1*57
$GPGSV,2,1,07,03,19,044,14,04,28,077,29,06,60,320,25,09,33,115,36,6*63
$GPGSV,2,2,07,11,28,279,28,12,22,311,35,14,12,183,14,6*57
$GPGSV,1,1,03,40,06,259,,41,27,238,,50,47,179,,0*5A
$GLGSV,2,1,05,65,48,161,13,78,21,275,27,86,11,098,12,87,54,043,16,1*7E
$GLGSV,2,2,05,88,42,327,37,1*49
$GLGSV,2,1,05,65,48,161,09,71,15,029,11,72,55,067,17,78,21,275,32,3*7A
$GLGSV,2,2,05,88,42,327,27,3*4A
$GLGSV,1,1,03,77,06,223,,79,11,326,,81,00,298,,0*4C
$GAGSV,2,1,05,05,34,139,25,15,16,283,32,18,72,305,24,34,58,322,31,2*72
$GAGSV,2,2,05,36,47,061,33,2*42
$GAGSV,2,1,06,05,34,139,29,09,34,075,32,15,16,283,38,18,72,305,33,7*72
$GAGSV,2,2,06,30,36,265,25,36,47,061,09,7*7D
$GAGSV,2,1,05,02,23,207,,03,05,182,,04,04,032,,11,04,086,,0*72
$GAGSV,2,2,05,11,04,086,,0*4B
$GBGSV,2,1,07,07,58,215,13,08,53,272,17,11,30,103,28,13,45,264,21,1*78
$GBGSV,2,2,07,14,63,093,34,27,09,301,42,28,56,322,25,1*49
$GBGSV,2,1,06,08,53,272,25,10,60,241,20,11,30,103,39,13,45,264,18,3*7C
$GBGSV,2,2,06,14,63,093,37,28,56,322,08,3*7E
$GBGSV,2,1,07,01,43,152,,02,28,236,,03,44,206,,04,35,132,,0*79
$GBGSV,2,2,07,04,35,132,,05,08,256,,21,01,034,,0*4B
$GNRMC,050711.00,A,3726.9821693,N,12639.2773264,E,0.019,,220622,,,F,V*1F
$GNVTG,,T,,M,0.019,N,0.035,K,D*36
$GNGNS,050711.00,3726.9821693,N,12639.2773264,E,FFFF,25,0.72,19.179,17.838,,4095,V*28
$GNGGA,050711.00,3726.9821693,N,12639.2773264,E,5,12,0.72,19.179,M,17.838,M,,4095*78
$GNGSA,A,3,02,06,14,19,09,11,20,17,12,03,,,1.33,0.72,1.12,1*03
$GNGSA,A,3,88,72,71,78,65,87,,,,,,,1.33,0.72,1.12,2*04
$GNGSA,A,3,15,36,34,09,05,30,,,,,,,1.33,0.72,1.12,3*0C
$GNGSA,A,3,13,07,11,28,08,14,,,,,,,1.33,0.72,1.12,4*00
$GPGSV,3,1,11,02,24,284,38,03,19,044,19,04,28,077,30,06,60,320,37,1*6C
$GPGSV,3,2,11,09,33,115,30,11,28,279,35,12,22,311,47,14,12,183,08,1*6D
$GPGSV,3,3,11,17,64,121,30,19,84,039,20,20,19,229,19,1*56
$GPGSV,2,1,07,03,19,044,15,04,28,077,28,06,60,320,25,09,33,115,36,6*63
$GPGSV,2,2,07,11,28,279,28,12,22,311,35,14,12,183,14,6*57
$GPGSV,1,1,03,40,06,259,,41,27,238,,50,47,179,,0*5A
$GLGSV,1,1,04,65,48,161,12,78,21,275,26,87,54,043,16,88,42,327,38,1*7B
$GLGSV,2,1,05,65,48,161,10,71,15,029,09,72,55,067,14,78,21,275,30,3*7A
$GLGSV,2,2,05,88,42,327,27,3*4A
$GLGSV,1,1,04,77,06,223,,79,11,326,,81,00,298,,86,11,098,,0*74
$GAGSV,2,1,05,05,34,139,25,15,16,283,31,18,72,305,24,34,58,322,30,2*70
$GAGSV,2,2,05,36,47,061,32,2*43
$GAGSV,2,1,06,05,34,139,31,09,34,075,32,15,16,283,38,18,72,305,33,7*7B
$GAGSV,2,2,06,30,36,265,24,36,47,061,12,7*76
$GAGSV,2,1,05,02,23,207,,03,05,182,,04,04,032,,11,04,086,,0*72
$GAGSV,2,2,05,11,04,086,,0*4B
$GBGSV,2,1,08,07,58,215,14,08,53,272,18,10,60,241,17,11,30,103,27,1*76
$GBGSV,2,2,08,13,45,264,21,14,63,093,34,27,09,301,41,28,56,322,24,1*74
$GBGSV,2,1,05,08,53,272,23,11,30,103,39,13,45,264,18,14,63,093,37,3*75
$GBGSV,2,2,05,28,56,322,08,3*43
$GBGSV,2,1,07,01,43,152,,02,28,236,,03,44,206,,04,35,132,,0*79
$GBGSV,2,2,07,04,35,132,,05,08,256,,21,01,034,,0*4B
$GNRMC,050712.00,A,3726.9822107,N,12639.2773758,E,0.031,,220622,,,F,V*15
$GNVTG,,T,,M,0.031,N,0.057,K,D*38
$GNGNS,050712.00,3726.9822107,N,12639.2773758,E,FFFF,26,0.67,19.160,17.839,,4095,V*26
$GNGGA,050712.00,3726.9822107,N,12639.2773758,E,5,12,0.67,19.160,M,17.839,M,,4095*75
$GNGSA,A,3,02,06,14,19,09,11,20,17,12,03,,,1.25,0.67,1.06,1*05
$GNGSA,A,3,88,72,71,78,65,87,,,,,,,1.25,0.67,1.06,2*02
$GNGSA,A,3,15,36,34,09,05,30,,,,,,,1.25,0.67,1.06,3*0A
$GNGSA,A,3,13,07,11,28,08,14,,,,,,,1.25,0.67,1.06,4*06
$GPGSV,3,1,11,02,24,284,38,03,19,044,18,04,28,077,29,06,60,320,37,1*65
$GPGSV,3,3,11,17,64,121,30,19,84,039,20,20,19,229,20,1*5C
$GPGSV,1,1,01,17,64,121,15,5*53
$GPGSV,2,1,07,03,19,044,16,04,28,077,28,06,60,320,25,09,33,115,36,6*60
$GPGSV,2,2,07,11,28,279,28,12,22,311,35,14,12,183,15,6*56
$GPGSV,1,1,03,40,06,259,,41,27,238,,50,47,179,,0*5A
$GLGSV,1,1,04,65,48,161,12,78,21,275,27,87,54,043,20,88,42,327,38,1*7F
$GLGSV,2,1,05,65,48,161,09,71,15,029,09,72,55,067,14,78,21,275,29,3*7A
$GLGSV,2,2,05,88,42,327,27,3*4A
$GLGSV,1,1,04,77,06,223,,79,11,326,,81,00,298,,86,11,098,,0*74
$GAGSV,2,1,05,05,34,139,25,15,16,283,31,18,72,305,24,34,58,322,30,2*70
$GAGSV,2,2,05,36,47,061,32,2*43
$GAGSV,2,1,06,05,34,139,30,09,34,075,32,15,16,283,38,18,72,305,34,7*7D
$GAGSV,2,2,06,30,36,265,24,36,47,061,18,7*7C
$GAGSV,2,1,05,02,23,207,,03,05,182,,04,04,032,,11,04,086,,0*72
$GAGSV,2,2,05,11,04,086,,0*4B
$GBGSV,2,1,08,07,58,215,16,08,53,272,17,10,60,241,17,11,30,103,27,1*7B
$GBGSV,2,2,08,13,45,264,21,14,63,093,34,27,09$GNRMC,050713.00,A,3726.9822414,N,12639.2773980,E,0.023,,220622,,,F,V*1B
$GNVTG,,T,,M,0.023,N,0.043,K,D*3E
$GNGNS,050713.00,3726.9822414,N,12639.2773980,E,FFFF,27,0.63,19.140,17.839,,4095,V*2C
$GNGGA,050713.00,3726.9822414,N,12639.2773980,E,5,12,0.63,19.140,M,17.839,M,,4095*7E
$GNGSA,A,3,02,06,14,19,09,11,20,17,12,03,,,1.19,0.63,1.01,1*09
$GNGSA,A,3,88,72,71,78,65,87,,,,,,,1.19,0.63,1.01,2*0E
$GNGSA,A,3,15,36,34,09,05,30,,,,,,,1.19,0.63,1.01,3*06
$GNGSA,A,3,13,07,11,28,08,14,,,,,,,1.19,0.63,1.01,4*0A
$GPGSV,3,1,11,02,24,284,38,03,19,044,18,04,28,077,28,06,60,320,37,1*64
$GPGSV,3,2,11,09,33,115,29,11,28,279,33,12,22,311,47,14,12,183,09,1*62
$GPGSV,3,3,11,17,64,121,30,19,84,039,20,20,19,229,18,1*57
$GPGSV,2,1,08,03,19,044,15,04,28,077,28,06,60,320,25,09,33,115,37,6*6D
$GPGSV,2,2,08,11,28,279,28,12,22,311,34,14,12,183,15,17,64,121,15,6*6A
$GPGSV,1,1,03,40,06,259,,41,27,238,,50,47,179,,0*5A
$GLGSV,1,1,04,65,48,161,12,78,21,275,28,87,54,043,22,88,42,327,38,1*72
$GLGSV,2,1,05,65,48,161,08,71,15,029,11,72,55,067,13,78,21,275,29,3*75
$GLGSV,2,2,05,88,42,327,27,3*4A
$GLGSV,1,1,04,77,06,223,,79,11,326,,81,00,298,,86,11,098,,0*74
$GAGSV,2,1,05,05,34,139,23,15,16,283,31,18,72,305,24,34,58,322,30,2*76
$GAGSV,2,2,05,36,47,061,32,2*43
$GAGSV,2,1,06,05,34,139,32,09,34,075,32,15,16,283,38,18,72,305,34,7*7F
$GAGSV,2,2,06,30,36,265,24,36,47,061,22,7*75
$GAGSV,2,1,05,02,23,207,,03,05,182,,04,04,032,,11,04,086,,0*72
$GAGSV,2,2,05,11,04,086,,0*4B
$GBGSV,2,1,08,07,58,215,17,08,53,272,16,10,60,241,16,11,30,103,25,1*78
$GBGSV,2,2,08,13,45,264,20,14,63,093,34,27,09,301,40,28,56,322,22,1*72
$GBGSV,2,1,06,08,53,272,21,10,60,241,17,11,30,103,38,13,45,264,18,3*7D
$GBGSV,2,2,06,14,63,093,37,28,56,322,07,3*71
$GBGSV,2,1,07,01,43,152,,02,28,236,,03,44,206,,04,35,132,,0*79
$GBGSV,2,2,07,04,35,132,,05,08,256,,21,01,034,,0*4B
$GNRMC,050714.00,A,3726.9822410,N,12639.2774010,E,0.051,,220622,,,F,V*1A
$GNVTG,,T,,M,0.051,N,0.094,K,D*31
$GNGNS,050714.00,3726.9822410,N,12639.2774010,E,FFFF,26,0.72,19.105,17.839,,4095,V*28
$GNGGA,050714.00,3726.9822410,N,12639.2774010,E,5,12,0.72,19.105,M,17.839,M,,4095*7B
$GNGSA,A,3,02,06,14,19,09,11,20,17,12,03,,,1.33,0.72,1.12,1*03
$GNGSA,A,3,88,72,71,78,65,87,,,,,,,1.33,0.72,1.12,2*04
$GNGSA,A,3,15,36,34,09,05,30,,,,,,,1.33,0.72,1.12,3*0C
$GNGSA,A,3,13,07,11,28,08,14,,,,,,,1.33,0.72,1.12,4*00
$GPGSV,3,1,11,02,24,284,38,03,19,044,17,04,28,077,27,06,60,320,38,1*6B
$GPGSV,3,2,11,09,33,115,28,11,28,279,33,12,22,311,47,14,12,183,09,1*63
$GPGSV,3,3,11,17,64,121,31,19,84,039,21,20,19,229,18,1*57
$GPGSV,2,1,08,03,19,044,14,04,28,077,28,06,60,320,26,09,33,115,37,6*6F
$GPGSV,2,2,08,11,28,279,28,12,22,311,34,14,12,183,15,17,64,121,18,6*67
$GPGSV,1,1,03,40,06,259,,41,27,238,,50,47,179,,0*5A
$GLGSV,1,1,04,65,48,161,10,78,21,275,31,87,54,043,25,88,42,327,38,1*7F
$GLGSV,2,1,05,65,48,161,11,71,15,029,12,72,55,067,14,78,21,275,28,3*78
$GLGSV,2,2,05,88,42,327,26,3*4B
$GLGSV,1,1,04,77,06,223,,79,11,326,,81,00,298,,86,11,098,,0*74
$GAGSV,2,1,05,05,34,139,23,15,16,283,31,18,72,305,24,34,58,322,30,2*76
$GAGSV,2,2,05,36,47,061,31,2*40
$GAGSV,2,1,06,05,34,139,32,09,34,075,33,15,16,283,38,18,72,305,34,7*7E
$GAGSV,2,2,06,30,36,265,23,36,47,061,24,7*74
$GAGSV,2,1,05,02,23,207,,03,05,182,,04,04,032,,11,04,086,,0*72
$GAGSV,2,2,05,11,04,086,,0*4B
$GBGSV,2,1,08,07,58,215,17,08,53,272,15,10,60,241,15,11,30,103,23,1*7E
$GBGSV,2,2,08,13,45,264,18,14,63,093,34,27,09,301,40,28,56,322,22,1*79
$GBGSV,2,1,06,08,53,272,20,10,60,241,16,11,30,103,37,13,45,264,16,3*7C
$GBGSV,2,2,06,14,63,093,37,28,56,322,07,3*71
$GBGSV,2,1,07,01,43,152,,02,28,236,,03,44,206,,04,35,132,,0*79
$GBGSV,2,2,07,04,35,132,,05,08,256,,21,01,034,,0*4B
$GNRMC,050715.00,A,3726.9822309,N,12639.2774082,E,0.032,,220622,,,F,V*1A
$GNVTG,,T,,M,0.032,N,0.058,K,D*34
$GNGNS,050715.00,3726.9822309,N,12639.2774082,E,FFFF,27,0.72,19.029,17.839,,4095,V*23
$GNGGA,050715.00,3726.9822309,N,12639.2774082,E,5,12,0.72,19.029,M,17.839,M,,4095*71
$GNGSA,A,3,02,06,14,19,09,11,20,17,12,03,,,1.33,0.72,1.12,1*03
$GNGSA,A,3,88,72,71,78,65,87,,,,,,,1.33,0.72,1.12,2*04
$GNGSA,A,3,15,36,34,09,05,30,,,,,,,1.33,0.72,1.12,3*0C
$GNGSA,A,3,13,07,11,10,28,08,14,,,,,,1.33,0.72,1.12,4*01
$GPGSV,3,1,11,02,24,284,38,03,19,044,15,04,28,077,27,06,60,320,38,1*69
$GPGSV,3,2,11,09,33,115,29,11,28,279,33,12,22,311,47,14,12,183,08,1*63
$GPGSV,3,3,11,17,64,121,32,19,84,039,23,20,19,229,18,1*56
$GPGSV,2,1,08,03,19,044,15,04,28,077,28,06,60,320,26,09,33,115,36,6*6F
$GPGSV,2,2,08,11,28,279,28,12,22,311,34,14,12,183,16,17,64,121,18,6*64
$GPGSV,1,1,03,40,06,259,,41,27,238,,50,47,179,,0*5A
$GLGSV,1,1,04,65,48,161,13,78,21,275,32,87,54,043,26,88,42,327,38,1*7C
$GLGSV,2,1,05,65,48,161,08,71,15,029,11,72,55,067,12,78,21,275,27,3*7A
$GLGSV,2,2,05,88,42,327,26,3*4B
$GLGSV,1,1,04,77,06,223,,79,11,326,,81,00,298,,86,11,098,,0*74
$GAGSV,2,1,05,05,34,139,23,15,16,283,30,18,72,305,24,34,58,322,29,2*7F
$GAGSV,2,2,05,36,47,061,31,2*40
$GAGSV,2,1,06,05,34,139,32,09,34,075,33,15,16,283,38,18,72,305,34,7*7E
$GAGSV,2,2,06,30,36,265,24,36,47,061,25,7*72
$GAGSV,2,1,05,02,23,207,,03,05,182,,04,04,032,,11,04,086,,0*72
$GAGSV,2,2,05,11,04,086,,0*4B
$GBGSV,2,1,08,07,58,215,17,08,53,272,14,10,60,241,17,11,30,103,22,1*7C
$GBGSV,2,2,08,13,45,264,16,14,63,093,34,27,09,301,40,28,56,322,21,1*74
$GBGSV,2,1,06,08,53,272,20,10,60,241,16,11,30,103,36,13,45,264,14,3*7F
$GBGSV,2,2,06,14,63,093,37,28,56,322,07,3*71
$GBGSV,2,1,07,01,43,152,,02,28,236,,03,44,206,,04,35,132,,0*79
$GBGSV,2,2,07,04,35,132,,05,08,256,,21,01,034,,0*4B
$GNRMC,050716.00,A,3726.9822589,N,12639.2774400,E,0.017,,220622,,,F,V*1E
$GNVTG,,T,,M,0.017,N,0.031,K,D*3C
$GNGNS,050716.00,3726.9822589,N,12639.2774400,E,FFFF,28,0.80,18.878,17.839,,4095,V*2F
$GNGGA,050716.00,3726.9822589,N,12639.2774400,E,5,12,0.80,18.878,M,17.839,M,,4095*72
$GNGSA,A,3,02,06,14,19,09,11,20,17,12,03,,,1.46,0.80,1.23,1*0E
$GNGSA,A,3,88,72,71,78,65,87,,,,,,,1.46,0.80,1.23,2*09
$GNGSA,A,3,15,36,34,09,05,30,,,,,,,1.46,0.80,1.23,3*01
$GNGSA,A,3,13,07,11,10,28,08,14,,,,,,1.46,0.80,1.23,4*0C
$GPGSV,3,1,11,02,24,284,38,03,19,044,15,04,28,077,30,06,60,320,38,1*6F
$GPGSV,3,2,11,09,33,115,32,11,28,279,33,12,22,311,48,14,12,183,11,1*6E
$GPGSV,3,3,11,17,64,121,31,19,84,039,23,20,19,229,19,1*54
$GPGSV,2,2,08,11,28,279,28,12,22,311,35,14,12,183,17,17,64,121,18,6*64
$GPGSV,1,1,03,40,06,259,,41,27,238,,50,47,179,,0*5A
$GLGSV,1,1,04,65,48,161,14,78,21,275,36,87,54,043,27,88,42,327,37,1*71
$GLGSV,2,1,05,65,48,161,11,71,15,029,11,72,55,067,10,78,21,275,25,3*72
$GLGSV,2,2,05,88,42,327,26,3*4B
$GLGSV,1,1,04,77,06,223,,79,11,326,,81,00,298,,86,11,098,,0*74
$GAGSV,2,1,05,05,34,139,23,15,16,283,31,18,72,305,25,34,58,322,29,2*7F
$GAGSV,2,2,05,36,47,061,32,2*43
$GAGSV,2,1,06,05,34,139,31,09,34,075,33,15,16,283,38,18,72,305,33,7*7A
$GAGSV,2,2,06,30,36,265,23,36,47,061,26,7*76
$GAGSV,2,1,05,02,23,207,,03,05,182,,04,04,032,,11,04,086,,0*72
$GAGSV,2,2,05,11,04,086,,0*4B
$GBGSV,2,1,08,07,58,215,16,08,53,272,16,10,60,241,16,11,30,103,23,1*7F
$GBGSV,2,2,08,13,45,264,18,14,63,093,34,27,09,301,40,28,56,322,21,1*7A
$GBGSV,2,1,05,08,53,272,20,10,60,241,17,11,30,103,37,13,45,264,14,3*7C
$GBGSV,2,2,05,14,63,093,37,3*4F
$GBGSV,2,1,07,01,43$GBGSV,2,2,07,04,35,132,,05,08,256,,21,01,034,,0*4B
$GNRMC,050717.00,A,3726.9822469,N,12639.2774439,E,0.015,,220622,,,F,V*18
$GNVTG,,T,,M,0.015,N,0.027,K,D*39
$GNGNS,050717.00,3726.9822469,N,12639.2774439,E,FFFF,27,0.72,18.737,17.839,,4095,V*2D
$GNGGA,050717.00,3726.9822469,N,12639.2774439,E,5,12,0.72,18.737,M,17.839,M,,4095*7F
$GNGSA,A,3,02,06,14,19,09,11,20,17,12,03,,,1.42,0.72,1.22,1*06
$GNGSA,A,3,88,72,71,78,65,87,,,,,,,1.42,0.72,1.22,2*01
$GNGSA,A,3,15,36,34,09,05,30,,,,,,,1.42,0.72,1.22,3*09
$GNGSA,A,3,13,07,11,10,28,08,14,,,,,,1.42,0.72,1.22,4*04
$GPGSV,3,1,11,02,24,284,37,03,19,044,15,04,28,077,31,06,60,320,38,1*61
$GPGSV,3,2,11,09,33,115,36,11,28,279,33,12,22,311,48,14,12,183,19,1*62
$GPGSV,3,3,11,17,64,121,34,19,84,039,23,20,19,229,20,1*5B
$GPGSV,2,1,08,03,19,044,15,04,28,077,30,06,60,320,27,09,33,115,36,6*67
$GPGSV,2,2,08,11,28,279,28,12,22,311,35,14,12,183,19,17,64,121,18,6*6A
$GPGSV,1,1,03,40,06,259,,41,27,238,,50,47,179,,0*5A
$GLGSV,1,1,04,65,48,161,16,78,21,275,35,87,54,043,28,88,42,327,38,1*70
$GLGSV,2,1,05,65,48,161,10,71,15,029,10,72,55,067,12,78,21,275,24,3*71
$GLGSV,2,2,05,88,42,327,27,3*4A
$GLGSV,1,1,04,77,06,223,,79,11,326,,81,00,298,,86,11,098,,0*74
$GAGSV,2,1,05,05,34,139,23,15,16,283,31,18,72,305,25,34,58,322,29,2*7F
$GAGSV,2,2,05,36,47,061,32,2*43
$GAGSV,2,1,06,05,34,139,32,09,34,075,33,15,16,283,38,18,72,305,34,7*7E
$GAGSV,2,2,06,30,36,265,23,36,47,061,26,7*76
$GAGSV,2,1,05,02,23,207,,03,05,182,,04,04,032,,11,04,086,,0*72
$GAGSV,2,2,05,11,04,086,,0*4B
$GBGSV,2,1,08,07,58,215,16,08,53,272,17,10,60,241,16,11,30,103,28,1*75
$GBGSV,2,2,08,13,45,264,20,14,63,093,33,27,09,301,41,28,56,322,21,1*77
$GBGSV,2,1,05,08,53,272,20,10,60,241,16,11,30,103,37,13,45,264,15,3*7C
$GBGSV,2,2,05,14,63,093,37,3*4F
$GBGSV,2,1,07,01,43,152,,02,28,236,,03,44,206,,04,35,132,,0*79
$GBGSV,2,2,07,04,35,132,,05,08,256,,21,01,034,,0*4B
$GNRMC,050718.00,A,3726.9821758,N,12639.2774352,E,0.032,,220622,,,F,V*1A
$GNVTG,,T,,M,0.032,N,0.059,K,D*35
$GNGNS,050718.00,3726.9821758,N,12639.2774352,E,FFFF,27,0.72,18.461,17.839,,4095,V*2A
$GNGGA,050718.00,3726.9821758,N,12639.2774352,E,5,12,0.72,18.461,M,17.839,M,,4095*78
$GNGSA,A,3,02,06,14,19,09,11,20,17,12,03,,,1.42,0.72,1.22,1*06
$GNGSA,A,3,88,72,71,78,65,87,,,,,,,1.42,0.72,1.22,2*01
$GNGSA,A,3,15,36,34,09,05,30,,,,,,,1.42,0.72,1.22,3*09
$GNGSA,A,3,13,07,11,10,28,08,14,,,,,,1.42,0.72,1.22,4*04
$GPGSV,3,1,11,02,24,284,37,03,19,044,17,04,28,077,30,06,60,320,38,1*62
$GPGSV,3,2,11,09,33,115,34,11,28,279,31,12,22,311,48,14,12,183,14,1*6F
$GPGSV,3,3,11,17,64,121,34,19,84,039,22,20,19,229,21,1*5B
$GPGSV,2,1,08,03,19,044,16,04,28,077,30,06,60,320,27,09,33,115,37,6*65
$GPGSV,2,2,08,11,28,279,28,12,22,311,35,14,12,183,20,17,64,121,17,6*6F
$GPGSV,1,1,03,40,06,259,,41,27,238,,50,47,179,,0*5A
$GLGSV,1,1,04,65,48,161,17,78,21,275,36,87,54,043,27,88,42,327,38,1*7D
$GLGSV,2,1,05,65,48,161,10,71,15,029,10,72,55,067,17,78,21,275,23,3*73
$GLGSV,2,2,05,88,42,327,26,3*4B
$GLGSV,1,1,04,77,06,223,,79,11,326,,81,00,298,,86,11,098,,0*74
$GAGSV,2,1,05,05,34,139,22,15,16,283,30,18,72,305,24,34,58,322,28,2*7F
$GAGSV,2,2,05,36,47,061,31,2*40
$GAGSV,2,1,06,05,34,139,32,09,34,075,33,15,16,283,38,18,72,305,33,7*79
$GAGSV,2,2,06,30,36,265,23,36,47,061,26,7*76
$GAGSV,2,1,05,02,23,207,,03,05,182,,04,04,032,,11,04,086,,0*72
$GNRMC,050719.00,A,3726.9821164,N,12639.2774213,E,0.011,,220622,,,F,V*17
$GNVTG,,T,,M,0.011,N,0.020,K,D*3A
$GNGNS,050719.00,3726.9821164,N,12639.2774213,E,FFFF,29,0.80,18.225,17.839,,4095,V*23
$GNGSA,A,3,02,06,14,19,09,11,20,17,12,03,,,1.57,0.80,1.36,1*0A
$GNGSA,A,3,88,72,71,78,65,87,,,,,,,1.57,0.80,1.36,2*0D
$GNGSA,A,3,15,36,34,09,05,30,,,,,,,1.57,0.80,1.36,3*05
$GNGSA,A,3,13,07,11,10,28,08,14,,,,,,1.57,0.80,1.36,4*08
$GPGSV,3,1,11,02,24,284,37,03,19,044,16,04,28,077,33,06,60,320,38,1*60
$GPGSV,3,2,11,09,33,115,33,11,28,279,31,12,22,311,48,14,12,183,11,1*6D
$GPGSV,3,3,11,17,64,121,33,19,84,039,21,20,19,229,23,1*5D
$GPGSV,2,1,08,03,19,044,16,04,28,077,32,06,60,320,27,09,33,115,36,6*66
$GPGSV,2,2,08,11,28,279,28,12,22,311,35,14,12,183,21,17,64,121,18,6*61
$GPGSV,1,1,03,40,06,259,,41,27,238,,50,47,179,,0*5A
$GLGSV,1,1,04,65,48,161,17,78,21,275,36,87,54,043,27,88,42,327,38,1*7D
$GLGSV,2,1,05,65,48,161,08,71,15,029,10,72,55,067,13,78,21,275,23,3*7E
$GLGSV,2,2,05,88,42,327,25,3*48
$GLGSV,1,1,04,77,06,223,,79,11,326,,81,00,298,,86,11,098,,0*74
$GAGSV,2,1,05,05,34,139,23,15,16,283,31,18,72,305,25,34,58,322,$GAGSV,2,2,05,36,47,061,32,2*43
$GAGSV,2,1,06,05,34,139,32,09,34,075,33,15,16,283,38,18,72,305,33,7*79
$GAGSV,2,2,06,30,36,265,22,36,47,061,25,7*74
$GAGSV,2,1,05,02,23,207,,03,05,182,,04,04,032,,11,04,086,,0*72
$GAGSV,2,2,05,11,04,086,,0*4B
$GBGSV,2,1,08,07,58,215,17,08,53,272,17,10,60,241,17,11,30,103,27,1*7A
$GBGSV,2,2,08,13,45,264,21,14,63,093,34,27,09,301,41,28,56,322,19,1*7A
$GBGSV,1,1,04,08,53,272,21,11,30,103,38,13,45,264,14,14,63,093,38,3*77
$GBGSV,2,1,07,01,43,152,,02,28,236,,03,44,206,,04,35,132,,0*79
$GBGSV,2,2,07,04,35,132,,05,08,256,,21,01,034,,0*4B
$GNRMC,050720.00,A,3726.9820574,N,12639.2773741,E,0.087,,220622,,,F,V*13
$GNVTG,,T,,M,0.087,N,0.161,K,D*31
$GNGNS,050720.00,3726.9820574,N,12639.2773741,E,FFFF,26,0.72,18.160,17.839,,4095,V*28
$GNGGA,050720.00,3726.9820574,N,12639.2773741,E,5,12,0.72,18.160,M,17.839,M,,4095*7B
$GNGSA,A,3,02,06,14,19,09,11,20,17,12,03,,,1.42,0.72,1.22,1*06
$GNGSA,A,3,88,72,71,78,65,87,,,,,,,1.42,0.72,1.22,2*01
$GNGSA,A,3,15,36,34,09,05,30,,,,,,,1.42,0.72,1.22,3*09
$GNGSA,A,3,13,07,11,10,28,08,14,,,,,,1.42,0.72,1.22,4*04
$GPGSV,3,1,11,02,24,284,37,03,19,044,15,04,28,077,33,06,60,320,37,1*6C
$GPGSV,3,2,11,09,33,115,37,11,28,279,30,12,22,311,48,14,12,183,12,1*6B
$GPGSV,3,3,11,17,64,121,33,19,84,039,20,20,19,229,23,1*5C
$GPGSV,2,1,08,03,19,044,16,04,28,077,32,06,60,320,27,09,33,115,37,6*67
$GPGSV,2,2,08,11,28,279,27,12,22,311,35,14,12,183,22,17,64,121,18,6*6D
$GPGSV,1,1,03,40,06,259,,41,27,238,,50,47,179,,0*5A
$GLGSV,2,1,05,65,48,161,16,72,55,067,23,78,21,275,36,87,54,043,26,1*71
$GLGSV,2,2,05,88,42,327,37,1*49
$GLGSV,2,1,05,65,48,161,09,71,15,029,11,72,55,067,14,78,21,275,22,3*78
$GLGSV,2,2,05,88,42,327,25,3*48
$GLGSV,1,1,04,77,06,223,,79,11,326,,81,00,298,,86,11,098,,0*74
$GAGSV,2,1,05,05,34,139,24,15,16,283,30,18,72,305,25,34,58,322,28,2*78
$GAGSV,2,2,05,36,47,061,32,2*43
$GAGSV,2,1,06,05,34,139,32,09,34,075,33,15,16,283,38,18,72,305,33,7*79
$GAGSV,2,2,06,30,36,265,23,36,47,061,26,7*76
$GAGSV,2,1,05,02,23,207,,03,05,182,,04,04,032,,11,04,086,,0*72
$GAGSV,2,2,05,11,04,086,,0*4B
$GBGSV,2,1,08,07,58,215,17,08,53,272,16,10,60,241,18,11,30,103,27,1*74
$GBGSV,2,2,08,13,45,264,21,14,63,093,34,27,09,301,41,28,56,322,20,1*70
$GBGSV,1,1,04,08,53,272,21,11,30,103,36,13,45,264,15,14,63,093,37,3*77
$GBGSV,2,1,07,01,43,152,,02,28,236,,03,44,206,,04,35,132,,0*79
$GBGSV,2,2,07,04,35,132,,05,08,256,,21,01,034,,0*4B
$GNRMC,050721.00,A,3726.9819135,N,12639.2772881,E,0.033,,220622,,,F,V*14
$GNVTG,,T,,M,0.033,N,0.061,K,D*3F
$GNGNS,050721.00,3726.9819135,N,12639.2772881,E,FFFF,26,0.71,18.019,17.838,,4095,V*2D
$GNGGA,050721.00,3726.9819135,N,12639.2772881,E,5,12,0.71,18.019,M,17.838,M,,4095*7E
$GNGSA,A,3,02,06,14,19,09,11,20,17,12,03,,,1.37,0.71,1.17,1*01
$GNGSA,A,3,88,72,71,78,65,87,,,,,,,1.37,0.71,1.17,2*06
$GNGSA,A,3,15,36,34,09,05,30,,,,,,,1.37,0.71,1.17,3*0E
$GNGSA,A,3,13,07,11,10,28,08,14,,,,,,1.37,0.71,1.17,4*03
$GPGSV,3,1,11,02,24,284,37,03,19,044,15,04,28,077,32,06,60,320,37,1*6D
$GPGSV,3,2,11,09,33,115,37,11,28,279,31,12,22,311,48,14,12,183,17,1*6F
$GPGSV,3,3,11,17,64,121,34,19,84,039,22,20,19,229,22,1*58
$GPGSV,2,1,08,03,19,044,16,04,28,077,31,06,60,320,27,09,33,115,36,6*65
$GPGSV,2,2,08,11,28,279,27,12,22,311,34,14,12,183,22,17,64,121,17,6*63
$GPGSV,1,1,03,40,06,259,,41,27,238,,50,47,179,,0*5A
$GLGSV,2,1,05,65,48,161,15,72,55,067,22,78,21,275,36,87,54,043,23,1*76
$GLGSV,2,2,05,88,42,327,37,1*49
$GLGSV,2,1,05,65,48,161,08,71,15,029,10,72,55,067,09,78,21,275,23,3*75
$GLGSV,2,2,05,88,42,327,26,3*4B
$GLGSV,1,1,04,77,06,223,,79,11,326,,81,00,298,,86,11,098,,0*74
$GAGSV,2,1,05,05,34,139,24,15,16,283,30,18,72,305,26,34,58,322,29,2*7A
$GAGSV,2,2,05,36,47,061,31,2*40
$GAGSV,2,1,06,05,34,139,32,09,34,075,34,15,16,283,38,18,72,305,33,7*7E
$GAGSV,2,2,06,30,36,265,24,36,47,061,26,7*71
$GAGSV,2,1,05,02,23,207,,03,05,182,,04,04,032,,11,04,086,,0*72
$GAGSV,2,2,05,11,04,086,,0*4B
$GBGSV,2,1,08,07,58,215,18,08,53,272,16,10,60,241,17,11,30,103,28,1*7B
$GBGSV,2,2,08,13,45,264,20,14,63,093,33,27,09,301,43,28,56,322,23,1*77
$GBGSV,1,1,04,08,53,272,20,11,30,103,37,13,45,264,15,14,63,093,37,3*77
$GBGSV,2,1,07,01,43,152,,02,28,236,,03,44,206,,04,35,132,,0*79
$GBGSV,2,2,07,04,35,132,,05,08,256,,21,01,034,,0*4B
$GNRMC,050722.00,A,3726.9817697,N,12639.2771846,E,0.049,,220622,,,F,V*13
$GNVTG,,T,,M,0.049,N,0.091,K,D*3D
$GNGNS,050722.00,3726.9817697,N,12639.2771846,E,FFFF,29,0.77,17.867,17.838,,4095,V*20
$GNGGA,050722.00,3726.9817697,N,12639.2771846,E,5,12,0.77,17.867,M,17.838,M,,4095*7C
$GNGSA,A,3,02,06,14,19,09,11,20,17,12,03,,,1.49,0.77,1.28,1*02
$GNGSA,A,3,88,72,71,78,65,87,,,,,,,1.49,0.77,1.28,2*05
$GNGSA,A,3,15,36,34,09,05,30,,,,,,,1.49,0.77,1.28,3*0D
$GNGSA,A,3,13,07,11,10,28,08,14,,,,,,1.49,0.77,1.28,4*00
$GPGSV,3,1,11,02,24,284,37,03,19,044,12,04,28,077,35,06,60,320,37,1*6D
$GPGSV,3,2,11,09,33,115,35,11,28,279,31,12,22,311,47,14,12,183,12,1*67
$GPGSV,3,3,11,17,64,121,34,19,84,039,21,20,19,229,21,1*58
$GPGSV,2,1,08,03,19,044,15,04,28,077,33,06,60,320,27,09,33,115,37,6*65
$GPGSV,2,2,08,11,28,279,26,12,22,311,35,14,12,183,22,17,64,121,17,6*63
$GPGSV,1,1,03,40,06,259,,41,27,238,,50,47,179,,0*5A
$GLGSV,2,1,05,65,48,161,17,72,55,067,23,78,21,275,35,87,54,043,21,1*74
$GLGSV,2,2,05,88,42,327,37,1*49
$GLGSV,2,1,05,65,48,161,10,71,15,029,11,72,55,067,11,78,21,275,23,3*74
$GLGSV,2,2,05,88,42,327,26,3*4B
$GLGSV,1,1,04,77,06,223,,79,11,326,,81,00,298,,86,11,098,,0*74
$GAGSV,2,1,06,05,34,139,24,15,16,283,32,18,72,305,27,30,36,265,26,2*7B
$GAGSV,2,2,06,34,58,322,30,36,47,061,31,2*79
$GAGSV,2,1,07,05,34,139,31,09,34,075,35,15,16,283,38,18,72,305,33,7*7D
$GAGSV,2,2,07,27,13,319,41,30,36,265,24,36,47,061,24,7*4B
$GAGSV,1,1,04,02,23,207,,03,05,182,,04,04,032,,11,04,086,,0*70
$GBGSV,2,1,08,07,58,215,19,08,53,272,15,10,60,241,19,11,30,103,28,1*77
$GBGSV,2,2,08,13,45,264,20,14,63,093,34,27,09,301,43,28,56,322,21,1*72
$GBGSV,1,1,04,08,53,272,19,11,30,103,38,13,45,264,16,14,63,093,38,3*7E
$GBGSV,2,1,07,01,43,152,,02,28,236,,03,44,206,,04,35,132,,0*79
$GBGSV,2,2,07,04,35,132,,05,08,256,,21,01,034,,0*4B
$GNRMC,050723.00,A,3726.9816576,N,12639.2771116,E,0.038,,220622,,,F,V*15
$GNVTG,,T,,M,0.038,N,0.071,K,D*35
$GNGNS,050723.00,3726.9816576,N,12639.2771116,E,FFFF,27,0.75,17.711,17.838,,4095,V*22
$GNGGA,050723.00,3726.9816576,N,12639.2771116,E,5,12,0.75,17.711,M,17.838,M,,4095*70
$GNGSA,A,3,02,06,14,19,09,11,20,17,12,03,,,1.44,0.75,1.23,1*06
$GNGSA,A,3,88,72,71,78,65,87,,,,,,,1.44,0.75,1.23,2*01
$GNGSA,A,3,15,36,34,09,05,30,,,,,,,1.44,0.75,1.23,3*09
$GNGSA,A,3,13,07,11,10,28,08,14,,,,,,1.44,0.75,1.23,4*04
$GPGSV,3,1,11,02,24,284,37,03,19,044,11,04,28,077,35,06,60,320,37,1*6E
$GPGSV,3,2,11,09,33,115,33,11,28,279,31,12,22,311,47,14,12,183,16,1*65
$GPGSV,3,3,11,17,64,121,34,19,84,039,20,20,19,229,21,1*59
$GPGSV,2,2,08,11,28,279,26,12,22,311,34,14,12,183,22,17,64,121,15,6*60
$GPGSV,1,1,03,40,06,259,,41,27,238,,50,47,179,,0*5A
$GLGSV,2,1,05,65,48,161,17,72,55,067,24,78,21,275,35,87,54,043,18,1*79
$GLGSV,2,2,05,88,42,327,38,1*46
$GLGSV,2,1,05,65,48,161,11,71,15,029,09,72,55,067,12,78,21,275,24,3*78
$GLGSV,2,2,05,88,42,327,26,3*4B
$GLGSV,1,1,04,77,06,223,,79,11,326,,81,00,298,,86,11,098,,0*74
$GAGSV,2,1,06,05,34,139,24,15,16,283,32,18,72,305,27,30,36,265,24,2*79
$GAGSV,2,2,06,34,58,322,30,36,47,061,31,2*79
$GAGSV,2,1,07,05,34,139,31,09,34,075,35,15,16,283,37,18,72,305,32,7*73
$GAGSV,2,2,07,27,13,319,40,30,36,265,24,36,47,061,22,7*4C
$GAGSV,1,1,04,02,23,207,,03,05,182,,04,04,032,,11,04,086,,0*70
$GBGSV,2,1,08,07,58,215,20,08,53,272,16,10,60,241,18,11,30,103,28,1*7F
$GBGSV,2,2,08,13,45,264,19,14,63,093,34,27,09,301,43,28,56,322,21,1*78
$GBGSV,1,1,04,08,53,272,19,11,30,103,37,13,45,264,16,14,63,093,38,3*71
$GBGSV,2,1,07,01,43,152,$GBGSV,2,2,07,04,35,132,,05,08,256,,21,01,034,,0*4B
$GNRMC,050724.00,A,3726.9815352,N,12639.2770321,E,0.013,,220622,,,F,V*1F
$GNVTG,,T,,M,0.013,N,0.024,K,D*3C
$GNGNS,050724.00,3726.9815352,N,12639.2770321,E,FFFF,26,0.83,17.596,17.838,,4095,V*24
$GNGGA,050724.00,3726.9815352,N,12639.2770321,E,5,12,0.83,17.596,M,17.838,M,,4095*77
$GNGSA,A,3,02,06,14,19,09,11,20,17,12,03,,,1.65,0.83,1.42,1*0B
$GNGSA,A,3,88,72,78,65,87,,,,,,,,1.65,0.83,1.42,2*0A
$GNGSA,A,3,15,36,34,27,09,05,30,,,,,,1.65,0.83,1.42,3*01
$GNGSA,A,3,13,07,11,10,28,08,14,,,,,,1.65,0.83,1.42,4*09
$GPGSV,3,1,11,02,24,284,37,03,19,044,08,04,28,077,32,06,60,320,36,1*60
$GPGSV,3,2,11,09,33,115,30,11,28,279,32,12,22,311,48,14,12,183,15,1*69
$GPGSV,3,3,11,17,64,121,35,19,84,039,20,20,19,229,21,1*58
$GPGSV,2,1,08,03,19,044,14,04,28,077,33,06,60,320,27,09,33,115,37,6*64
$GPGSV,2,2,08,11,28,279,25,12,22,311,34,14,12,183,23,17,64,121,15,6*62
$GPGSV,1,1,03,40,06,259,,41,27,238,,50,47,179,,0*5A
$GLGSV,2,1,05,65,48,161,17,72,55,067,25,78,21,275,34,87,54,043,21,1*73
$GLGSV,2,2,05,88,42,327,38,1*46
$GLGSV,2,1,05,65,48,161,11,71,15,029,07,72,55,067,13,78,21,275,26,3*75
$GLGSV,2,2,05,88,42,327,26,3*4B
$GLGSV,1,1,04,77,06,223,,79,11,326,,81,00,298,,86,11,098,,0*74
$GNRMC,050725.00,A,3726.9813652,N,12639.2769482,E,0.059,,220622,,,F,V*15
$GNGNS,050725.00,3726.9813652,N,12639.2769482,E,FFFF,28,0.69,17.344,17.838,,4095,V*23
$GNGGA,050725.00,3726.9813652,N,12639.2769482,E,5,12,0.69,17.344,M,17.838,M,,4095*7E
$GNGSA,A,3,02,06,14,19,09,11,20,17,12,03,,,1.35,0.69,1.16,1*0B
$GNGSA,A,3,88,72,78,65,87,,,,,,,,1.35,0.69,1.16,2*0A
$GNGSA,A,3,15,36,34,27,09,05,30,,,,,,1.35,0.69,1.16,3*01
$GNGSA,A,3,13,07,11,10,28,08,14,,,,,,1.35,0.69,1.16,4*09
$GPGSV,3,1,11,02,24,284,37,03,19,044,08,04,28,077,32,06,60,320,37,1*61
$GPGSV,3,2,11,09,33,115,34,11,28,279,32,12,22,311,48,14,12,183,16,1*6E
$GPGSV,3,3,11,17,64,121,35,19,84,039,20,20,19,229,20,1*59
$GPGSV,2,1,08,03,19,044,15,04,28,077,34,06,60,320,27,09,33,115,39,6*6C
$GPGSV,2,2,08,11,28,279,25,12,22,311,35,14,12,183,23,17,64,121,15,6*63
$GPGSV,1,1,03,40,06,259,,41,27,238,,50,47,179,,0*5A
$GLGSV,2,1,05,65,48,161,16,72,55,067,24,78,21,275,32,87,54,043,22,1*76
$GLGSV,2,2,05,88,42,327,39,1*47
$GLGSV,2,1,05,65,48,161,10,71,15,029,10,72,55,067,09,78,21,275,28,3*77
$GLGS$GLGSV,1,1,04,77,06,223,,79,11,326,,81,00,298,,86,11,098,,0*74
$GAGSV,2,1,06,05,34,139,25,15,16,283,32,18,72,305,27,30,36,265,21,2*7D
$GAGSV,2,2,06,34,58,322,30,36,47,061,32,2*7A
$GAGSV,2,1,07,05,34,139,31,09,34,075,35,15,16,283,38,18,72,305,31,7*7F
$GAGSV,2,2,07,27,13,319,39,30,36,265,24,36,47,061,25,7*45
$GAGSV,1,1,04,02,23,207,,03,05,182,,04,04,032,,11,04,086,,0*70
$GBGSV,2,1,08,07,58,215,18,08,53,272,15,10,60,241,18,11,30,103,28,1*77
$GBGSV,2,2,08,13,45,264,20,14,63,093,34,27,09,301,43,28,56,322,19,1*79
$GBGSV,1,1,04,08,53,272,20,11,30,103,37,13,45,264,16,14,63,093,37,3*74
$GBGSV,2,1,07,01,43,152,,02,28,236,,03,44,206,,04,35,132,,0*79
$GBGSV,2,2,07,04,35,132,,05,08,256,,21,01,034,,0*4B
$GNRMC,050726.00,A,3726.9812436,N,12639.2768449,E,0.065,,220622,,,F,V*1E
$GNVTG,,T,,M,0.065,N,0.120,K,D*38
$GNGNS,050726.00,3726.9812436,N,12639.2768449,E,FFFF,27,0.71,17.249,17.838,,4095,V*2D
$GNGGA,050726.00,3726.9812436,N,12639.2768449,E,5,12,0.71,17.249,M,17.838,M,,4095*7F
$GNGSA,A,3,02,06,14,19,09,11,20,17,12,03,,,1.38,0.71,1.18,1*01
$GNGSA,A,3,88,72,78,65,87,,,,,,,,1.38,0.71,1.18,2*00
$GNGSA,A,3,15,36,34,27,09,05,30,,,,,,1.38,0.71,1.18,3*0B
$GNGSA,A,3,13,07,11,10,28,08,14,,,,,,1.38,0.71,1.18,4*03
$GPGSV,3,1,11,02,24,284,39,03,19,044,10,04,28,077,33,06,60,320,36,1*66
$GPGSV,3,2,11,09,33,115,37,11,28,279,35,12,22,311,48,14,12,183,14,1*68
$GPGSV,3,3,11,17,64,121,34,19,84,039,17,20,19,229,19,1*56
$GPGSV,2,1,08,03,19,044,17,04,28,077,34,06,60,320,27,09,33,115,39,6*6E
$GPGSV,2,2,08,11,28,279,24,12,22,311,36,14,12,183,22,17,64,121,14,6*61
$GPGSV,1,1,03,40,06,259,,41,27,238,,50,47,179,,0*5A
$GLGSV,2,1,05,65,48,161,16,72,55,067,25,78,21,275,31,87,54,043,25,1*73
$GLGSV,2,2,05,88,42,327,39,1*47
$GLGSV,2,1,05,65,48,161,10,71,15,029,10,72,55,067,08,78,21,275,30,3*7F
$GLGSV,2,2,05,88,42,327,26,3*4B
$GLGSV,1,1,04,77,06,223,,79,11,326,,81,00,298,,86,11,098,,0*74
$GAGSV,2,1,06,05,34,139,26,15,16,283,32,18,72,305,27,30,36,265,21,2*7E
$GAGSV,2,2,06,34,58,322,30,36,47,061,31,2*79
$GAGSV,2,1,07,05,34,139,32,09,34,075,36,15,16,283,38,18,72,305,32,7*7C
$GAGSV,2,2,07,27,13,319,41,30,36,265,25,36,47,061,23,7*4D
$GAGSV,1,1,04,02,23,207,,03,05,182,,04,04,032,,11,04,086,,0*70
$GBGSV,2,1,08,07,58,215,17,08,53,272,16,10,60,241,18,11,30,103,28,1*7B
$GBGSV,2,2,08,13,45,264,19,14,63,093,33,27,09,301,41,28,56,322,22,1*7E
$GBGSV,1,1,04,08,53,272,20,11,30,103,38,13,45,264,17,14,63,093,37,3*7A
$GBGSV,2,1,07,01,43,152,,02,28,236,,03,44,206,,04,35,132,,0*79
$GBGSV,2,2,07,04,35,132,,05,08,256,,21,01,034,,0*4B
$GNRMC,050727.00,A,3726.9812022,N,12639.2767570,E,0.076,,220622,,,F,V*18
$GNVTG,,T,,M,0.076,N,0.142,K,D*3E
$GNGNS,050727.00,3726.9812022,N,12639.2767570,E,FFFF,27,0.78,17.107,17.838,,4095,V*29
$GNGGA,050727.00,3726.9812022,N,12639.2767570,E,5,12,0.78,17.107,M,17.838,M,,4095*7B
$GNGSA,A,3,02,06,14,19,09,11,20,17,12,03,,,1.52,0.78,1.30,1*0E
$GNGSA,A,3,88,72,78,65,87,,,,,,,,1.52,0.78,1.30,2*0F
$GNGSA,A,3,15,36,34,27,09,05,30,,,,,,1.52,0.78,1.30,3*04
$GNGSA,A,3,13,07,11,10,28,08,14,,,,,,1.52,0.78,1.30,4*0C
$GPGSV,3,1,11,02,24,284,39,03,19,044,08,04,28,077,32,06,60,320,36,1*6E
$GPGSV,3,2,11,09,33,115,34,11,28,279,35,12,22,311,47,14,12,183,14,1*64
$GPGSV,3,3,11,17,64,121,34,19,84,039,16,20,19,229,17,1*59
$GPGSV,2,1,08,03,19,044,15,04,28,077,33,06,60,320,26,09,33,115,35,6*66
$GPGSV,2,2,08,11,28,279,22,12,22,311,35,14,12,183,21,17,64,121,12,6*61
$GPGSV,1,1,03,40,06,259,,41,27,238,,50,47,179,,0*5A
$GLGSV,2,1,05,65,48,161,16,72,55,067,26,78,21,275,29,87,54,043,26,1*7A
$GLGSV,2,2,05,88,42,327,39,1*47
$GLGSV,2,1,05,65,48,161,11,71,15,029,07,72,55,067,08,78,21,275,30,3*78
$GLGSV,2,2,05,88,42,327,26,3*4B
$GLGSV,1,1,04,77,06,223,,79,11,326,,81,00,298,,86,11,098,,0*74
$GAGSV,2,1,06,05,34,139,25,15,16,283,32,18,72,305,27,30,36,265,21,2*7D
$GAGSV,2,2,06,34,58,322,29,36,47,061,30,2*70
$GAGSV,2,1,07,05,34,139,33,09,34,075,36,15,16,283,39,18,72,305,32,7*7C
$GAGSV,2,2,07,27,13,319,40,30,36,265,25,36,47,061,22,7*4D
$GAGSV,1,1,04,02,23,207,,03,05,182,,04,04,032,,11,04,086,,0*70
$GBGSV,2,1,08,07,58,215,17,08,53,272,17,10,60,241,18,11,30,103,27,1*75
$GBGSV,2,2,08,13,45,264,19,14,63,093,34,27,09,301,41,28,56,322,22,1*79
$GBGSV,1,1,04,08,53,272,20,11,30,103,37,13,45,264,16,14,63,093,37,3*74
$GBGSV,2,1,07,01,43,152,,02,28,236,,03,44,206,,04,35,132,,0*79
$GBGSV,2,2,07,04,35,132,,05,08,256,,21,01,034,,0*4B
$GNRMC,050728.00,A,3726.9811899,N,12639.2767170,E,0.073,,220622,,,F,V*1D
$GNVTG,,T,,M,0.073,N,0.134,K,D*3A
$GNGNS,050728.00,3726.9811899,N,12639.2767170,E,FFFF,29,0.79,17.016,17.838,,4095,V*27
$GNGSA,A,3,02,06,14,19,09,11,20,17,12,03,,,1.55,0.79,1.34,1*0C
$GNGSA,A,3,88,72,78,65,87,,,,,,,,1.55,0.79,1.34,2*0D
$GNGSA,A,3,15,36,34,27,09,05,30,,,,,,1.55,0.79,1.34,3*06
$GNGSA,A,3,13,07,11,10,28,08,14,,,,,,1.55,0.79,1.34,4*0E
$GPGSV,3,1,11,02,24,284,39,03,19,044,13,04,28,077,32,06,60,320,37,1*65
$GPGSV,3,2,11,09,33,115,35,11,28,279,35,12,22,311,48,14,12,183,13,1*6D
$GPGSV,3,3,11,17,64,121,34,19,84,039,14,20,19,229,16,1*5A
$GPGSV,2,1,08,03,19,044,15,04,28,077,32,06,60,320,26,09,33,115,36,6*64
$GPGSV,2,2,08,11,28,279,21,12,22,311,35,14,12,183,21,17,64,121,11,6*61
$GPGSV,1,1,03,40,06,259,,41,27,238,,50,47,179,,0*5A
$GLGSV,2,1,05,65,48,161,16,72,55,067,26,78,21,275,28,87,54,043,27,1*7A
$GLGSV,2,2,05,88,42,327,39,1*47
$GLGSV,2,1,05,65,48,161,10,71,15,029,07,72,55,067,10,78,21,275,29,3*78
$GLGSV,2,2,05,88,42,327,25,3*48
$GLGSV,1,1,04,77,06,223,,79,11,326,,81,00,298,,86,11,098,,0*74
$GAGSV,2,1,06,05,34,139,25,15,$GAGSV,2,2,06,34,58,322,29,36,47,061,31,2*71
$GAGSV,2,1,07,05,34,139,32,09,34,075,36,15,16,283,39,18,72,305,32,7*7D
$GAGSV,2,2,07,27,13,319,40,30,36,265,25,36,47,061,20,7*4F
$GAGSV,1,1,04,02,23,207,,03,05,182,,04,04,032,,11,04,086,,0*70
$GBGSV,2,1,08,07,58,215,17,08,53,272,18,10,60,241,18,11,30,103,27,1*7A
$GBGSV,2,2,08,13,45,264,18,14,63,093,34,27,09,301,41,28,56,322,23,1*79
$GBGSV,1,1,04,08,53,272,19,11,30,103,37,13,45,264,13,14,63,093,38,3*74
$GBGSV,2,1,07,01,43,152,,02,28,236,,03,44,206,,04,35,132,,0*79
$GBGSV,2,2,07,04,35,132,,05,08,256,,21,01,034,,0*4B
$GNRMC,050729.00,A,3726.9812147,N,12639.2767111,E,0.021,,220622,,,F,V*15
$GNVTG,,T,,M,0.021,N,0.038,K,D*30
$GNGNS,050729.00,3726.9812147,N,12639.2767111,E,FFFF,27,0.67,16.991,17.838,,4095,V*2E
$GNGGA,050729.00,3726.9812147,N,12639.2767111,E,5,12,0.67,16.991,M,17.838,M,,4095*7C
$GNGSA,A,3,02,06,14,19,09,11,20,17,12,03,,,1.33,0.67,1.15,1*00
$GNGSA,A,3,88,72,78,65,87,,,,,,,,1.33,0.67,1.15,2*01
$GNGSA,A,3,15,36,34,27,09,05,30,,,,,,1.33,0.67,1.15,3*0A
$GNGSA,A,3,13,07,11,10,28,08,14,,,,,,1.33,0.67,1.15,4*02
$GPGSV,3,1,11,02,24,284,39,03,19,044,09,04,28,077,32,06,60,320,37,1*6E
$GPGSV,3,2,11,09,33,115,35,11,28,279,35,12,22,311,47,14,12,183,14,1*65
$GPGSV,3,3,11,17,64,121,34,19,84,039,15,20,19,229,15,1*58
$GPGSV,2,1,08,03,19,044,17,04,28,077,32,06,60,320,27,09,33,115,37,6*66
$GPGSV,2,2,08,11,28,279,19,12,22,311,35,14,12,183,20,17,64,121,13,6*69
$GPGSV,1,1,03,40,06,259,,41,27,238,,50,47,179,,0*5A
$GLGSV,2,1,05,65,48,161,17,72,55,067,25,78,21,275,28,87,54,043,27,1*78
$GLGSV,2,2,05,88,42,327,39,1*47
$GLGSV,2,1,05,65,48,161,08,71,15,029,09,72,55,067,09,78,21,275,29,3*77
$GLGSV,2,2,05,88,42,327,24,3*49
$GLGSV,1,1,04,77,06,223,,79,11,326,,81,00,298,,86,11,098,,0*74
$GAGSV,2,1,06,05,34,139,24,15,16,283,31,18,72,305,27,30,36,265,20,2*7E
$GAGSV,2,2,06,34,58,322,29,36,47,061,30,2*70
$GAGSV,2,1,07,05,34,139,32,09,34,075,35,15,16,283,39,18,72,305,32,7*7E
$GAGSV,2,2,07,27,13,319,40,30,36,265,24,36,47,061,18,7*45
$GAGSV,1,1,04,02,23,207,,03,05,182,,04,03,032,,11,04,086,,0*77
$GBGSV,2,1,08,07,58,215,19,08,53,272,20,10,60,241,17,11,30,103,27,1*70
$GBGSV,2,2,08,13,45,264,19,14,63,093,34,27,09,301,41,28,56,322,24,1*7F
$GBGSV,2,1,05,07,58,215,16,08,53,272,19,11,30,103,37,13,45,264,12,3*7D
$GBGSV,2,2,05,14,63,093,38,3*40
$GBGSV,2,1,07,01,43,152,,02,28,236,,03,44,206,,04,35,132,,0*79
$GBGSV,2,2,07,04,35,132,,05,08,256,,21,01,034,,0*4B
$GNRMC,050730.00,A,3726.9812482,N,12639.2767172,E,0.057,,220622,,,F,V*15
$GNVTG,,T,,M,0.057,N,0.106,K,D*3D
$GNGNS,050730.00,3726.9812482,N,12639.2767172,E,FFFF,27,0.61,17.025,17.838,,4095,V*2E
$GNGGA,050730.00,3726.9812482,N,12639.2767172,E,5,12,0.61,17.025,M,17.838,M,,4095*7C
$GNGSA,A,3,02,06,14,19,09,11,17,12,03,,,,1.21,0.61,1.04,1*07
$GNGSA,A,3,88,71,72,78,65,87,,,,,,,1.21,0.61,1.04,2*02
$GNGSA,A,3,15,36,34,27,09,05,30,,,,,,1.21,0.61,1.04,3*0F
$GNGSA,A,3,13,07,11,10,28,08,14,,,,,,1.21,0.61,1.04,4*07
$GPGSV,3,1,11,02,24,284,39,03,19,044,12,04,28,077,30,06,60,320,37,1*66
$GPGSV,3,2,11,09,33,115,36,11,28,279,34,12,22,311,47,14,12,183,13,1*60
$GPGSV,3,3,11,17,64,121,33,19,84,039,15,20,19,229,12,1*58
$GPGSV,2,1,08,03,19,044,18,04,28,077,31,06,60,320,27,09,33,115,37,6*6A
$GPGSV,2,2,08,11,28,279,18,12,22,311,35,14,12,183,20,17,64,121,12,6*69
$GPGSV,1,1,03,40,06,259,,41,27,238,,50,47,179,,0*5A
$GLGSV,2,1,05,65,48,161,17,72,55,067,25,78,21,275,28,87,54,043,25,1*7A
$GLGSV,2,2,05,88,42,327,39,1*47
$GLGSV,2,1,05,65,48,161,13,71,15,029,11,72,55,067,10,78,21,275,31,3*75
$GLGSV,2,2,05,88,42,327,25,3*48
$GLGSV,1,1,04,77,06,223,,79,11,326,,81,00,298,,86,11,098,,0*74
$GAGSV,2,1,06,05,35,138,23,15,16,283,31,18,72,305,27,30,36,265,19,2*73
$GAGSV,2,2,06,34,58,322,29,36,47,061,30,2*70
$GAGSV,2,1,07,05,35,138,31,09,34,075,35,15,16,283,38,18,72,305,31,7*7F
$GAGSV,2,2,07,27,13,319,40,30,36,265,23,36,47,061,18,7*42
$GNRMC,050731.00,A,3726.9813266,N,12639.2767490,E,0.016,,220622,,,F,V*15
$GNVTG,,T,,M,0.016,N,0.029,K,D*34
$GNGNS,050731.00,3726.9813266,N,12639.2767490,E,FFFF,28,0.72,17.129,17.838,,4095,V*2B
$GNGGA,050731.00,3726.9813266,N,12639.2767490,E,5,12,0.72,17.129,M,17.838,M,,4095*76
$GNGSA,A,3,02,06,14,19,09,11,04,17,12,03,,,1.41,0.72,1.21,1*00
$GNGSA,A,3,88,72,78,65,87,,,,,,,,1.41,0.72,1.21,2*07
$GNGSA,A,3,15,36,34,27,09,05,30,,,,,,1.41,0.72,1.21,3*0C
$GNGSA,A,3,13,07,11,10,28,08,14,,,,,,1.41,0.72,1.21,4*04
$GPGSV,3,1,11,02,24,284,39,03,19,044,10,04,28,077,30,06,60,320,37,1*64
$GPGSV,3,2,11,09,33,115,36,11,28,279,34,12,22,311,46,14,12,183,12,1*60
$GPGSV,3,3,11,17,64,121,33,19,84,039,16,20,19,229,09,1*51
$GPGSV,2,1,08,03,19,044,17,04,28,077,30,06,60,320,27,09,33,115,37,6*64
$GPGSV,2,2,08,11,28,279,18,12,22,311,35,14,12,183,19,17,64,121,10,6*61
$GPGSV,1,1,03,40,06,259,,41,27,238,,50,47,179,,0*5A
$GLGSV,2,1,05,65,48,161,16,72,55,067,24,78,21,275,30,87,54,043,23,1*75
$GLGSV,2,2,05,88,42,327,40,1*49
$GLGSV,2,1,05,65,48,161,11,71,15,029,07,72,55,067,16,78,21,275,31,3*76
$GLGSV,2,2,05,88,42,327,25,3*48
$GLGSV,1,1,04,77,06,223,,79,11,326,,81,00,298,,86,11,098,,0*74
$GAGSV,2,1,06,05,35,138,24,15,16,283,31,18,72,305,27,30,36,265,18,2*75
$GAGSV,2,2,06,34,58,322,29,36,47,061,30,2*70
$GAGSV,2,1,07,05,35,138,32,09,34,075,35,15,16,283,38,18,72,305,32,7*7F
$GAGSV,2,2,07,27,13,319,40,30,36,265,23,36,47,061,18,7*42
$GAGSV,1,1,04,02,23,207,,03,05,182,,04,03,032,,11,04,086,,0*77
$GBGSV,2,1,08,07,58,215,19,08,53,272,21,10,60,241,17,11,30,103,26,1*70
$GBGSV,2,2,08,13,45,264,18,14,63,093,34,27,09,301,42,28,56,322,27,1*7E
$GBGSV,2,1,05,07,58,215,15,08,53,272,18,11,30,103,37,13,45,264,15,3*78
$GBGSV,2,2,05,14,63,093,38,3*40
$GBGSV,2,1,07,01,43,152,,02,28,236,,03,44,206,,04,35,132,,0*79
$GBGSV,2,2,07,04,35,132,,05,08,256,,21,01,034,,0*4B
$GNRMC,050732.00,A,3726.9813721,N,12639.2768092,E,0.017,,220622,,,F,V*18
$GNVTG,,T,,M,0.017,N,0.032,K,D*3F
$GNGNS,050732.00,3726.9813721,N,12639.2768092,E,FFFF,27,0.66,17.311,17.838,,4095,V*24
$GNGGA,050732.00,3726.9813721,N,12639.2768092,E,5,12,0.66,17.311,M,17.838,M,,4095*76
$GNGSA,A,3,02,06,14,19,09,11,04,17,12,03,20,,1.28,0.66,1.10,1*0A
$GNGSA,A,3,88,72,78,65,,,,,,,,,1.28,0.66,1.10,2*00
$GNGSA,A,3,15,36,34,27,09,05,30,,,,,,1.28,0.66,1.10,3*04
$GNGSA,A,3,13,07,11,10,28,08,14,,,,,,1.28,0.66,1.10,4*0C
$GPGSV,3,2,11,09,33,115,36,11,28,279,34,12,22,311,46,14,12,183,10,1*62
$GPGSV,3,3,11,17,64,121,32,19,84,039,18,20,19,229,11,1*57
$GPGSV,2,1,07,03,19,044,16,04,28,076,29,06,60,320,27,09,33,115,37,6*63
$GPGSV,2,2,07,11,28,279,18,12,22,311,35,14,12,183,18,6*58
$GPGSV,1,1,03,40,06,259,,41,27,238,,50,47,179,,0*5A
$GLGSV,2,1,05,65,48,161,17,72,55,067,24,78,21,275,32,87,54,043,21,1*74
$GLGSV,2,2,05,88,42,327,40,1*49
$GLGSV,2,1,05,65,48,161,08,71,15,029,11,72,55,067,16,78,21,275,32,3*7A
$GLGSV,2,2,05,88,42,327,25,3*48
$GLGSV,1,1,04,77,06,223,,79,11,326,,81,00,298,,86,11,098,,0*74
$GAGSV,2,1,05,05,35,138,24,15,16,283,32,18,72,305,27,34,58,322,29,2*79
$GAGSV,2,2,05,36,47,061,30,2*41
$GAGSV,2,1,07,05,35,138,31,09,34,075,35,15,16,283,39,18,72,305,31,7*7E
$GAGSV,2,2,07,27,13,319,40,30,36,265,23,36,47,061,18,7*42
$GAGSV,1,1,04,02,23,207,,03,05,182,,04,03,032,,11,04,086,,0*77
$GBGSV,2,1,08,07,58,215,19,08,53,272,21,10,60,241,17,11,30,103,$GBGSV,2,2,08,13,45,264,17,14,63,093,34,27,09,301,42,28,56,322,27,1*71
$GBGSV,2,1,05,07,58,215,15,08,53,272,18,11,30,103,37,13,45,264,15,3*78
$GBGSV,2,2,05,14,63,093,38,3*40
$GBGSV,2,1,07,01,43,152,,02,28,236,,03,44,206,,04,35,132,,0*79
$GBGSV,2,2,07,04,35,132,,05,08,256,,21,01,034,,0*4B
$GNRMC,050733.00,A,3726.9813763,N,12639.2768796,E,0.023,,220622,,,F,V*1B
$GNVTG,,T,,M,0.023,N,0.043,K,D*3E
$GNGNS,050733.00,3726.9813763,N,12639.2768796,E,FFFF,27,0.64,17.342,17.838,,4095,V*24
$GNGGA,050733.00,3726.9813763,N,12639.2768796,E,5,12,0.64,17.342,M,17.838,M,,4095*76
$GNGSA,A,3,02,06,14,19,09,11,04,17,12,03,20,,1.26,0.64,1.08,1*0F
$GNGSA,A,3,88,72,78,65,,,,,,,,,1.26,0.64,1.08,2*05
$GNGSA,A,3,15,36,34,27,09,05,30,,,,,,1.26,0.64,1.08,3*01
$GNGSA,A,3,13,07,11,10,28,08,14,,,,,,1.26,0.64,1.08,4*09
$GPGSV,3,1,11,02,24,284,40,03,19,044,10,04,28,076,29,06,60,320,37,1*63
$GPGSV,3,2,11,09,33,115,36,11,28,279,34,12,22,311,46,14,12,183,10,1*62
$GPGSV,3,3,11,17,64,121,32,19,84,039,20,20,19,229,10,1*5D
$GPGSV,2,1,07,03,19,044,16,04,28,076,28,06,60,320,27,09,33,115,37,6*62
$GPGSV,2,2,07,11,28,279,20,12,22,311,35,14,12,183,18,6*53
$GPGSV,1,1,03,40,06,259,,41,27,238,,50,47,179,,0*5A
$GLGSV,2,1,05,65,48,161,16,72,55,067,25,78,21,275,33,87,54,043,19,1*7E
$GLGSV,2,2,05,88,42,327,40,1*49
$GLGSV,2,1,05,65,48,161,09,71,15,029,14,72,55,067,15,78,21,275,31,3*7E
$GLGSV,2,2,05,88,42,327,25,3*48
$GLGSV,1,1,04,77,06,223,,79,11,326,,81,00,298,,86,11,098,,0*74
$GAGSV,2,1,05,05,35,138,24,15,16,283,31,18,72,305,27,34,58,322,29,2*7A
$GAGSV,2,2,05,36,47,061,30,2*41
$GAGSV,2,1,07,05,35,138,31,09,34,074,35,15,16,283,39,18,72,305,31,7*7F
$GAGSV,2,2,07,27,13,319,40,30,36,265,23,36,47,061,18,7*42
$GAGSV,1,1,04,02,23,207,,03,05,182,,04,03,032,,11,04,086,,0*77
$GBGSV,2,1,08,07,58,215,18,08,53,272,20,10,60,241,17,11,30,103,26,1*70
$GBGSV,2,2,08,13,45,264,17,14,63,093,33,27,09,301,42,28,56,322,27,1*76
$GBGSV,2,1,05,07,58,215,14,08,53,272,18,11,30,103,36,13,45,264,15,3*78
$GBGSV,2,2,05,14,63,093,37,3*4F
$GBGSV,2,1,07,01,43,152,,02,28,236,,03,44,206,,04,35,132,,0*79
$GBGSV,2,2,07,04,35,132,,05,08,256,,21,01,034,,0*4B
$GNRMC,050734.00,A,3726.9814400,N,12639.2770396,E,0.065,,220622,,,F,V*12
$GNVTG,,T,,M,0.065,N,0.120,K,D*38
$GNGNS,050734.00,3726.9814400,N,12639.2770396,E,FFFF,29,0.82,17.297,17.838,,4095,V*20
$GNGGA,050734.00,3726.9814400,N,12639.2770396,E,5,12,0.82,17.297,M,17.838,M,,4095*7C
$GNGSA,A,3,02,06,14,19,09,11,04,17,12,03,,,1.53,0.82,1.30,1*0C
$GNGSA,A,3,88,72,78,65,87,,,,,,,,1.53,0.82,1.30,2*0B
$GNGSA,A,3,15,36,34,27,09,05,30,,,,,,1.53,0.82,1.30,3*00
$GNGSA,A,3,13,07,11,10,28,08,14,,,,,,1.53,0.82,1.30,4*08
$GPGSV,3,1,11,02,24,284,40,03,19,044,12,04,28,076,30,06,60,320,37,1*69
$GPGSV,3,2,11,09,33,115,36,11,28,279,34,12,22,311,47,14,12,183,13,1*60
$GPGSV,3,3,11,17,64,121,32,19,84,039,21,20,19,229,06,1*5B
$GPGSV,2,1,07,03,19,044,16,04,28,076,27,06,60,320,26,09,33,115,37,6*6C
$GPGSV,2,2,07,11,28,279,21,12,22,311,35,14,12,183,17,6*5D
$GPGSV,1,1,03,40,06,259,,41,27,238,,50,47,179,,0*5A
$GLGSV,2,1,05,65,48,161,16,72,55,067,26,78,21,275,34,87,54,043,19,1*7A
$GLGSV,2,2,05,88,42,327,40,1*49
$GLGSV,2,1,05,65,48,161,08,71,15,029,09,72,55,067,15,78,21,275,31,3*73
$GLGSV,2,2,05,88,42,327,25,3*48
$GLGSV,1,1,04,77,06,223,,79,11,326,,81,00,298,,86,11,098,,0*74
$GAGSV,2,1,05,05,35,138,24,15,16,283,31,18,72,305,27,34,58,322,28,2*7B
$GAGSV,2,2,05,36,47,061,29,2*49
$GAGSV,2,1,07,05,35,138,31,09,34,074,35,15,16,283,39,18,72,305,31,7*7F
$GAGSV,2,2,07,27,13,319,40,30,36,265,23,36,47,061,18,7*42
$GAGSV,1,1,04,02,23,207,,03,05,182,,04,03,032,,11,04,086,,0*77
$GBGSV,2,1,08,07,58,215,18,08,53,272,20,10,60,241,17,11,30,103,27,1*71
$GBGSV,2,2,08,13,45,264,17,14,63,093,33,27,09,301,43,28,56,322,27,1*77
$GBGSV,2,1,05,07,58,215,14,08,53,272,18,11,30,103,36,13,45,264,15,3*78
$GBGSV,2,2,05,14,63,093,38,3*40
$GBGSV,2,1,07,01,43,152,,02,28,236,,03,44,206,,04,35,132,,0*79
$GBGSV,2,2,07,04,35,132,,05,08,256,,21,01,034,,0*4B
$GNRMC,050735.00,A,3726.9814831,N,12639.2771529,E,0.098,,220622,,,F,V*1C
$GNVTG,,T,,M,0.098,N,0.182,K,D*32
$GNGNS,050735.00,3726.9814831,N,12639.2771529,E,FFFF,27,0.68,17.311,17.838,,4095,V*29
$GNGGA,050735.00,3726.9814831,N,12639.2771529,E,5,12,0.68,17.311,M,17.838,M,,4095*7B
$GNGSA,A,3,02,06,14,19,09,11,04,17,12,03,20,,1.33,0.68,1.15,1*0B
$GNGSA,A,3,88,72,78,65,,,,,,,,,1.33,0.68,1.15,2*01
$GNGSA,A,3,15,36,34,27,09,05,30,,,,,,1.33,0.68,1.15,3*05
$GNGSA,A,3,13,07,11,10,28,08,14,,,,,,1.33,0.68,1.15,4*0D
$GPGSV,3,1,11,02,24,284,40,03,19,044,13,04,28,076,30,06,60,320,37,1*68
$GPGSV,3,2,11,09,33,115,36,11,28,279,33,12,22,311,47,14,12,183,09,1*6C
$GPGSV,3,3,11,17,64,121,32,19,84,039,22,20,19,229,09,1*57
$GPGSV,2,1,07,03,19,044,17,04,28,076,27,06,60,320,26,09,33,115,37,6*6D
$GPGSV,2,2,07,11,28,279,22,12,22,311,35,14,12,183,17,6*5E
$GPGSV,1,1,03,40,06,259,,41,27,238,,50,47,179,,0*5A
$GLGSV,2,1,05,65,48,161,16,72,55,067,27,78,21,275,34,87,54,043,20,1*71
$GLGSV,2,2,05,88,42,327,40,1*49
$GLGSV,2,1,05,65,48,161,07,71,15,029,07,72,55,067,18,78,21,275,30,3*7E
$GLGSV,2,2,05,88,42,327,25,3*48
$GLGSV,1,1,04,77,06,223,,79,11,326,,81,00,298,,86,11,098,,0*74
$GAGSV,2,1,05,05,35,138,24,15,16,283,32,18,72,305,28,34,58,322,29,2*76
$GAGSV,2,2,05,36,47,061,30,2*41
$GAGSV,2,1,07,05,35,138,32,09,34,074,35,15,16,283,39,18,72,305,31,7*7C
$GAGSV,2,2,07,27,13,319,40,30,36,265,22,36,47,061,17,7*4C
$GAGSV,1,1,04,02,23,207,,03,05,182,,04,03,032,,11,04,087,,0*76
$GBGSV,2,1,08,07,58,215,17,08,53,272,21,10,60,241,16,11,30,103,27,1*7E
$GBGSV,2,2,08,13,45,264,17,14,63,093,34,27,09,301,42,28,56,322,28,1*7E
$GBGSV,2,1,05,07,58,215,14,08,53,272,18,11,30,103,36,13,45,264,15,3*78
$GBGSV,2,2,05,14,63,093,38,3*40
$GBGSV,2,1,07,01,43,152,,02,28,236,,03,44,206,,04,35,132,,0*79
$GBGSV,2,2,07,04,35,132,,05,08,256,,21,01,034,,0*4B
$GNRMC,050736.00,A,3726.9815567,N,12639.2772572,E,0.036,,220622,,,F,V*19
$GNVTG,,T,,M,0.036,N,0.066,K,D*3D
$GNGNS,050736.00,3726.9815567,N,12639.2772572,E,FFFF,27,0.68,17.326,17.838,,4095,V*2C
$GNGGA,050736.00,3726.9815567,N,12639.2772572,E,5,12,0.68,17.326,M,17.838,M,,4095*7E
$GNRMC,050737.00,A,3726.9816268,N,12639.2773697,E,0.009,,220622,,,F,V*16
$GNVTG,,T,,M,0.009,N,0.017,K,D*37
$GNGNS,050737.00,3726.9816268,N,12639.2773697,E,FFFF,29,0.86,17.400,17.839,,4095,V*23
$GNGGA,050737.00,3726.9816268,N,12639.2773697,E,5,12,0.86,17.400,M,17.839,M,,4095*7F
