$GNRMC,044539.00,A,3727.0374180,N,12639.3912101,E,0.005,,220622,,,R,V*05
$GNVTG,,T,,M,0.005,N,0.009,K,D*34
$GNGNS,044539.00,3727.0374180,N,12639.3912101,E,RRRR,27,0.63,26.125,17.842,2.0,4095,V*0D
$GNGGA,044539.00,3727.0374180,N,12639.3912101,E,4,12,0.63,26.125,M,17.842,M,2.0,4095*5E
$GNGSA,A,3,06,09,14,19,11,12,17,,,,,,1.24,0.63,1.07,1*02
$GNGSA,A,3,87,78,88,72,65,,,,,,,,1.24,0.63,1.07,2*00
$GNGSA,A,3,02,05,34,30,09,36,,,,,,,1.24,0.63,1.07,3*08
$GNGSA,A,3,04,01,03,28,07,08,10,14,13,,,,1.24,0.63,1.07,4*05
$GPGSV,3,1,09,02,18,277,26,06,55,303,48,09,27,124,42,11,22,271,39,1*6B
$GPGSV,3,2,09,12,16,318,33,14,22,186,37,17,73,099,46,19,75,349,37,1*6C
$GPGSV,3,3,09,28,,,44,1*67
$GPGSV,2,1,06,06,55,303,43,09,27,124,40,11,22,271,34,12,16,318,32,6*64
$GPGSV,2,2,06,14,22,186,31,17,73,099,39,6*65
$GPGSV,1,1,01,50,47,179,,0*5D
$GLGSV,2,1,06,65,36,164,39,71,24,034,26,72,55,089,36,78,25,287,32,1*74
$GLGSV,2,2,06,87,55,023,40,88,35,316,40,1*72
$GLGSV,2,1,05,65,36,164,21,71,24,034,10,72,55,089,19,78,25,287,28,3*7F
$GLGSV,2,2,05,88,35,316,37,3*49
$GLGSV,1,1,03,77,15,230,,79,07,335,,86,17,088,,0*4B
$GAGSV,2,1,08,02,31,210,40,05,27,144,37,09,33,084,39,18,59,308,49,2*73
$GAGSV,2,2,08,27,09,324,31,30,39,275,43,34,55,310,47,36,51,051,37,2*7C
$GAGSV,2,1,08,02,31,210,42,05,27,144,35,09,33,084,42,18,59,308,44,7*77
$GAGSV,2,2,08,27,09,324,30,30,39,275,35,34,55,310,46,36,51,051,37,7*78
$GAGSV,1,1,03,04,08,037,,11,08,080,,25,00,174,,0*4A
$GBGSV,3,1,11,01,43,152,41,02,28,236,34,03,44,206,38,04,35,132,35,1*71
$GBGSV,3,2,11,07,63,216,36,08,53,264,41,10,64,247,37,11,36,094,25,1*77
$GBGSV,3,3,11,13,44,257,40,14,61,114,44,28,49,315,42,1*40
$GBGSV,2,1,07,01,43,152,42,02,28,236,38,07,63,216,44,08,53,264,43,3*7C
$GBGSV,2,2,07,10,64,247,41,13,44,257,43,14,61,114,44,3*47
$GBGSV,1,1,03,05,08,256,,21,08,036,,23,07,221,,0*41
$GNRMC,044540.00,A,3727.0374153,N,12639.3912092,E,0.008,,220622,,,R,V*03
$GNVTG,,T,,M,0.008,N,0.016,K,D*37
$GNGNS,044540.00,3727.0374153,N,12639.3912092,E,RRRR,27,0.63,26.132,17.842,2.0,4095,V*00
$GNGGA,044540.00,3727.0374153,N,12639.3912092,E,4,12,0.63,26.132,M,17.842,M,2.0,4095*53
$GNGSA,A,3,06,09,14,19,11,12,17,,,,,,1.24,0.63,1.07,1*02
$GNGSA,A,3,87,78,88,72,65,,,,,,,,1.24,0.63,1.07,2*00
$GNGSA,A,3,02,05,34,30,09,36,,,,,,,1.24,0.63,1.07,3*08
$GNGSA,A,3,04,01,03,28,07,08,10,14,13,,,,1.24,0.63,1.07,4*05
$GPGSV,3,1,10,02,18,277,26,06,55,303,47,09,27,124,42,11,22,271,38,1*6D
$GPGSV,3,2,10,12,16,318,33,14,22,186,37,17,73,099,45,19,75,349,36,1*66
$GPGSV,3,3,10,28,,,44,50,47,179,41,1*53
$GPGSV,2,1,06,06,55,303,43,09,27,124,40,11,22,271,34,12,16,318,32,6*64
$GPGSV,2,2,06,14,22,186,30,17,73,099,39,6*64
$GLGSV,2,1,06,65,36,164,40,71,24,034,27,72,55,089,36,78,25,287,32,1*7B
$GLGSV,2,2,06,87,55,023,40,88,35,316,39,1*7C
$GLGSV,2,1,05,65,36,164,20,71,24,034,08,72,55,089,20,78,25,287,27,3*72
$GLGSV,2,2,05,88,35,316,37,3*49
$GLGSV,1,1,03,77,15,230,,79,07,335,,86,17,088,,0*4B
$GAGSV,2,1,08,02,31,210,39,05,27,144,37,09,33,084,38,18,59,308,49,2*7C
$GNRMC,044541.00,A,3727.0374154,N,12639.3912090,E,0.008,,220622,,,R,V*07
$GNVTG,,T,,M,0.008,N,0.016,K,D*37
$GNGNS,044541.00,3727.0374154,N,12639.3912090,E,RRRR,27,0.63,26.134,17.842,2.0,4095,V*02
$GNGGA,044541.00,3727.0374154,N,12639.3912090,E,4,12,0.63,26.134,M,17.842,M,2.0,4095*51
$GNGSA,A,3,06,09,14,19,11,12,17,,,,,,1.24,0.63,1.07,1*02
$GNGSA,A,3,87,78,88,72,65,,,,,,,,1.24,0.63,1.07,2*00
$GNGSA,A,3,02,05,34,30,09,36,,,,,,,1.24,0.63,1.07,3*08
$GNGSA,A,3,04,01,03,28,07,08,10,14,13,,,,1.24,0.63,1.07,4*05
$GPGSV,3,1,10,02,18,277,26,06,55,303,47,09,27,124,42,11,22,271,38,1*6D
$GPGSV,3,2,10,12,16,318,33,14,21,186,37,17,73,099,45,19,75,349,36,1*65
$GPGSV,3,3,10,28,,,43,50,47,179,41,1*54
$GPGSV,2,1,06,06,55,303,43,09,27,124,40,11,22,271,34,12,16,318,32,6*64
$GPGSV,2,2,06,14,21,186,30,17,73,099,39,6*67
$GLGSV,2,1,07,65,36,164,41,71,24,034,28,72,55,089,37,77,15,230,21,1*77
$GLGSV,2,2,07,78,25,287,31,87,55,023,41,88,35,316,40,1*45
$GLGSV,2,1,05,65,36,164,19,71,24,034,12,72,55,089,22,78,25,287,27,3*71
$GLGSV,2,2,05,88,35,316,37,3*49
$GLGSV,1,1,02,79,07,335,,86,17,088,,0*7F
$GAGSV,2,1,08,02,31,210,39,05,27,144,37,09,33,084,38,18,59,308,49,2*7C
$GAGSV,2,2,08,27,09,324,30,30,39,275,43,34,55,310,46,36,51,051,38,2*73
$GAGSV,2,1,08,02,31,210,42,05,27,144,35,09,33,084,42,18,59,308,44,7*77
$GAGSV,2,2,08,27,09,324,28,30,39,275,34,34,55,310,46,36,51,051,38,7*7F
$GAGSV,1,1,03,04,08,037,,11,08,080,,25,00,174,,0*4A
$GBGSV,3,1,11,01,43,152,42,02,28,236,34,03,44,206,38,04,35,132,34,1*73
$GBGSV,3,2,11,07,63,216,35,08,53,264,41,10,64,247,37,11,36,094,25,1*74
$GBGSV,3,3,11,13,44,257,40,14,61,114,44,28,49,315,42,1*40
$GBGSV,2,1,07,01,43,152,42,02,28,236,39,07,63,216,43,08,53,264,43,3*7A
$GBGSV,2,2,07,10,64,247,41,13,44,257,43,14,61,114,44,3*47
$GBGSV,1,1,03,05,08,256,,21,08,036,,23,07,221,,0*41
$GNRMC,044542.00,A,3727.0374176,N,12639.3912164,E,0.004,,220622,,,R,V*02
$GNVTG,,T,,M,0.004,N,0.008,K,D*34
$GNGNS,044542.00,3727.0374176,N,12639.3912164,E,RRRR,27,0.63,26.145,17.842,2.0,4095,V*0D
$GNGGA,044542.00,3727.0374176,N,12639.3912164,E,4,12,0.63,26.145,M,17.842,M,2.0,4095*5E
$GNGSA,A,3,06,09,14,19,11,12,17,,,,,,1.24,0.63,1.07,1*02
$GNGSA,A,3,87,78,88,72,65,,,,,,,,1.24,0.63,1.07,2*00
$GNGSA,A,3,02,05,34,30,09,36,,,,,,,1.24,0.63,1.07,3*08
$GNGSA,A,3,04,01,03,28,07,08,10,14,13,,,,1.24,0.63,1.07,4*05
$GPGSV,3,1,10,02,18,277,26,06,55,303,47,09,27,124,41,11,22,271,39,1*6F
$GPGSV,3,2,10,12,16,318,33,14,21,186,37,17,72,101,45,19,75,349,36,1*64
$GPGSV,3,3,10,28,,,43,50,47,179,41,1*54
$GPGSV,2,1,06,06,55,303,43,09,27,124,40,11,22,271,34,12,16,318,32,6*64
$GPGSV,2,2,06,14,21,186,30,17,72,101,39,6*66
$GLGSV,2,1,07,65,36,164,41,71,24,034,29,72,55,089,37,77,15,230,18,1*7C
$GLGSV,2,2,07,78,25,287,31,87,55,023,41,88,35,316,40,1*45
$GLGSV,2,1,05,65,36,164,18,71,24,034,12,72,55,089,23,78,25,287,27,3*71
$GLGSV,2,2,05,88,35,316,36,3*48
$GLGSV,1,1,02,79,07,335,,86,17,088,,0*7F
$GAGSV,2,1,08,02,31,210,39,05,27,144,37,09,33,084,38,18,59,308,49,2*7C
$GAGSV,2,2,08,27,09,324,31,30,39,275,43,34,55,310,47,36,51,051,37,2*7C
$GAGSV,2,1,08,02,31,210,42,05,27,144,35,09,33,084,42,18,59,308,44,7*77
$GAGSV,2,2,08,27,09,324,28,30,39,275,35,34,55,310,46,36,51,051,38,7*7E
$GAGSV,1,1,03,04,08,037,,11,08,080,,25,00,174,,0*4A
$GBGSV,3,1,11,01,43,152,42,02,28,236,34,03,44,206,38,04,35,132,34,1*73
$GBGSV,3,2,11,07,63,216,35,08,53,264,41,10,64,247,37,11,36,094,25,1*74
$GBGSV,3,3,11,13,44,257,40,14,61,114,44,28,49,315,42,1*40
$GBGSV,2,1,07,01,43,152,42,02,28,236,39,07,63,216,44,08,53,264,43,3*7D
$GBGSV,2,2,07,10,64,247,41,13,44,257,43,14,61,114,44,3*47
$GBGSV,1,1,03,05,08,256,,21,08,036,,23,07,221,,0*41
$GNRMC,044543.00,A,3727.0374116,N,12639.3912150,E,0.009,,220622,,,R,V*0F
$GNVTG,,T,,M,0.009,N,0.017,K,D*37
$GNGGA,044543.00,3727.0374116,N,12639.3912150,E,4,12,0.63,26.153,M,17.842,M,1.0,4095*5A
$GNGSA,A,3,06,09,14,19,11,12,17,,,,,,1.24,0.63,1.07,1*02
$GNGSA,A,3,87,78,88,72,65,,,,,,,,1.24,0.63,1.07,2*00
$GNGSA,A,3,02,05,34,30,09,36,,,,,,,1.24,0.63,1.07,3*08
$GNGSA,A,3,04,01,03,28,07,08,10,14,13,,,,1.24,0.63,1.07,4*05
$GPGSV,3,1,10,02,18,277,27,06,55,303,47,09,27,124,41,11,22,271,39,1*6E
$GPGSV,3,2,10,12,16,318,33,14,21,186,37,17,72,101,45,19,76,350,38,1*61
$GPGSV,3,3,10,28,,,43,50,47,179,41,1*54
$GPGSV,2,1,06,06,55,303,43,09,27,124,40,11,22,271,34,12,16,318,33,6*65
$GPGSV,2,2,06,14,21,186,30,17,72,101,39,6*66
$GLGSV,2,1,07,65,36,164,41,71,24,034,30,72,55,089,36,77,15,230,16,1*7B
$GLGSV,2,2,07,78,25,287,29,87,55,023,41,88,35,316,41,1*4D
$GLGSV,2,1,05,65,36,164,18,71,24,034,13,72,55,089,23,78,25,287,27,3*70
$GLGSV,2,2,05,88,35,316,36,3*48
$GLGSV,1,1,02,79,07,335,,86,17,088,,0*7F
$GAGSV,2,1,08,02,31,210,40,05,27,1$GAGSV,2,2,08,27,09,324,31,30,39,275,43,34,55,310,47,36,51,051,37,2*7C
$GAGSV,2,1,08,02,31,210,42,05,27,144,35,09,33,084,42,18,59,308,43,7*70
$GAGSV,2,2,08,27,09,324,29,30,39,275,34,34,55,310,46,36,51,051,38,7*7E
$GAGSV,1,1,03,04,08,037,,11,08,080,,25,00,174,,0*4A
$GBGSV,3,1,11,01,43,152,42,02,28,236,34,03,44,206,38,04,35,132,34,1*73
$GBGSV,3,2,11,07,63,216,35,08,53,264,41,10,64,247,37,11,36,094,25,1*74
$GBGSV,3,3,11,13,44,257,40,14,61,114,44,28,49,315,42,1*40
$GBGSV,2,1,08,01,43,152,42,02,28,236,39,07,63,216,44,08,53,264,43,3*72
$GBGSV,2,2,08,10,64,247,41,11,36,094,30,13,44,257,43,14,61,114,44,3*73
$GBGSV,1,1,03,05,08,256,,21,08,036,,23,07,221,,0*41
$GNRMC,044544.00,A,3727.0374078,N,12639.3912140,E,0.011,,220622,,,R,V*09
$GNVTG,,T,,M,0.011,N,0.021,K,D*3B
$GNGNS,044544.00,3727.0374078,N,12639.3912140,E,RRRR,27,0.63,26.194,17.842,2.0,4095,V*0E
$GNGGA,044544.00,3727.0374078,N,12639.3912140,E,4,12,0.63,26.194,M,17.842,M,2.0,4095*5D
$GNGSA,A,3,06,09,14,19,11,12,17,,,,,,1.24,0.63,1.07,1*02
$GNGSA,A,3,87,78,88,72,65,,,,,,,,1.24,0.63,1.07,2*00
$GNGSA,A,3,02,05,34,30,09,36,,,,,,,1.24,0.63,1.07,3*08
$GNGSA,A,3,04,01,03,28,07,08,10,14,13,,,,1.24,0.63,1.07,4*05
$GPGSV,3,1,10,02,18,277,26,06,55,303,48,09,27,124,41,11,22,271,39,1*60
$GPGSV,3,2,10,12,16,318,35,14,21,186,39,17,72,101,45,19,76,350,38,1*69
$GPGSV,3,3,10,28,,,43,50,47,179,40,1*55
$GPGSV,2,1,06,06,55,303,43,09,27,124,40,11,22,271,33,12,16,318,33,6*62
$GPGSV,2,2,06,14,21,186,30,17,72,101,38,6*67
$GLGSV,2,1,07,65,36,164,41,71,24,034,29,72,55,089,36,77,15,230,14,1*71
$GLGSV,2,2,07,78,25,287,28,87,55,023,41,88,35,316,42,1*4F
$GLGSV,2,1,05,65,36,164,17,71,24,034,14,72,55,089,23,78,25,287,25,3*7A
$GLGSV,2,2,05,88,35,316,35,3*4B
$GLGSV,1,1,02,79,07,335,,86,17,088,,0*7F
$GAGSV,2,1,08,02,31,210,40,05,27,144,36,09,33,084,38,18,59,308,49,2*73
$GBGSV,2,1,08,01,43,152,41,02,28,236,39,07,63,216,43,08,53,264,43,3*76
$GBGSV,2,2,08,10,64,247,41,11,36,094,29,13,44,257,43,14,61,114,44,3*7B
$GBGSV,1,1,03,05,08,256,,21,08,036,,23,07,221,,0*41
$GNRMC,044545.00,A,3727.0374071,N,12639.3912158,E,0.006,,220622,,,R,V*0E
$GNVTG,,T,,M,0.006,N,0.011,K,D*3E
$GNGNS,044545.00,3727.0374071,N,12639.3912158,E,RRRR,27,0.63,26.194,17.842,2.0,4095,V*0F
$GNGGA,044545.00,3727.0374071,N,12639.3912158,E,4,12,0.63,26.194,M,17.842,M,2.0,4095*5C
$GNGSA,A,3,06,09,14,19,11,12,17,,,,,,1.24,0.63,1.07,1*02
$GNGSA,A,3,87,78,88,72,65,,,,,,,,1.24,0.63,1.07,2*00
$GNGSA,A,3,02,05,34,30,09,36,,,,,,,1.24,0.63,1.07,3*08
$GNGSA,A,3,04,01,03,28,07,08,10,14,13,,,,1.24,0.63,1.07,4*05
$GPGSV,3,1,10,02,18,277,26,06,55,303,48,09,27,124,42,11,22,271,39,1*63
$GPGSV,3,2,10,12,16,318,36,14,21,186,37,17,72,101,45,19,76,350,38,1*64
$GPGSV,3,3,10,28,,,43,50,47,179,40,1*55
$GPGSV,2,1,06,06,55,303,43,09,27,124,40,11,22,271,33,12,16,318,33,6*62
$GPGSV,2,2,06,14,21,186,30,17,72,101,38,6*67
$GLGSV,2,1,07,65,36,164,41,71,24,034,29,72,55,089,36,77,15,230,12,1*77
$GLGSV,2,2,07,78,25,287,28,87,55,023,41,88,35,316,43,1*4E
$GLGSV,2,1,05,65,36,164,18,71,24,034,15,72,55,089,21,78,25,287,25,3*76
$GLGSV,2,2,05,88,35,316,34,3*4A
$GLGSV,1,1,02,79,07,335,,86,17,088,,0*7F
$GAGSV,2,1,08,02,31,210,39,05,27,144,36,09,33,084,38,18,59,308,49,2*7D
$GAGSV,2,2,08,27,09,324,28,30,39,275,43,34,55,310,47,36,51,051,37,2*74
$GAGSV,2,1,08,02,31,210,42,05,27,144,35,09,33,084,41,18,59,308,44,7*74
$GAGSV,2,2,08,27,09,324,29,30,39,275,34,34,55,310,46,36,51,051,38,7*7E
$GAGSV,1,1,03,04,08,037,,11,08,080,,25,00,174,,0*4A
$GBGSV,3,1,11,01,43,152,42,02,28,236,34,03,44,206,37,04,35,132,34,1*7C
$GBGSV,3,2,11,07,63,216,36,08,53,264,41,10,64,247,38,11,36,094,25,1*78
$GBGSV,3,3,11,13,44,257,41,14,61,114,45,28,49,315,42,1*40
$GBGSV,2,1,08,01,43,152,41,02,28,236,39,07,63,216,43,08,53,264,43,3*76
$GBGSV,2,2,08,10,64,247,40,11,36,094,29,13,44,257,43,14,61,114,44,3*7A
$GBGSV,1,1,03,05,08,256,,21,08,036,,23,07,221,,0*41
$GNRMC,044546.00,A,3727.0374106,N,12639.3912176,E,0.004,,220622,,,R,V*02
$GNVTG,,T,,M,0.004,N,0.008,K,D*34
$GNGNS,044546.00,3727.0374106,N,12639.3912176,E,RRRR,27,0.63,26.178,17.842,2.0,4095,V*03
$GNGGA,044546.00,3727.0374106,N,12639.3912176,E,4,12,0.63,26.178,M,17.842,M,2.0,4095*50
$GNGSA,A,3,06,09,14,19,11,12,17,,,,,,1.24,0.63,1.07,1*02
$GNGSA,A,3,87,78,88,72,65,,,,,,,,1.24,0.63,1.07,2*00
$GNGSA,A,3,02,05,34,30,09,36,,,,,,,1.24,0.63,1.07,3*08
$GNGSA,A,3,04,01,03,28,07,08,10,14,13,,,,1.24,0.63,1.07,4*05
$GPGSV,3,1,10,02,18,277,26,06,55,303,48,09,27,124,42,11,22,271,39,1*63
$GPGSV,3,2,10,12,16,318,36,14,21,186,37,17,72,101,45,19,76,350,38,1*64
$GPGSV,3,3,10,28,,,43,50,47,179,40,1*55
$GPGSV,2,1,06,06,55,303,42,09,27,124,39,11,22,271,33,12,16,318,32,6*6C
$GPGSV,2,2,06,14,21,186,29,17,72,101,37,6*60
$GLGSV,2,1,07,65,36,164,42,71,24,034,29,72,55,089,36,77,15,230,11,1*77
$GLGSV,2,2,07,78,25,287,28,87,55,023,41,88,35,316,44,1*49
$GLGSV,2,1,05,65,36,164,18,71,24,034,18,72,55,089,21,78,25,287,25,3*7B
$GLGSV,2,2,05,88,35,316,33,3*4D
$GLGSV,1,1,02,79,07,335,,86,17,088,,0*7F
$GAGSV,2,1,08,02,31,210,40,05,27,144,36,09,33,084,38,18,59,308,49,2*73
$GAGSV,2,2,08,27,09,324,27,30,39,275,43,34,55,310,47,36,51,051,37,2*7B
$GAGSV,2,1,08,02,31,210,42,05,27,144,36,09,33,084,41,18,59,308,44,7*77
$GAGSV,2,2,08,27,09,324,29,30,39,275,33,34,55,310,46,36,51,051,38,7*79
$GAGSV,1,1,03,04,08,037,,11,08,080,,25,00,174,,0*4A
$GBGSV,3,1,11,01,43,152,42,02,28,236,34,03,44,206,37,04,35,132,34,1*7C
$GBGSV,3,2,11,07,63,216,35,08,53,264,41,10,64,247,37,11,36,094,24,1*75
$GBGSV,3,3,11,13,44,257,40,14,61,114,45,28,49,315,42,1*41
$GBGSV,2,1,08,01,43,152,41,02,28,236,39,07,63,216,43,08,53,264,43,3*76
$GBGSV,2,2,08,10,64,247,41,11,36,094,28,13,44,257,43,14,61,114,44,3*7A
$GBGSV,1,1,03,05,08,256,,21,08,036,,23,07,221,,0*41
$GNRMC,044547.00,A,3727.0374112,N,12639.3912171,E,0.005,,220622,,,R,V*00
$GNVTG,,T,,M,0.005,N,0.009,K,D*34
$GNGNS,044547.00,3727.0374112,N,12639.3912171,E,RRRR,27,0.63,26.182,17.842,2.0,4095,V*05
$GNGGA,044547.00,3727.0374112,N,12639.3912171,E,4,12,0.63,26.182,M,17.842,M,2.0,4095*56
$GNGSA,A,3,06,09,14,19,11,12,17,,,,,,1.24,0.63,1.07,1*02
$GNGSA,A,3,87,78,88,72,65,,,,,,,,1.24,0.63,1.07,2*00
$GNGSA,A,3,02,05,34,30,09,36,,,,,,,1.24,0.63,1.07,3*08
$GNGSA,A,3,04,01,03,28,07,08,10,14,13,,,,1.24,0.63,1.07,4*05
$GPGSV,3,1,10,02,18,277,26,06,55,303,48,09,27,124,42,11,22,271,39,1*63
$GPGSV,3,2,10,12,16,318,33,14,21,186,38,17,72,101,45,19,76,350,38,1*6E
$GPGSV,3,3,10,28,,,43,50,47,179,40,1*55
$GPGSV,2,1,06,06,55,303,42,09,27,124,39,11,22,271,33,12,16,318,32,6*6C
$GPGSV,2,2,06,14,21,186,29,17,72,101,38,6*6F
$GLGSV,2,1,07,65,36,164,42,71,24,034,30,72,55,089,36,77,15,230,10,1*7E
$GLGSV,2,2,07,78,25,287,28,87,55,023,41,88,35,316,44,1*49
$GLGSV,2,1,05,65,36,164,18,71,24,034,14,72,55,089,21,78,25,287,24,3*76
$GLGSV,2,2,05,88,35,316,34,3*4A
$GLGSV,1,1,02,79,07,335,,86,17,088,,0*7F
$GAGSV,2,1,08,02,31,210,40,05,27,144,36,09,33,084,39,18,59,308,49,2*72
$GAGSV,2,2,08,27,09,324,27,30,39,275,43,34,55,310,47,36,51,051,37,2*7B
$GAGSV,2,1,08,02,31,210,42,05,27,144,36,09,33,084,42,18,59,308,44,7*74
$GAGSV,2,2,08,27,09,324,30,30,39,275,33,34,55,310,46,36,51,051,38,7*71
$GAGSV,1,1,03,04,08,037,,11,08,080,,25,00,174,,0*4A
$GBGSV,3,1,11,01,43,152,42,02,28,236,34,03,44,206,37,04,35,132,34,1*7C
$GBGSV,3,2,11,07,63,216,35,08,53,264,41,10,64,247,38,11,36,094,23,1*7D
$GBGSV,3,3,11,13,44,257,40,14,61,114,45,28,49,315,43,1*40
$GBGSV,2,1,08,01,43,152,41,02,28,236,39,07,63,216,43,08,53,264,43,3*76
$GBGSV,2,2,08,10,64,247,41,11,36,094,28,13,44,257,43,14,61,114,44,3*7A
$GBGSV,1,1,03,05,08,256,,21,08,036,,23,07,221,,0*41
$GNRMC,044548.00,A,3727.0374104,N,12639.3912133,E,0.007,,220622,,,R,V*0C
$GNVTG,,T,,M,0.007,N,0.012,K,D*3C
$GNGNS,044548.00,3727.0374104,N,12639.3912133,E,RRRR,27,0.57,26.174,17.842,2.0,4095,V*05
$GNGGA,044548.00,3727.0374104,N,12639.3912133,E,4,12,0.57,26.174,M,17.842,M,2.0,4095*56
$GNGSA,A,3,06,09,14,19,11,12,17,,,,,,1.15,0.57,1.00,1*00
$GNGSA,A,3,71,87,78,88,72,65,,,,,,,1.15,0.57,1.00,2*04
$GNGSA,A,3,02,05,34,30,09,36,,,,,,,1.15,0.57,1.00,3*0A
$GNGSA,A,3,01,03,28,07,08,10,14,13,,,,,1.15,0.57,1.00,4*03
$GPGSV,3,1,10,02,18,277,26,06,55,303,48,09,27,124,42,11,22,271,40,1*6D
$GPGSV,3,2,10,12,16,318,33,14,21,186,37,17,72,101,44,19,76,350,38,1*60
$GPGSV,3,3,10,28,,,43,50,47,179,40,1*55
$GPGSV,2,1,06,06,55,303,42,09,27,124,39,11,22,271,33,12,16,318,33,6*6D
$GPGSV,2,2,06,14,21,186,29,17,72,101,38,6*6F
$GLGSV,2,1,07,65,36,164,42,71,24,034,31,72,55,089,36,77,15,230,10,1*7F
$GLGSV,2,2,07,78,25,287,29,87,55,023,41,88,35,316,44,1*48
$GAGSV,2,1,08,02,31,210,40,05,27,144,36,09,33,084,38,18,59,308,49,2*73
$GAGSV,2,2,08,27,09,324,27,30,39,275,43,34,55,310,47,36,51,051,37,2*7B
$GAGSV,2,1,08,02,31,210,42,05,27,144,35,09,33,084,42,18,59,308,44,7*77
$GAGSV,2,2,08,27,09,324,28,30,39,275,33,34,55,310,46,36,51,051,38,7*78
$GAGSV,1,1,03,04,08,037,,11,08,080,,25,00,174,,0*4A
$GNRMC,044549.00,A,3727.0374102,N,12639.3912127,E,0.011,,220622,,,R,V*09
$GNVTG,,T,,M,0.011,N,0.021,K,D*3B
$GNGNS,044549.00,3727.0374102,N,12639.3912127,E,RRRR,27,0.57,26.175,17.842,2.0,4095,V*06
$GNGGA,044549.00,3727.0374102,N,12639.3912127,E,4,12,0.57,26.175,M,17.842,M,2.0,4095*55
$GNGSA,A,3,06,09,14,19,11,12,17,,,,,,1.15,0.57,1.00,1*00
$GNGSA,A,3,71,87,78,88,72,65,,,,,,,1.15,0.57,1.00,2*04
$GNGSA,A,3,02,05,34,30,09,36,,,,,,,1.15,0.57,1.00,3*0A
$GNGSA,A,3,01,03,28,07,08,10,14,13,,,,,1.15,0.57,1.00,4*03
$GPGSV,3,1,10,02,18,277,26,06,55,303,48,09,27,124,42,11,22,271,40,1*6D
$GPGSV,3,2,10,12,16,318,33,14,21,186,38,17,72,101,44,19,76,350,38,1*6F
$GPGSV,3,3,10,28,,,43,50,47,179,40,1*55
$GPGSV,2,1,06,06,55,303,43,09,27,124,40,11,22,271,33,12,16,318,33,6*62
$GPGSV,2,2,06,14,21,186,29,17,72,101,38,6*6F
$GLGSV,2,1,07,65,36,164,43,71,24,034,31,72,55,089,37,77,15,230,10,1*7F
$GLGSV,2,2,07,78,25,287,28,87,55,023,41,88,35,316,44,1*49
$GLGSV,2,1,05,65,36,164,20,71,24,034,19,72,55,089,24,78,25,287,22,3*73
$GLGSV,2,2,05,88,35,316,37,3*49
$GLGSV,1,1,02,79,07,335,,86,17,088,,0*7F
$GAGSV,2,1,08,02,31,210,40,05,27,144,36,09,33,084,38,18,59,308,49,2*73
$GAGSV,2,2,08,27,09,324,28,30,39,275,43,34,55,310,47,36,51,051,37,2*74
$GAGSV,2,1,08,02,31,210,42,05,27,144,35,09,33,084,42,18,59,308,44,7*77
$GAGSV,2,2,08,27,09,324,29,30,39,275,33,34,55,310,46,36,51,051,38,7*79
$GAGSV,1,1,03,04,08,037,,11,08,080,,25,00,174,,0*4A
$GBGSV,3,1,11,01,43,152,41,02,28,236,34,03,44,206,37,04,35,132,34,1*7F
$GBGSV,3,2,11,07,63,216,35,08,53,264,41,10,64,247,38,11,36,094,24,1*7A
$GBGSV,3,3,11,13,44,257,40,14,61,114,45,28,49,315,43,1*40
$GBGSV,2,1,08,01,43,152,42,02,28,236,39,07,63,216,43,08,53,264,43,3*75
$GBGSV,2,2,08,10,64,247,40,11,36,094,28,13,44,257,43,14,61,114,43,3*7C
$GBGSV,1,1,03,05,08,256,,21,08,036,,23,07,221,,0*41
$GNRMC,044550.00,A,3727.0374096,N,12639.3912146,E,0.007,,220622,,,R,V*0D
$GNVTG,,T,,M,0.007,N,0.013,K,D*3D
$GNGNS,044550.00,3727.0374096,N,12639.3912146,E,RRRR,27,0.57,26.182,17.842,2.0,4095,V*0D
$GNGGA,044550.00,3727.0374096,N,12639.3912146,E,4,12,0.57,26.182,M,17.842,M,2.0,4095*5E
$GNGSA,A,3,06,09,14,19,11,12,17,,,,,,1.15,0.57,1.00,1*00
$GNGSA,A,3,71,87,78,88,72,65,,,,,,,1.15,0.57,1.00,2*04
$GNGSA,A,3,02,05,34,30,09,36,,,,,,,1.15,0.57,1.00,3*0A
$GNGSA,A,3,01,03,28,07,08,10,14,13,,,,,1.15,0.57,1.00,4*03
$GPGSV,3,1,10,02,18,277,25,06,55,303,48,09,27,124,43,11,22,271,40,1*6F
$GPGSV,3,2,10,12,16,318,33,14,21,186,37,17,72,101,44,19,76,350,38,1*60
$GPGSV,3,3,10,28,,,43,50,47,179,40,1*55
$GPGSV,2,1,06,06,55,303,43,09,27,124,40,11,22,271,34,12,16,318,34,6*62
$GPGSV,2,2,06,14,21,186,28,17,72,101,38,6*6E
$GLGSV,2,1,07,65,36,164,43,71,24,034,32,72,55,089,37,77,15,230,13,1*7F
$GLGSV,2,2,07,78,25,287,28,87,55,023,41,88,35,316,43,1*4E
$GLGSV,2,1,05,65,36,164,20,71,24,034,15,72,55,089,24,78,25,287,22,3*7F
$GLGSV,2,2,05,88,35,316,37,3*49
$GLGSV,1,1,02,79,07,335,,86,17,088,,0*7F
$GAGSV,2,1,08,02,31,210,40,05,27,144,36,09,33,084,39,18,59,308,49,2*72
$GAGSV,2,2,08,27,09,324,29,30,39,275,43,34,55,310,47,36,51,051,36,2*74
$GAGSV,2,1,08,02,31,210,42,05,27,144,35,09,33,084,42,18,59,308,44,7*77
$GAGSV,2,2,08,27,09,324,30,30,39,275,34,34,55,310,46,36,51,051,38,7*76
$GAGSV,1,1,03,04,08,037,,11,08,080,,25,00,174,,0*4A
$GBGSV,3,1,11,01,43,152,41,02,28,236,34,03,44,206,37,04,35,132,34,1*7F
$GBGSV,3,2,11,07,63,216,35,08,53,264,41,10,64,247,38,11,36,094,24,1*7A
$GBGSV,3,3,11,13,44,257,40,14,61,114,45,28,49,315,43,1*40
$GBGSV,2,1,08,01,43,152,42,02,28,236,39,07,63,216,44,08,53,264,43,3*72
$GNRMC,044551.00,A,3727.0374122,N,12639.3912171,E,0.006,,220622,,,R,V*07
$GNVTG,,T,,M,0.006,N,0.010,K,D*3F
$GNGNS,044551.00,3727.0374122,N,12639.3912171,E,RRRR,27,0.58,26.169,17.842,2.0,4095,V*0C
$GNGGA,044551.00,3727.0374122,N,12639.3912171,E,4,12,0.58,26.169,M,17.842,M,2.0,4095*5F
$GNGSA,A,3,06,09,14,19,02,11,12,17,,,,,1.18,0.58,1.03,1*03
$GNGSA,A,3,71,87,88,72,65,,,,,,,,1.18,0.58,1.03,2*0A
$GNGSA,A,3,02,05,34,30,09,36,,,,,,,1.18,0.58,1.03,3*0B
$GNGSA,A,3,01,03,28,07,08,10,14,13,,,,,1.18,0.58,1.03,4*02
$GPGSV,3,1,10,02,18,277,26,06,55,303,48,09,27,124,43,11,22,271,40,1*6C
$GPGSV,3,2,10,12,16,318,33,14,21,186,37,17,72,101,44,19,76,350,38,1*60
$GPGSV,3,3,10,28,,,43,50,47,179,40,1*55
$GPGSV,2,1,06,06,55,303,43,09,27,124,40,11,22,271,34,12,16,318,34,6*62
$GPGSV,2,2,06,14,21,186,28,17,72,101,38,6*6E
$GLGSV,2,1,07,65,36,164,44,71,24,034,33,72,55,089,38,77,15,230,10,1*75
$GLGSV,2,2,07,78,25,287,28,87,55,023,41,88,35,316,43,1*4E
$GLGSV,2,1,05,65,36,164,20,71,24,034,18,72,55,089,25,78,25,287,21,3*70
$GLGSV,2,2,05,88,35,316,37,3*49
$GLGSV,1,1,02,79,07,335,,86,17,088,,0*7F
$GAGSV,2,1,08,02,31,210,40,05,27,144,36,09,33,084,38,18,59,308,49,2*73
$GAGSV,2,2,08,27,09,324,28,30,39,275,43,34,55,310,47,36,51,051,36,2*75
$GAGSV,2,1,08,02,31,210,42,05,27,144,34,09,33,084,42,18,59,308,44,7*76
$GAGSV,2,2,08,27,09,324,30,30,39,275,33,34,55,310,46,36,51,051,37,7*7E
$GAGSV,1,1,03,04,08,037,,11,08,080,,25,00,174,,0*4A
$GBGSV,3,1,11,01,43,152,41,02,28,236,34,03,44,206,36,04,35,132,34,1*7E
$GBGSV,3,2,11,07,63,216,36,08,53,264,41,10,64,247,38,11,36,094,24,1*79
$GBGSV,3,3,11,13,44,257,40,14,61,114,45,28,49,315,43,1*40
$GBGSV,2,1,08,01,43,152,42,02,28,236,39,07,63,216,44,08,53,264,43,3*72
$GBGSV,2,2,08,10,64,247,41,11,36,094,29,13,44,257,43,14,61,114,43,3*7C
$GBGSV,1,1,03,05,08,256,,21,08,036,,23,07,221,,0*41
$GNRMC,044552.00,A,3727.0374130,N,12639.3912163,E,0.003,,220622,,,R,V*01
$GNVTG,,T,,M,0.003,N,0.006,K,D*3D
$GNGNS,044552.00,3727.0374130,N,12639.3912163,E,RRRR,27,0.57,26.163,17.842,2.0,4095,V*0A
$GNGGA,044552.00,3727.0374130,N,12639.3912163,E,4,12,0.57,26.163,M,17.842,M,2.0,4095*59
$GNGSA,A,3,06,09,14,19,11,12,17,,,,,,1.15,0.57,1.00,1*00
$GNGSA,A,3,71,87,78,88,72,65,,,,,,,1.15,0.57,1.00,2*04
$GNGSA,A,3,02,05,34,30,09,36,,,,,,,1.15,0.57,1.00,3*0A
$GNGSA,A,3,01,03,28,07,08,10,14,13,,,,,1.15,0.57,1.00,4*03
$GPGSV,3,1,10,02,18,277,26,06,55,303,49,09,27,124,42,11,22,271,40,1*6C
$GPGSV,3,2,10,12,16,318,34,14,21,186,38,17,72,101,44,19,76,350,37,1*67
$GPGSV,3,3,10,28,,,43,50,47,179,40,1*55
$GPGSV,2,1,06,06,55,303,43,09,27,124,40,11,22,271,35,12,16,318,34,6*63
$GPGSV,2,2,06,14,21,186,28,17,72,101,38,6*6E
$GLGSV,2,1,07,65,36,164,44,71,24,034,33,72,55,089,38,77,15,230,08,1*7C
$GLGSV,2,2,07,78,25,287,28,87,55,023,41,88,35,316,42,1*4F
$GLGSV,2,1,05,65,36,164,21,71,24,034,20,72,55,089,25,78,25,287,19,3*71
$GLGSV,2,2,05,88,35,316,37,3*49
$GLGSV,1,1,02,79,07,335,,86,17,088,,0*7F
$GAGSV,2,1,08,02,31,210,40,05,27,144,36,09,33,084,38,18,59,308,49,2*73
$GAGSV,2,2,08,27,09,324,27,30,39,275,43,34,55,310,47,36,51,051,36,2*7A
$GAGSV,2,1,08,02,31,210,42,05,27,144,35,09,33,084,42,18,59,308,44,7*77
$GAGSV,2,2,08,27,09,324,31,30,39,275,33,34,55,310,46,36,51,051,37,7*7F
$GAGSV,1,1,03,04,08,037,,11,08,080,,25,00,174,,0*4A
$GBGSV,3,1,11,01,43,152,41,02,28,236,33,03,44,206,37,04,35,132,34,1*78
$GBGSV,3,2,11,07,63,216,36,08,53,264,40,10,64,247,38,11,36,094,24,1*78
$GBGSV,3,3,11,13,44,257,40,14,61,114,45,28,49,315,43,1*40
$GBGSV,2,1,08,01,43,152,42,02,28,236,39,07,63,216,43,08,53,264,43,3*75
$GBGSV,2,2,08,10,64,247,41,11,36,094,28,13,44,257,43,14,61,114,43,3*7D
$GBGSV,1,1,03,05,08,256,,21,08,036,,23,07,221,,0*41
$GNRMC,044553.00,A,3727.0374148,N,12639.3912181,E,0.013,,220622,,,R,V*02
$GNVTG,,T,,M,0.013,N,0.024,K,D*3C
$GNGNS,044553.00,3727.0374148,N,12639.3912181,E,RRRR,27,0.57,26.156,17.842,1.0,4095,V*0D
$GNGGA,044553.00,3727.0374148,N,12639.3912181,E,4,12,0.57,26.156,M,17.842,M,1.0,4095*5E
$GNGSA,A,3,06,09,14,19,11,12,17,,,,,,1.15,0.57,1.00,1*00
$GNGSA,A,3,71,87,78,88,72,65,,,,,,,1.15,0.57,1.00,2*04
$GNGSA,A,3,02,05,34,30,09,36,,,,,,,1.15,0.57,1.00,3*0A
$GNGSA,A,3,01,03,28,07,08,10,14,13,,,,,1.15,0.57,1.00,4*03
$GPGSV,3,1,10,02,18,277,27,06,55,303,49,09,27,124,42,11,22,271,40,1*6D
$GPGSV,3,2,10,12,16,318,34,14,21,186,38,17,72,101,44,19,76,350,37,1*67
$GPGSV,3,3,10,28,,,43,50,47,179,40,1*55
$GPGSV,2,1,06,06,55,303,43,09,27,124,40,11,22,271,35,12,16,318,34,6*63
$GPGSV,2,2,06,14,21,186,27,17,72,101,38,6*61
$GLGSV,2,1,07,65,36,164,44,71,24,034,33,72,55,089,38,77,15,230,10,1*75
$GLGSV,2,2,07,78,25,287,27,87,55,023,41,88,35,316,40,1*42
$GLGSV,2,1,05,65,36,164,21,71,24,034,20,72,55,089,25,78,25,287,18,3*70
$GLGSV,2,2,05,88,35,316,38,3*46
$GLGSV,1,1,02,79,07,335,,86,17,088,,0*7F
$GAGSV,2,1,08,02,31,210,40,05,27,144,36,09,33,084,38,18,59,308,49,2*73
$GAGSV,2,2,08,27,09,324,27,30,39,275,43,34,55,310,47,36,51,051,36,2*7A
$GAGSV,2,1,08,02,31,210,42,05,27,144,36,09,33,084,41,18,59,308,44,7*77
$GAGSV,2,2,08,27,09,324,31,30,39,275,34,34,55,310,46,36,51,051,37,7*78
$GAGSV,1,1,03,04,08,037,,11,08,080,,25,00,174,,0*4A
$GBGSV,3,1,11,01,43,152,41,02,28,236,34,03,44,206,37,04,35,132,35,1*7E
$GBGSV,3,2,11,07,63,216,36,08,53,264,40,10,64,247,38,11,36,094,25,1*79
$GBGSV,3,3,11,13,44,257,40,14,61,114,45,28,49,315,43,1*40
$GBGSV,2,1,08,01,43,152,42,02,28,236,38,07,63,216,43,08,53,264,43,3*74
$GBGSV,2,2,08,10,64,247,40,11,36,094,28,13,44,257,43,14,61,114,43,3*7C
$GBGSV,1,1,03,05,08,256,,21,08,036,,23,07,221,,0*41
$GNRMC,044554.00,A,3727.0374154,N,12639.3912188,E,0.006,,220622,,,R,V*05
$GNVTG,,T,,M,0.006,N,0.012,K,D*3D
$GNGNS,044554.00,3727.0374154,N,12639.3912188,E,RRRR,27,0.57,26.155,17.842,2.0,4095,V*0E
$GNGGA,044554.00,3727.0374154,N,12639.3912188,E,4,12,0.57,26.155,M,17.842,M,2.0,4095*5D
$GNGSA,A,3,06,09,14,19,11,12,17,,,,,,1.15,0.57,1.00,1*00
$GNGSA,A,3,71,87,78,88,72,65,,,,,,,1.15,0.57,1.00,2*04
$GNGSA,A,3,02,05,34,30,09,36,,,,,,,1.15,0.57,1.00,3*0A
$GNGSA,A,3,01,03,28,07,08,10,14,13,,,,,1.15,0.57,1.00,4*03
$GPGSV,3,1,10,02,18,277,26,06,55,303,49,09,27,124,42,11,22,271,40,1*6C
$GPGSV,3,2,10,12,16,318,34,14,21,186,38,17,72,101,44,19,76,350,36,1*66
$GPGSV,3,3,10,28,,,42,50,47,179,40,1*54
$GPGSV,2,1,06,06,55,303,43,09,27,124,40,11,22,271,35,12,16,318,34,6*63
$GPGSV,2,2,06,14,21,186,27,17,72,101,38,6*61
$GLGSV,2,1,07,65,36,164,44,71,24,034,33,72,55,089,38,77,15,230,10,1*75
$GLGSV,2,2,07,78,25,287,27,87,55,023,41,88,35,316,40,1*42
$GLGSV,2,1,05,65,36,164,21,71,24,034,20,72,55,089,25,78,25,287,15,3*7D
$GLGSV,2,2,05,88,35,316,38,3*46
$GLGSV,1,1,02,79,07,335,,86,17,088,,0*7F
$GAGSV,2,1,08,02,31,210,40,05,27,144,36,09,33,084,38,18,59,308,49,2*73
$GAGSV,2,2,08,27,09,324,27,30,39,275,43,34,55,310,47,36,51,051,36,2*7A
$GAGSV,2,1,08,02,31,210,41,05,27,144,35,09,33,084,41,18,59,308,44,7*77
$GAGSV,2,2,08,27,09,324,31,30,39,275,34,34,55,310,46,36,51,051,37,7*78
$GAGSV,1,1,03,04,08,037,,11,08,080,,25,00,174,,0*4A
$GBGSV,3,1,11,01,43,152,41,02,28,236,34,03,44,206,36,04,35,132,34,1*7E
$GBGSV,3,2,11,07,63,216,36,08,53,264,40,10,64,247,37,11,36,094,24,1*77
$GBGSV,3,3,11,13,44,257,40,14,61,114,46,28,49,315,43,1*43
$GBGSV,2,1,08,01,43,152,42,02,28,236,39,07,63,216,43,08,53,264,43,3*75
$GBGSV,2,2,08,10,64,247,41,11,36,094,27,13,44,257,43,14,61,114,43,3*72
$GBGSV,1,1,03,05,08,256,,21,08,036,,23,07,221,,0*41
$GNRMC,044555.00,A,3727.0374144,N,12639.3912168,E,0.007,,220622,,,R,V*0A
$GNVTG,,T,,M,0.007,N,0.012,K,D*3C
$GNGNS,044555.00,3727.0374144,N,12639.3912168,E,RRRR,27,0.57,26.159,17.842,2.0,4095,V*0C
$GNGGA,044555.00,3727.0374144,N,12639.3912168,E,4,12,0.57,26.159,M,17.842,M,2.0,4095*5F
$GNGSA,A,3,06,09,14,19,11,12,17,,,,,,1.15,0.57,1.00,1*00
$GNGSA,A,3,71,87,78,88,72,65,,,,,,,1.15,0.57,1.00,2*04
$GNGSA,A,3,02,05,34,30,09,36,,,,,,,1.15,0.57,1.00,3*0A
$GNGSA,A,3,01,03,28,07,08,10,14,13,,,,,1.15,0.57,1.00,4*03
$GPGSV,3,1,10,02,18,277,26,06,55,303,48,09,27,124,43,11,22,271,40,1*6C
$GPGSV,3,2,10,12,16,318,34,14,21,186,39,17,72,101,44,19,76,350,36,1*67
$GPGSV,3,3,10,28,,,42,50,47,179,40,1*54
$GPGSV,2,1,06,06,55,303,43,09,27,124,40,11,22,271,35,12,16,318,34,6*63
$GPGSV,2,2,06,14,21,186,27,17,72,101,38,6*61
$GLGSV,2,1,07,65,36,164,44,71,24,034,33,72,55,089,38,77,15,230,08,1*7C
$GLGSV,2,2,07,78,25,287,27,87,55,023,41,88,35,316,40,1*42
$GLGSV,2,1,05,65,36,164,21,71,24,034,20,72,55,089,25,78,25,287,12,3*7A
$GLGSV,2,2,05,88,35,316,38,3*46
$GLGSV,1,1,02,79,07,335,,86,17,088,,0*7F
$GAGSV,2,1,08,02,31,210,40,05,27,144,35,09,33,084,38,18,59,308,49,2*70
$GAGSV,2,2,08,27,09,324,27,30,39,275,43,34,55,310,47,36,51,051,36,2*7A
$GAGSV,2,1,08,02,31,210,41,05,27,144,35,09,33,084,41,18,59,308,44,7*77
$GAGSV,2,2,08,27,09,324,32,30,39,275,33,34,55,310,46,36,51,051,37,7*7C
$GAGSV,1,1,03,04,08,037,,11,08,080,,25,00,174,,0*4A
$GBGSV,3,1,11,01,43,152,41,02,28,236,33,03,44,206,36,04,35,132,35,1*78
$GBGSV,3,2,11,07,63,216,36,08,53,264,40,10,64,247,38,11,36,094,25,1*79
$GBGSV,3,3,11,13,44,257,40,14,61,114,45,28,49,315,43,1*40
$GBGSV,2,1,08,01,43,152,42,02,28,236,39,07,63,216,43,08,53,264,43,3*75
$GBGSV,2,2,08,10,64,247,41,11,36,094,27,13,44,257,43,14,61,114,43,3*72
$GBGSV,1,1,03,05,08,256,,21,08,036,,23,07,221,,0*41
$GNRMC,044556.00,A,3727.0374129,N,12639.3912173,E,0.002,,220622,,,R,V*0D
$GNVTG,,T,,M,0.002,N,0.004,K,D*3E
$GNGNS,044556.00,3727.0374129,N,12639.3912173,E,RRRR,27,0.59,26.168,17.842,2.0,4095,V*02
$GNGGA,044556.00,3727.0374129,N,12639.3912173,E,4,12,0.59,26.168,M,17.842,M,2.0,4095*51
$GNGSA,A,3,06,09,14,19,11,12,17,02,,,,,1.17,0.59,1.01,1*0F
$GNGSA,A,3,71,87,78,88,72,65,,,,,,,1.17,0.59,1.01,2*09
$GNGSA,A,3,02,05,34,30,09,36,,,,,,,1.17,0.59,1.01,3*07
$GNGSA,A,3,01,28,07,08,10,14,13,,,,,,1.17,0.59,1.01,4*0D
$GPGSV,3,1,10,02,18,277,27,06,55,303,48,09,27,124,42,11,22,271,40,1*6C
$GPGSV,3,2,10,12,16,318,33,14,21,186,38,17,72,101,44,19,76,350,36,1*61
$GPGSV,3,3,10,28,,,42,50,47,179,40,1*54
$GPGSV,2,1,06,06,55,303,43,09,27,124,40,11,22,271,34,12,16,318,33,6*65
$GPGSV,2,2,06,14,21,186,26,17,72,101,37,6*6F
$GLGSV,2,1,07,65,36,164,44,71,24,034,33,72,55,089,38,77,15,230,07,1*73
$GLGSV,2,2,07,78,25,287,26,87,55,023,41,88,35,316,40,1*43
$GLGSV,2,1,05,65,36,164,22,71,24,034,21,72,55,089,25,78,25,287,09,3*72
$GLGSV,2,2,05,88,35,316,37,3*49
$GLGSV,1,1,02,79,07,335,,86,17,088,,0*7F
$GAGSV,2,1,08,02,31,210,39,05,27,144,35,09,33,084,38,18,59,308,49,2*7E
$GAGSV,2,2,08,27,09,324,27,30,39,275,43,34,55,310,47,36,51,051,36,2*7A
$GAGSV,2,1,08,02,31,210,41,05,27,144,36,09,33,084,41,18,59,308,44,7*74
$GAGSV,2,2,08,27,09,324,31,30,39,275,34,34,55,310,46,36,51,051,37,7*78
$GAGSV,1,1,03,04,08,037,,11,08,080,,25,00,174,,0*4A
$GBGSV,3,1,11,01,43,152,41,02,28,236,34,03,44,206,36,04,35,132,35,1*7F
$GBGSV,3,2,11,07,63,216,36,08,53,264,40,10,64,247,37,11,36,094,25,1*76
$GBGSV,3,3,11,13,44,257,39,14,61,114,46,28,49,315,43,1*4D
$GBGSV,2,1,08,01,43,152,42,02,28,236,39,07,63,216,43,08,53,264,43,3*75
$GBGSV,2,2,08,10,64,247,41,11,36,094,26,13,44,257,43,14,61,114,43,3*73
$GNRMC,044557.00,A,3727.0374124,N,12639.3912174,E,0.007,,220622,,,R,V*03
$GNVTG,,T,,M,0.007,N,0.014,K,D*3A
$GNGNS,044557.00,3727.0374124,N,12639.3912174,E,RRRR,27,0.57,26.169,17.842,2.0,4095,V*06
$GNGGA,044557.00,3727.0374124,N,12639.3912174,E,4,12,0.57,26.169,M,17.842,M,2.0,4095*55
$GNGSA,A,3,06,09,14,19,11,12,17,,,,,,1.15,0.57,1.00,1*00
$GNGSA,A,3,71,87,78,88,72,65,,,,,,,1.15,0.57,1.00,2*04
$GNGSA,A,3,02,05,34,30,09,36,,,,,,,1.15,0.57,1.00,3*0A
$GNGSA,A,3,01,03,28,07,08,10,14,13,,,,,1.15,0.57,1.00,4*03
$GPGSV,3,1,09,06,55,303,48,09,27,124,42,11,22,271,40,12,16,318,34,1*61
$GPGSV,3,2,09,14,21,186,38,17,72,101,44,19,76,350,37,28,,,42,1*5A
$GPGSV,3,3,09,50,47,179,40,1*50
$GPGSV,2,1,06,06,55,303,41,09,27,124,39,11,22,271,34,12,16,318,33,6*69
$GPGSV,2,2,06,14,21,186,26,17,72,101,37,6*6F
$GPGSV,1,1,01,02,18,277,,0*5D
$GLGSV,2,1,07,65,36,164,45,71,24,034,33,72,55,089,38,77,15,230,08,1*7D
$GLGSV,2,2,07,78,25,287,25,87,55,023,41,88,35,316,42,1*42
$GLGSV,2,1,05,65,36,164,22,71,24,034,21,72,55,089,24,78,25,287,11,3*7A
$GLGSV,2,2,05,88,35,316,35,3*4B
$GLGSV,1,1,02,79,07,335,,86,17,088,,0*7F
$GAGSV,2,1,08,02,31,210,39,05,27,144,35,09,33,084,38,18,59,308,48,2*7F
$GAGSV,2,2,08,27,09,324,26,30,39,275,43,34,55,310,47,36,51,051,36,2*7B
$GAGSV,2,1,08,02,31,210,41,05,27,144,36,09,33,084,41,18,59,308,44,7*74
$GAGSV,2,2,08,27,09,324,31,30,39,275,34,34,55,310,46,36,51,051,37,7*78
$GAGSV,1,1,03,04,08,037,,11,08,080,,25,00,174,,0*4A
$GBGSV,3,1,11,01,43,152,41,02,28,236,34,03,44,206,36,04,35,132,34,1*7E
$GBGSV,3,2,11,07,63,216,36,08,53,264,39,10,64,247,38,11,36,094,26,1*74
$GBGSV,3,3,11,13,44,257,39,14,61,114,45,28,49,315,43,1*4E
$GBGSV,2,1,08,01,43,152,42,02,28,236,39,07,63,216,43,08,53,264,43,3*75
$GNRMC,044558.00,A,3727.0374109,N,12639.3912169,E,0.009,,220622,,,R,V*01
$GNVTG,,T,,M,0.009,N,0.016,K,D*36
$GNGNS,044558.00,3727.0374109,N,12639.3912169,E,RRRR,27,0.57,26.152,17.842,2.0,4095,V*02
$GNGGA,044558.00,3727.0374109,N,12639.3912169,E,4,12,0.57,26.152,M,17.842,M,2.0,4095*51
$GNGSA,A,3,06,09,14,19,11,12,17,,,,,,1.15,0.57,1.00,1*00
$GNGSA,A,3,71,87,78,88,72,65,,,,,,,1.15,0.57,1.00,2*04
$GNGSA,A,3,02,05,34,30,09,36,,,,,,,1.15,0.57,1.00,3*0A
$GNGSA,A,3,01,03,28,07,08,10,14,13,,,,,1.15,0.57,1.00,4*03
$GPGSV,3,1,10,02,18,277,25,06,55,303,48,09,27,124,42,11,22,271,40,1*6E
$GPGSV,3,2,10,12,16,318,34,14,21,186,38,17,72,101,44,19,76,350,37,1*67
$GPGSV,3,3,10,28,,,41,50,47,179,40,1*57
$GPGSV,2,1,06,06,55,303,42,09,27,124,40,11,22,271,34,12,16,318,33,6*64
$GPGSV,2,2,06,14,21,186,26,17,72,101,37,6*6F
$GLGSV,2,1,07,65,36,164,44,71,24,034,33,72,55,089,38,77,15,230,08,1*7C
$GLGSV,2,2,07,78,25,287,25,87,55,023,41,88,35,316,43,1*43
$GLGSV,2,1,05,65,36,164,21,71,24,034,21,72,55,089,23,78,25,287,11,3*7E
$GLGSV,2,2,05,88,35,316,35,3*4B
$GLGSV,1,1,02,79,07,335,,86,17,088,,0*7F
$GAGSV,2,1,08,02,31,210,39,05,27,144,35,09,33,084,38,18,59,308,48,2*7F
$GAGSV,2,2,08,27,09,324,26,30,39,275,43,34,55,310,47,36,51,051,36,2*7B
$GAGSV,2,1,08,02,31,210,42,05,27,144,35,09,33,084,41,18,59,308,44,7*74
$GAGSV,2,2,08,27,09,324,31,30,39,275,34,34,55,310,46,36,51,051,37,7*78
$GAGSV,1,1,03,04,08,037,,11,08,080,,25,00,174,,0*4A
$GBGSV,3,1,11,01,43,152,41,02,28,236,34,03,44,206,36,04,35,132,34,1*7E
$GBGSV,3,2,11,07,63,216,36,08,53,264,40,10,64,247,38,11,36,094,26,1*7A
$GBGSV,3,3,11,13,44,257,39,14,61,114,45,28,49,315,43,1*4E
$GNRMC,044559.00,A,3727.0374120,N,12639.3912175,E,0.014,,220622,,,R,V*0A
$GNVTG,,T,,M,0.014,N,0.025,K,D*3A
$GNGNS,044559.00,3727.0374120,N,12639.3912175,E,RRRR,27,0.57,26.159,17.842,2.0,4095,V*0E
$GNGGA,044559.00,3727.0374120,N,12639.3912175,E,4,12,0.57,26.159,M,17.842,M,2.0,4095*5D
$GNGSA,A,3,06,09,14,19,11,12,17,,,,,,1.17,0.57,1.03,1*01
$GNGSA,A,3,71,87,88,72,65,,,,,,,,1.17,0.57,1.03,2*0A
$GNGSA,A,3,02,05,34,30,09,36,,,,,,,1.17,0.57,1.03,3*0B
$GNGSA,A,3,04,01,03,28,07,08,10,14,13,,,,1.17,0.57,1.03,4*06
$GPGSV,3,1,10,02,18,277,27,06,55,303,48,09,27,124,43,11,22,271,40,1*6D
$GPGSV,3,2,10,12,16,318,34,14,21,186,38,17,72,101,44,19,76,350,37,1*67
$GPGSV,3,3,10,28,,,42,50,47,179,40,1*54
$GPGSV,2,1,06,06,55,303,42,09,27,124,40,11,22,271,34,12,16,318,32,6*65
$GPGSV,2,2,06,14,21,186,27,17,72,101,37,6*6E
$GLGSV,2,1,07,65,36,164,45,71,24,034,33,72,55,089,37,77,15,230,08,1*72
$GLGSV,2,2,07,78,25,287,26,87,55,023,41,88,35,316,43,1*40
$GLGSV,2,1,05,65,36,164,22,71,24,034,21,72,55,089,23,78,25,287,14,3*78
$GLGSV,2,2,05,88,35,316,35,3*4B
$GLGSV,1,1,02,79,07,335,,86,17,088,,0*7F
$GAGSV,2,1,08,02,31,210,39,05,27,144,35,09,33,084,38,18,59,308,48,2*7F
$GAGSV,2,2,08,27,09,324,26,30,39,275,43,34,55,310,47,36,51,051,36,2*7B
$GAGSV,2,1,08,02,31,210,42,05,27,144,36,09,33,084,41,18,59,308,44,7*77
$GAGSV,2,2,08,27,09,324,31,30,39,275,34,34,55,310,45,36,51,051,37,7*7B
$GAGSV,1,1,03,04,08,037,,11,08,080,,25,00,174,,0*4A
$GBGSV,3,1,11,01,43,152,41,02,28,236,34,03,44,206,36,04,35,132,34,1*7E
$GBGSV,3,2,11,07,63,216,35,08,53,264,39,10,64,247,38,11,36,094,26,1*77
$GBGSV,3,3,11,13,44,257,39,14,61,114,45,28,49,315,43,1*4E
$GBGSV,2,1,08,01,43,152,42,02,28,236,38,07,63,216,43,08,53,264,43,3*74
$GBGSV,2,2,08,10,64,247,41,11,36,094,27,13,44,257,42,14,61,114,43,3*73
$GBGSV,1,1,03,05,08,256,,21,08,036,,23,07,221,,0*41
$GNRMC,044600.00,A,3727.0374129,N,12639.3912170,E,0.012,,220622,,,R,V*0F
$GNVTG,,T,,M,0.012,N,0.021,K,D*38
$GNGNS,044600.00,3727.0374129,N,12639.3912170,E,RRRR,27,0.57,26.158,17.842,2.0,4095,V*0C
$GNGGA,044600.00,3727.0374129,N,12639.3912170,E,4,12,0.57,26.158,M,17.842,M,2.0,4095*5F
$GNGSA,A,3,06,09,14,19,11,12,17,,,,,,1.15,0.57,1.00,1*00
$GNGSA,A,3,71,87,78,88,72,65,,,,,,,1.15,0.57,1.00,2*04
$GNGSA,A,3,02,05,34,30,09,36,,,,,,,1.15,0.57,1.00,3*0A
$GNGSA,A,3,01,03,28,07,08,10,14,13,,,,,1.15,0.57,1.00,4*03
$GPGSV,3,1,10,02,18,277,27,06,55,303,48,09,27,124,43,11,22,271,40,1*6D
$GPGSV,3,2,10,12,16,318,33,14,21,186,37,17,72,101,44,19,76,350,37,1*6F
$GPGSV,3,3,10,28,,,42,50,47,179,40,1*54
$GPGSV,2,1,06,06,55,303,42,09,27,124,40,11,22,271,34,12,16,318,32,6*65
$GPGSV,2,2,06,14,21,186,27,17,72,101,37,6*6E
$GLGSV,2,1,07,65,36,164,45,71,24,034,32,72,55,089,38,77,15,230,08,1*7C
$GLGSV,2,2,07,78,25,287,26,87,55,023,41,88,35,316,43,1*40
$GLGSV,2,1,05,65,36,164,23,71,24,034,21,72,55,089,23,78,25,287,15,3*78
$GLGSV,2,2,05,88,35,316,35,3*4B
$GLGSV,1,1,02,79,07,335,,86,17,088,,0*7F
$GAGSV,2,1,08,02,31,210,40,05,27,144,35,09,33,084,38,18,59,308,48,2*71
$GAGSV,2,2,08,27,09,324,26,30,39,275,43,34,55,310,47,36,51,051,36,2*7B
$GAGSV,2,1,08,02,31,210,42,05,27,144,36,09,33,084,40,18,59,308,45,7*77
$GAGSV,2,2,08,27,09,324,31,30,39,275,34,34,55,310,45,36,51,051,36,7*7A
$GAGSV,1,1,03,04,08,036,,11,08,080,,25,00,174,,0*4B
$GBGSV,3,1,11,01,43,152,41,02,28,236,33,03,44,206,36,04,35,132,34,1*79
$GBGSV,3,2,11,07,63,216,36,08,53,264,39,10,64,247,37,11,36,094,26,1*7B
$GBGSV,3,3,11,13,44,257,39,14,61,114,45,28,49,315,43,1*4E
$GBGSV,2,1,08,01,43,152,42,02,28,236,38,07,63,216,43,08,53,264,43,3*74
$GNRMC,044601.00,A,3727.0374170,N,12639.3912191,E,0.010,,220622,,,R,V*0F
$GNVTG,,T,,M,0.010,N,0.019,K,D*31
$GNGNS,044601.00,3727.0374170,N,12639.3912191,E,RRRR,27,0.57,26.142,17.842,2.0,4095,V*05
$GNGGA,044601.00,3727.0374170,N,12639.3912191,E,4,12,0.57,26.142,M,17.842,M,2.0,4095*56
$GNGSA,A,3,06,09,14,19,11,12,17,,,,,,1.15,0.57,1.00,1*00
$GNGSA,A,3,71,87,78,88,72,65,,,,,,,1.15,0.57,1.00,2*04
$GNGSA,A,3,02,05,34,30,09,36,,,,,,,1.15,0.57,1.00,3*0A
$GNGSA,A,3,01,03,28,07,08,10,14,13,,,,,1.15,0.57,1.00,4*03
$GPGSV,3,1,10,02,18,277,27,06,55,303,47,09,27,124,43,11,22,271,39,1*6C
$GPGSV,3,2,10,12,16,318,33,14,21,186,37,17,72,101,44,19,76,350,38,1*60
$GPGSV,3,3,10,28,,,41,50,47,179,40,1*57
$GPGSV,2,1,06,06,55,303,42,09,27,124,40,11,22,271,34,12,16,318,32,6*65
$GPGSV,2,2,06,14,21,186,28,17,72,101,36,6*60
$GLGSV,2,1,06,65,36,164,45,71,24,034,32,72,55,089,37,78,25,287,25,1*7D
$GLGSV,2,2,06,87,55,023,41,88,35,316,44,1*77
$GLGSV,2,1,05,65,36,164,25,71,24,034,22,72,55,089,24,78,25,287,18,3*77
$GLGSV,2,2,05,88,35,316,35,3*4B
$GLGSV,1,1,03,77,15,230,,79,07,335,,86,17,088,,0*4B
$GAGSV,2,1,08,02,31,210,39,05,28,143,35,09,33,084,38,18,59,308,47,2*78
$GAGSV,2,2,08,27,09,324,26,30,39,275,43,34,55,310,47,36,51,051,35,2*78
$GAGSV,2,1,08,02,31,210,42,05,28,143,36,09,33,084,40,18,59,308,45,7*7F
$GAGSV,2,2,08,27,09,324,31,30,39,275,33,34,55,310,45,36,51,051,36,7*7D
$GAGSV,1,1,03,04,08,036,,11,08,080,,25,00,174,,0*4B
$GBGSV,3,1,11,01,43,152,40,02,28,236,33,03,44,206,35,04,35,132,33,1*7C
$GBGSV,3,2,11,07,63,216,35,08,53,264,39,10,64,247,37,11,36,094,26,1*78
$GBGSV,3,3,11,13,44,257,39,14,61,114,45,28,49,315,42,1*4F
$GBGSV,2,1,08,01,43,152,42,02,28,236,38,07,63,216,43,08,53,264,43,3*74
$GBGSV,2,2,08,10,64,247,41,11,36,094,27,13,44,257,42,14,61,114,43,3*73
$GBGSV,1,1,03,05,08,256,,21,08,036,,23,07,221,,0*41
$GNRMC,044602.00,A,3727.0374162,N,12639.3912175,E,0.016,,220622,,,R,V*03
$GNVTG,,T,,M,0.016,N,0.030,K,D*3C
$GNGNS,044602.00,3727.0374162,N,12639.3912175,E,RRRR,27,0.57,26.147,17.842,2.0,4095,V*0A
$GNGGA,044602.00,3727.0374162,N,12639.3912175,E,4,12,0.57,26.147,M,17.842,M,2.0,4095*59
$GNGSA,A,3,06,09,14,19,11,12,17,,,,,,1.15,0.57,1.00,1*00
$GNGSA,A,3,71,87,78,88,72,65,,,,,,,1.15,0.57,1.00,2*04
$GNGSA,A,3,02,05,34,30,09,36,,,,,,,1.15,0.57,1.00,3*0A
$GNGSA,A,3,01,03,28,07,08,10,14,13,,,,,1.15,0.57,1.00,4*03
$GPGSV,3,1,10,02,18,277,27,06,55,303,47,09,27,124,43,11,22,271,39,1*6C
$GPGSV,3,2,10,12,16,318,33,14,21,186,37,17,72,101,44,19,76,350,38,1*60
$GPGSV,3,3,10,28,,,41,50,47,179,40,1*57
$GPGSV,2,1,06,06,55,303,43,09,27,124,40,11,22,271,34,12,16,318,33,6*65
$GPGSV,2,2,06,14,21,186,29,17,72,101,37,6*60
$GLGSV,2,1,06,65,36,164,45,71,24,034,33,72,55,089,36,78,25,287,26,1*7E
$GLGSV,2,2,06,87,55,023,40,88,35,316,44,1*76
$GLGSV,2,1,05,65,36,164,26,71,24,034,23,72,55,089,25,78,25,287,09,3*74
$GLGSV,2,2,05,88,35,316,35,3*4B
$GLGSV,1,1,03,77,15,230,,79,07,335,,86,17,088,,0*4B
$GAGSV,2,1,08,02,31,210,40,05,28,143,35,09,33,084,39,18,59,308,48,2*78
$GAGSV,2,2,08,27,09,324,26,30,39,275,43,34,55,310,47,36,51,051,36,2*7B
$GAGSV,2,1,08,02,31,210,42,05,28,143,36,09,33,084,40,18,59,308,45,7*7F
$GAGSV,2,2,08,27,09,324,31,30,39,275,33,34,55,310,45,36,51,051,36,7*7D
$GAGSV,1,1,03,04,08,036,,11,08,080,,25,00,174,,0*4B
$GBGSV,3,1,11,01,43,152,40,02,28,236,33,03,44,206,35,04,35,132,34,1*7B
$GBGSV,3,2,11,07,63,216,35,08,53,264,39,10,64,247,37,11,36,094,26,1*78
$GBGSV,3,3,11,13,44,257,39,14,61,114,45,28,49,315,43,1*4E
$GBGSV,2,1,08,01,43,152,42,02,28,236,38,07,63,216,43,08,53,264,43,3*74
$GNRMC,044603.00,A,3727.0374150,N,12639.3912174,E,0.017,,220622,,,R,V*03
$GNVTG,,T,,M,0.017,N,0.032,K,D*3F
$GNGNS,044603.00,3727.0374150,N,12639.3912174,E,RRRR,27,0.57,26.143,17.842,1.0,4095,V*0C
$GNGGA,044603.00,3727.0374150,N,12639.3912174,E,4,12,0.57,26.143,M,17.842,M,1.0,4095*5F
$GNGSA,A,3,06,09,14,19,11,12,17,,,,,,1.15,0.57,1.00,1*00
$GNGSA,A,3,71,87,78,88,72,65,,,,,,,1.15,0.57,1.00,2*04
$GNGSA,A,3,02,05,34,30,09,36,,,,,,,1.15,0.57,1.00,3*0A
$GNGSA,A,3,01,03,28,07,08,10,14,13,,,,,1.15,0.57,1.00,4*03
$GPGSV,3,1,10,02,18,277,27,06,55,303,47,09,27,124,43,11,22,271,39,1*6C
$GPGSV,3,2,10,12,16,318,33,14,21,186,37,17,72,101,44,19,76,350,38,1*60
$GPGSV,3,3,10,28,,,40,50,47,179,40,1*56
$GPGSV,2,1,06,06,55,303,43,09,27,124,40,11,22,271,35,12,16,318,34,6*63
$GPGSV,2,2,06,14,21,186,30,17,72,101,37,6*68
$GLGSV,2,1,06,65,36,164,44,71,24,034,33,72,55,089,37,78,25,287,25,1*7D
$GLGSV,2,2,06,87,55,023,40,88,35,316,43,1*71
$GLGSV,2,1,05,65,36,164,26,71,24,034,23,72,55,089,25,78,25,287,11,3*7D
$GLGSV,2,2,05,88,35,316,36,3*48
$GLGSV,1,1,03,77,15,230,,79,07,335,,86,17,088,,0*4B
$GAGSV,2,1,08,02,31,210,40,05,28,143,35,09,33,084,39,18,59,308,48,2*78
$GAGSV,2,2,08,27,09,324,25,30,39,275,43,34,55,310,47,36,51,051,35,2*7B
$GAGSV,2,1,08,02,31,210,42,05,28,143,36,09,33,084,40,18,59,308,45,7*7F
$GAGSV,2,2,08,27,09,324,32,30,39,275,33,34,55,310,45,36,51,051,36,7*7E
$GAGSV,1,1,03,04,08,036,,11,08,080,,25,00,174,,0*4B
$GBGSV,3,1,11,01,43,152,41,02,28,236,33,03,44,206,35,04,35,132,33,1*7D
$GBGSV,3,2,11,07,63,216,35,08,53,264,39,10,64,247,37,11,36,094,26,1*78
$GBGSV,3,3,11,13,44,257,39,14,61,114,45,28,49,315,43,1*4E
$GBGSV,2,1,08,01,43,152,41,02,28,236,38,07,63,216,43,08,53,264,43,3*77
$GBGSV,2,2,08,10,64,247,41,11,36,094,27,13,44,257,42,14,61,114,43,3*73
$GBGSV,1,1,03,05,08,256,,21,08,036,,23,07,221,,0*41
$GNRMC,044604.00,A,3727.0374160,N,12639.3912168,E,0.023,,220622,,,R,V*0D
$GNVTG,,T,,M,0.023,N,0.043,K,D*3E
$GNGNS,044604.00,3727.0374160,N,12639.3912168,E,RRRR,27,0.57,26.145,17.842,2.0,4095,V*00
$GNGGA,044604.00,3727.0374160,N,12639.3912168,E,4,12,0.57,26.145,M,17.842,M,2.0,4095*53
$GNGSA,A,3,06,09,14,19,11,12,17,,,,,,1.15,0.57,1.00,1*00
$GNGSA,A,3,71,87,78,88,72,65,,,,,,,1.15,0.57,1.00,2*04
$GNGSA,A,3,02,05,34,30,09,36,,,,,,,1.15,0.57,1.00,3*0A
$GNGSA,A,3,01,03,28,07,08,10,14,13,,,,,1.15,0.57,1.00,4*03
$GPGSV,3,1,10,02,18,277,27,06,55,303,47,09,27,124,43,11,22,271,39,1*6C
$GPGSV,3,2,10,12,16,318,37,14,21,186,38,17,72,101,44,19,76,350,39,1*6A
$GPGSV,3,3,10,28,,,41,50,47,179,40,1*57
$GPGSV,2,1,06,06,55,303,42,09,27,124,40,11,22,271,35,12,16,318,34,6*62
$GPGSV,2,2,06,14,21,186,30,17,72,101,37,6*68
$GLGSV,2,1,06,65,36,164,44,71,24,034,33,72,55,089,36,78,25,287,26,1*7F
$GLGSV,2,2,06,87,55,023,40,88,35,316,43,1*71
$GLGSV,2,1,05,65,36,164,27,71,24,034,24,72,55,089,26,78,25,287,20,3*7A
$GLGSV,2,2,05,88,35,316,37,3*49
$GLGSV,1,1,03,77,15,230,,79,07,335,,86,17,088,,0*4B
$GAGSV,2,1,08,02,31,210,40,05,28,143,35,09,33,084,39,18,59,308,47,2*77
$GAGSV,2,2,08,27,09,324,25,30,39,275,43,34,55,310,47,36,51,051,36,2*78
$GAGSV,2,1,08,02,31,210,42,05,28,143,36,09,33,084,40,18,59,308,45,7*7F
$GAGSV,2,2,08,27,09,324,31,30,39,275,34,34,55,310,45,36,51,051,36,7*7A
$GAGSV,1,1,03,04,08,036,,11,08,080,,25,00,174,,0*4B
$GBGSV,3,1,11,01,43,152,41,02,28,236,33,03,44,206,36,04,35,132,33,1*7E
$GBGSV,3,2,11,07,63,216,35,08,53,264,39,10,64,247,37,11,36,094,26,1*78
$GBGSV,3,3,11,13,44,257,39,14,61,114,45,28,49,315,43,1*4E
$GBGSV,2,1,08,01,43,152,41,02,28,236,39,07,63,216,43,08,53,264,43,3*76
$GBGSV,2,2,08,10,64,247,41,11,36,094,28,13,44,257,42,14,61,114,43,3*7C
$GBGSV,1,1,03,05,08,256,,21,08,036,,23,07,221,,0*41
$GNRMC,044605.00,A,3727.0374146,N,12639.3912177,E,0.007,,220622,,,R,V*00
$GNVTG,,T,,M,0.007,N,0.012,K,D*3C
$GNGNS,044605.00,3727.0374146,N,12639.3912177,E,RRRR,27,0.57,26.157,17.842,2.0,4095,V*08
$GNGGA,044605.00,3727.0374146,N,12639.3912177,E,4,12,0.57,26.157,M,17.842,M,2.0,4095*5B
$GNGSA,A,3,06,09,14,19,11,12,17,,,,,,1.15,0.57,1.00,1*00
$GNGSA,A,3,71,87,78,88,72,65,,,,,,,1.15,0.57,1.00,2*04
$GNGSA,A,3,02,05,34,30,09,36,,,,,,,1.15,0.57,1.00,3*0A
$GNGSA,A,3,01,03,28,07,08,10,14,13,,,,,1.15,0.57,1.00,4*03
$GPGSV,3,1,10,02,18,277,27,06,55,303,48,09,27,124,43,11,22,271,38,1*62
$GPGSV,3,2,10,12,16,318,29,14,21,186,37,17,72,101,44,19,76,350,39,1*6A
$GPGSV,3,3,10,28,,,42,50,47,179,40,1*54
$GPGSV,2,1,06,06,55,303,42,09,27,124,40,11,22,271,36,12,16,318,32,6*67
$GPGSV,2,2,06,14,21,186,29,17,72,101,37,6*60
$GLGSV,2,1,06,65,36,164,44,71,24,034,34,72,55,089,36,78,25,287,27,1*79
$GLGSV,2,2,06,87,55,023,40,88,35,316,42,1*70
$GLGSV,2,1,06,65,36,164,27,71,24,034,23,72,55,089,26,77,15,230,18,3*75
$GLGSV,2,2,06,78,25,287,19,88,35,316,37,3*77
$GLGSV,1,1,02,79,07,335,,86,17,088,,0*7F
$GAGSV,2,1,08,02,31,210,40,05,28,143,35,09,33,084,39,18,59,308,47,2*77
$GAGSV,2,2,08,27,09,324,28,30,39,275,43,34,55,310,47,36,51,051,36,2*75
$GAGSV,2,1,08,02,31,210,42,05,28,143,36,09,33,084,40,18,59,308,45,7*7F
$GAGSV,2,2,08,27,09,324,35,30,39,275,34,34,55,310,45,36,51,051,37,7*7F
$GAGSV,1,1,03,04,08,036,,11,08,080,,25,00,174,,0*4B
$GBGSV,3,1,11,01,43,152,40,02,28,236,32,03,44,206,35,04,35,132,33,1*7D
$GBGSV,3,2,11,07,63,216,35,08,53,264,39,10,64,247,37,11,36,094,25,1*7B
$GBGSV,3,3,11,13,44,257,39,14,61,114,45,28,49,315,43,1*4E
$GBGSV,2,1,08,01,43,152,42,02,28,236,39,07,63,216,43,08,53,264,43,3*75
$GBGSV,2,2,08,10,64,247,41,11,36,094,28,13,44,257,42,14,61,114,43,3*7C
$GBGSV,1,1,03,05,08,256,,21,08,036,,23,07,221,,0*41
$GNRMC,044606.00,A,3727.0374167,N,12639.3912168,E,0.016,,220622,,,R,V*0E
$GNVTG,,T,,M,0.016,N,0.030,K,D*3C
$GNGNS,044606.00,3727.0374167,N,12639.3912168,E,RRRR,27,0.57,26.143,17.842,2.0,4095,V*03
$GNGGA,044606.00,3727.0374167,N,12639.3912168,E,4,12,0.57,26.143,M,17.842,M,2.0,4095*50
$GNGSA,A,3,06,09,14,19,11,12,17,,,,,,1.15,0.57,1.00,1*00
$GNGSA,A,3,71,87,78,88,72,65,,,,,,,1.15,0.57,1.00,2*04
$GNGSA,A,3,02,05,34,30,09,36,,,,,,,1.15,0.57,1.00,3*0A
$GNGSA,A,3,01,03,28,07,08,10,14,13,,,,,1.15,0.57,1.00,4*03
$GPGSV,3,1,10,02,18,277,27,06,55,303,48,09,27,124,42,11,22,271,38,1*63
$GPGSV,3,2,10,12,16,318,30,14,21,186,37,17,72,101,44,19,76,350,39,1*62
$GPGSV,3,3,10,28,,,41,50,47,179,40,1*57
$GPGSV,2,1,06,06,55,303,42,09,27,124,40,11,22,271,36,12,16,318,31,6*64
$GPGSV,2,2,06,14,21,186,30,17,72,101,36,6*69
$GNRMC,044607.00,A,3727.0374104,N,12639.3912154,E,0.010,,220622,,,R,V*03
$GNVTG,,T,,M,0.010,N,0.019,K,D*31
$GNGNS,044607.00,3727.0374104,N,12639.3912154,E,RRRR,27,0.57,26.171,17.842,2.0,4095,V*09
$GNGGA,044607.00,3727.0374104,N,12639.3912154,E,4,12,0.57,26.171,M,17.842,M,2.0,4095*5A
$GNGSA,A,3,06,09,14,19,11,12,17,,,,,,1.15,0.57,1.00,1*00
$GNGSA,A,3,71,87,78,88,72,65,,,,,,,1.15,0.57,1.00,2*04
$GNGSA,A,3,02,05,34,30,09,36,,,,,,,1.15,0.57,1.00,3*0A
$GNGSA,A,3,01,03,28,07,08,10,14,13,,,,,1.15,0.57,1.00,4*03
$GPGSV,3,1,10,02,18,277,26,06,55,303,48,09,27,124,42,11,22,271,38,1*62
$GPGSV,3,2,10,12,16,318,31,14,21,186,38,17,72,101,44,19,76,350,39,1*6C
$GPGSV,3,3,10,28,,,42,50,47,179,40,1*54
$GPGSV,2,1,06,06,55,303,42,09,27,124,40,11,22,271,35,12,16,318,30,6*66
$GPGSV,2,2,06,14,21,186,29,17,72,101,36,6*61
$GLGSV,2,1,06,65,36,164,43,71,24,034,35,72,55,089,36,78,25,287,28,1*70
$GLGSV,2,2,06,87,55,023,41,88,35,316,41,1*72
$GLGSV,2,1,06,65,36,164,27,71,24,034,24,72,55,089,26,77,15,230,17,3*7D
$GLGSV,2,2,06,78,25,287,18,88,35,316,37,3*76
$GLGSV,1,1,02,79,07,335,,86,17,088,,0*7F
$GAGSV,2,1,08,02,31,210,40,05,28,143,35,09,33,084,39,18,59,308,47,2*77
$GAGSV,2,2,08,27,09,324,27,30,39,275,43,34,55,310,47,36,51,051,37,2*7B
$GAGSV,2,1,08,02,31,210,41,05,28,143,36,09,33,084,40,18,59,308,44,7*7D
$GAGSV,2,2,08,27,09,324,34,30,39,275,35,34,55,310,45,36,51,051,36,7*7E
$GAGSV,1,1,03,04,08,036,,11,08,080,,25,00,174,,0*4B
$GBGSV,3,1,11,01,43,152,41,02,28,236,33,03,44,206,35,04,35,132,33,1*7D
$GBGSV,3,2,11,07,63,216,36,08,53,264,39,10,64,247,37,11,36,094,25,1*78
$GBGSV,3,3,11,13,44,257,38,14,61,114,44,28,49,315,42,1*4F
$GBGSV,2,1,08,01,43,152,42,02,28,236,39,07,63,216,43,08,53,264,43,3*75
$GBGSV,2,2,08,10,64,247,40,11,36,094,28,13,44,257,42,14,61,114,43,3*7D
$GBGSV,1,1,03,05,08,256,,21,08,036,,23,07,221,,0*41
$GNRMC,044608.00,A,3727.0374087,N,12639.3912156,E,0.014,,220622,,,R,V*00
$GNVTG,,T,,M,0.014,N,0.026,K,D*39
$GNGNS,044608.00,3727.0374087,N,12639.3912156,E,RRRR,27,0.64,26.183,17.842,2.0,4095,V*03
$GNGGA,044608.00,3727.0374087,N,12639.3912156,E,4,12,0.64,26.183,M,17.842,M,2.0,4095*50
$GNGSA,A,3,06,09,02,14,19,11,12,17,,,,,1.25,0.64,1.07,1*06
$GNGSA,A,3,87,78,88,72,65,,,,,,,,1.25,0.64,1.07,2*06
$GNGSA,A,3,02,05,34,30,09,36,,,,,,,1.25,0.64,1.07,3*0E
$GNGSA,A,3,01,03,28,07,08,10,14,13,,,,,1.25,0.64,1.07,4*07
$GPGSV,3,1,10,02,18,277,26,06,55,303,48,09,27,124,42,11,22,271,38,1*62
$GPGSV,3,2,10,12,16,318,31,14,21,186,37,17,72,101,44,19,76,350,39,1*63
$GPGSV,3,3,10,28,,,41,50,47,179,40,1*57
$GPGSV,2,1,06,06,55,303,42,09,27,124,39,11,22,271,35,12,16,318,30,6*68
$GPGSV,2,2,06,14,21,186,29,17,72,101,36,6*61
$GLGSV,2,1,06,65,36,164,43,71,24,034,35,72,55,089,35,78,25,287,28,1*73
$GLGSV,2,2,06,87,55,023,41,88,35,316,42,1*71
$GLGSV,2,1,06,65,36,164,27,71,24,034,23,72,55,089,26,77,15,230,18,3*75
$GLGSV,2,2,06,78,25,287,16,88,35,316,38,3*77
$GLGSV,1,1,02,79,07,335,,86,17,088,,0*7F
$GAGSV,2,1,08,02,31,210,40,05,28,143,35,09,33,084,39,18,59,308,47,2*77
$GAGSV,2,2,08,27,09,324,26,30,39,275,43,34,55,310,47,36,51,051,36,2*7B
$GAGSV,2,1,08,02,31,210,41,05,28,143,36,09,33,084,40,18,59,308,44,7*7D
$GAGSV,2,2,08,27,09,324,34,30,39,275,36,34,55,310,45,36,51,051,36,7*7D
$GBGSV,3,1,11,01,43,152,41,02,28,236,33,03,44,206,35,04,35,132,34,1*7A
$GBGSV,3,2,11,07,63,216,36,08,53,264,39,10,64,247,37,11,36,094,25,1*78
$GBGSV,3,3,11,13,44,257,38,14,61,114,44,28,49,315,43,1*4E
$GBGSV,2,1,08,01,43,152,41,02,28,236,39,07,63,216,42,08,53,264,43,3*77
$GBGSV,2,2,08,10,64,247,40,11,36,094,28,13,44,257,42,14,61,114,43,3*7D
$GBGSV,1,1,03,05,08,256,,21,08,036,,23,07,221,,0*41
$GNRMC,044609.00,A,3727.0374066,N,12639.3912142,E,0.016,,220622,,,R,V*09
$GNVTG,,T,,M,0.016,N,0.029,K,D*34
$GNGNS,044609.00,3727.0374066,N,12639.3912142,E,RRRR,27,0.63,26.185,17.842,2.0,4095,V*09
$GNGGA,044609.00,3727.0374066,N,12639.3912142,E,4,12,0.63,26.185,M,17.842,M,2.0,4095*5A
$GNGSA,A,3,06,09,14,19,11,12,17,,,,,,1.24,0.63,1.07,1*02
$GNGSA,A,3,87,78,88,72,65,,,,,,,,1.24,0.63,1.07,2*00
$GNGSA,A,3,02,05,34,30,09,36,,,,,,,1.24,0.63,1.07,3*08
$GNGSA,A,3,04,01,03,28,07,08,10,14,13,,,,1.24,0.63,1.07,4*05
$GPGSV,3,1,09,06,55,303,48,09,27,124,42,11,22,271,38,12,16,318,32,1*68
$GPGSV,3,2,09,14,21,186,36,17,72,101,44,19,76,350,39,28,,,42,1*5A
$GPGSV,3,3,09,50,47,179,40,1*50
$GPGSV,2,1,06,06,55,303,40,09,27,124,39,11,22,271,34,12,16,318,29,6*63
$GPGSV,2,2,06,14,21,186,29,17,72,101,36,6*61
$GPGSV,1,1,01,02,18,277,,0*5D
$GLGSV,2,1,06,65,36,164,44,71,24,034,34,72,55,089,35,78,25,287,28,1*75
$GLGSV,2,2,06,87,55,023,41,88,35,316,43,1*70
$GLGSV,2,1,06,65,36,164,27,71,24,034,23,72,55,089,26,77,15,230,17,3*7A
$GLGSV,2,2,06,78,25,287,15,88,35,316,38,3*74
$GLGSV,1,1,02,79,07,335,,86,17,088,,0*7F
$GAGSV,2,1,08,02,31,210,41,05,28,143,35,09,33,084,39,18,60,308,47,2*7C
$GAGSV,2,2,08,27,09,324,24,30,39,275,43,34,55,310,47,36,51,051,37,2*78
$GAGSV,2,1,08,02,31,210,41,05,28,143,37,09,33,084,39,18,60,308,45,7*79
$GAGSV,2,2,08,27,09,324,34,30,39,275,36,34,55,310,45,36,51,051,36,7*7D
$GAGSV,1,1,03,04,08,036,,11,08,080,,25,00,174,,0*4B
$GBGSV,3,1,11,01,43,152,41,02,28,236,33,03,44,206,36,04,35,132,34,1*79
$GBGSV,3,2,11,07,63,216,35,08,53,264,39,10,64,247,37,11,36,094,25,1*7B
$GBGSV,3,3,11,13,44,257,37,14,61,114,44,28,49,315,43,1*41
$GBGSV,2,1,08,01,43,152,41,02,28,236,39,07,63,216,43,08,53,264,43,3*76
$GBGSV,2,2,08,10,64,247,40,11,36,094,28,13,44,257,42,14,61,114,43,3*7D
$GBGSV,1,1,03,05,08,256,,21,08,036,,23,07,221,,0*41
$GNRMC,044610.00,A,3727.0374065,N,12639.3912138,E,0.007,,220622,,,R,V*0F
$GNVTG,,T,,M,0.007,N,0.013,K,D*3D
$GNGNS,044610.00,3727.0374065,N,12639.3912138,E,RRRR,27,0.63,26.171,17.842,2.0,4095,V*04
$GNGGA,044610.00,3727.0374065,N,12639.3912138,E,4,12,0.63,26.171,M,17.842,M,2.0,4095*57
$GNGSA,A,3,06,09,14,19,11,12,17,,,,,,1.24,0.63,1.07,1*02
$GNGSA,A,3,87,78,88,72,65,,,,,,,,1.24,0.63,1.07,2*00
$GNGSA,A,3,02,05,34,30,09,36,,,,,,,1.24,0.63,1.07,3*08
$GNGSA,A,3,04,01,03,28,07,08,10,14,13,,,,1.24,0.63,1.07,4*05
$GPGSV,3,1,10,02,18,277,27,06,55,303,48,09,27,124,42,11,22,271,38,1*63
$GPGSV,3,2,10,12,16,318,33,14,21,186,36,17,72,101,44,19,76,350,39,1*60
$GPGSV,3,3,10,28,,,42,50,47,179,40,1*54
$GPGSV,2,1,06,06,55,303,41,09,27,124,39,11,22,271,34,12,16,318,31,6*6B
$GPGSV,2,2,06,14,21,186,30,17,72,101,36,6*69
$GLGSV,2,1,06,65,36,164,43,71,24,034,34,72,55,089,34,78,25,287,28,1*73
$GLGSV,2,2,06,87,55,023,42,88,35,316,44,1*74
$GLGSV,2,1,06,65,36,164,27,71,24,034,23,72,55,089,26,77,15,230,15,3*78
$GLGSV,2,2,06,78,25,287,16,88,35,316,39,3*76
$GLGSV,1,1,02,79,07,335,,86,17,088,,0*7F
$GAGSV,2,1,08,02,31,210,41,05,28,143,34,09,33,084,39,18,60,308,47,2*7D
$GAGSV,2,2,08,27,09,324,24,30,39,275,43,34,55,310,47,36,51,051,37,2*78
$GAGSV,2,1,08,02,31,210,41,05,28,143,37,09,33,084,39,18,60,308,44,7*78
$GAGSV,2,2,08,27,09,324,35,30,39,275,36,34,55,310,45,36,51,051,36,7*7C
$GAGSV,1,1,03,04,08,036,,11,08,080,,25,00,174,,0*4B
$GBGSV,3,1,11,01,43,152,41,02,28,236,33,03,44,206,36,04,35,132,34,1*79
$GBGSV,3,2,11,07,63,216,36,08,53,264,39,10,64,247,37,11,36,095,25,1*79
$GBGSV,3,3,11,13,44,257,38,14,61,114,44,28,49,315,41,1*4C
$GBGSV,2,1,08,01,43,152,41,02,28,236,39,07,63,216,43,08,53,264,43,3*76
$GBGSV,2,2,08,10,64,247,40,11,36,095,28,13,44,257,42,14,61,114,43,3*7C
$GBGSV,1,1,03,05,08,256,,21,08,036,,23,07,221,,0*41
$GNRMC,044611.00,A,3727.0374042,N,12639.3912119,E,0.004,,220622,,,R,V*0B
$GNVTG,,T,,M,0.004,N,0.007,K,D*3B
$GNGNS,044611.00,3727.0374042,N,12639.3912119,E,RRRR,27,0.63,26.180,17.842,2.0,4095,V*0D
$GNGGA,044611.00,3727.0374042,N,12639.3912119,E,4,12,0.63,26.180,M,17.842,M,2.0,4095*5E
$GNGSA,A,3,06,09,14,19,11,12,17,,,,,,1.24,0.63,1.07,1*02
$GNGSA,A,3,87,78,88,72,65,,,,,,,,1.24,0.63,1.07,2*00
$GNGSA,A,3,02,05,34,30,09,36,,,,,,,1.24,0.63,1.07,3*08
$GNGSA,A,3,04,01,03,28,07,08,10,14,13,,,,1.24,0.63,1.07,4*05
$GPGSV,3,1,10,02,18,277,26,06,55,303,48,09,27,124,42,11,22,271,38,1*62
$GPGSV,3,2,10,12,16,318,32,14,21,186,35,17,72,101,44,19,76,350,40,1*6C
$GPGSV,3,3,10,28,,,42,50,47,179,40,1*54
$GPGSV,2,1,06,06,55,303,41,09,27,124,39,11,22,271,34,12,16,318,32,6*68
$GPGSV,2,2,06,14,21,186,29,17,72,101,36,6*61
$GLGSV,2,1,06,65,36,164,43,71,24,034,34,72,55,089,34,78,25,287,28,1*73
$GLGSV,2,2,06,87,55,023,41,88,35,316,45,1*76
$GLGSV,2,1,06,65,36,164,27,71,24,034,22,72,55,089,26,77,15,230,15,3*79
$GLGSV,2,2,06,78,25,287,17,88,35,316,39,3*77
$GLGSV,1,1,02,79,07,335,,86,17,088,,0*7F
$GAGSV,2,1,08,02,31,210,41,05,28,143,35,09,33,084,39,18,60,308,47,2*7C
$GAGSV,2,2,08,27,09,324,23,30,39,275,43,34,55,310,47,36,51,051,36,2*7E
$GAGSV,2,1,08,02,31,210,41,05,28,143,37,09,33,084,39,18,60,308,44,7*78
$GAGSV,2,2,08,27,09,324,34,30,39,275,37,34,55,310,45,36,51,051,35,7*7F
$GAGSV,1,1,03,04,08,036,,11,08,080,,25,00,174,,0*4B
$GBGSV,3,1,11,01,43,152,41,02,28,236,32,03,44,206,37,04,35,132,35,1*78
$GBGSV,3,2,11,07,63,216,36,08,53,264,39,10,64,247,37,11,36,095,26,1*7A
$GBGSV,3,3,11,13,44,257,38,14,61,114,44,28,49,315,43,1*4E
$GBGSV,2,1,08,01,43,152,41,02,28,236,39,07,63,216,43,08,53,264,43,3*76
$GBGSV,2,2,08,10,64,247,40,11,36,095,29,13,44,257,42,14,61,114,43,3*7D
$GBGSV,1,1,03,05,08,256,,21,08,036,,23,07,221,,0*41
$GNRMC,044612.00,A,3727.0374035,N,12639.3912120,E,0.013,,220622,,,R,V*04
$GNVTG,,T,,M,0.013,N,0.024,K,D*3C
$GNGNS,044612.00,3727.0374035,N,12639.3912120,E,RRRR,27,0.63,26.175,17.842,2.0,4095,V*0E
$GNGGA,044612.00,3727.0374035,N,12639.3912120,E,4,12,0.63,26.175,M,17.842,M,2.0,4095*5D
$GNGSA,A,3,06,09,14,19,11,12,17,,,,,,1.24,0.63,1.07,1*02
$GNGSA,A,3,87,78,88,72,65,,,,,,,,1.24,0.63,1.07,2*00
$GNGSA,A,3,02,05,34,30,09,36,,,,,,,1.24,0.63,1.07,3*08
$GNGSA,A,3,04,01,03,28,07,08,10,14,13,,,,1.24,0.63,1.07,4*05
$GPGSV,3,1,10,02,18,277,25,06,55,303,48,09,27,124,42,11,22,271,37,1*6E
$GPGSV,3,2,10,12,16,318,33,14,21,186,35,17,72,101,44,19,76,350,40,1*6D
$GPGSV,3,3,10,28,,,43,50,47,179,41,1*54
$GPGSV,2,1,06,06,55,303,42,09,27,124,40,11,22,271,35,12,16,318,33,6*65
$GPGSV,2,2,06,14,21,186,30,17,72,101,36,6*69
$GLGSV,1,1,02,79,07,335,,86,17,088,,0*7F
$GAGSV,2,1,08,02,31,210,41,05,28,143,35,09,33,084,39,18,60,308,47,2*7C
$GAGSV,2,2,08,27,09,324,21,30,39,275,43,34,55,310,48,36,51,051,36,2*73
$GAGSV,2,1,08,02,31,210,41,05,28,143,37,09,33,084,39,18,60,308,45,7*79
$GAGSV,2,2,08,27,09,324,34,30,39,275,37,34,55,310,45,36,51,051,35,7*7F
$GNRMC,044613.00,A,3727.0374126,N,12639.3912138,E,0.010,,220622,,,R,V*0C
$GNVTG,,T,,M,0.010,N,0.018,K,D*30
$GNGNS,044613.00,3727.0374126,N,12639.3912138,E,RRRR,27,0.63,26.152,17.842,1.0,4095,V*03
$GNGGA,044613.00,3727.0374126,N,12639.3912138,E,4,12,0.63,26.152,M,17.842,M,1.0,4095*50
$GNGSA,A,3,06,09,14,19,11,12,17,,,,,,1.24,0.63,1.07,1*02
$GNGSA,A,3,87,78,88,72,65,,,,,,,,1.24,0.63,1.07,2*00
$GNGSA,A,3,02,05,34,30,09,36,,,,,,,1.24,0.63,1.07,3*08
$GNGSA,A,3,04,01,03,28,07,08,10,14,13,,,,1.24,0.63,1.07,4*05
$GPGSV,3,1,10,02,18,277,25,06,55,303,48,09,27,124,42,11,22,271,37,1*6E
$GPGSV,3,2,10,12,16,318,34,14,21,186,36,17,72,101,45,19,76,350,40,1*68
$GPGSV,3,3,10,28,,,43,50,47,179,40,1*55
$GPGSV,2,1,06,06,55,303,42,09,27,124,40,11,22,271,34,12,16,318,33,6*64
$GPGSV,2,2,06,14,21,186,31,17,72,101,37,6*69
$GLGSV,2,1,06,65,36,164,43,71,24,034,35,72,55,089,33,78,25,287,30,1*7C
$GLGSV,2,2,06,87,55,023,42,88,35,316,45,1*75
$GLGSV,2,1,06,65,36,164,28,71,24,034,22,72,55,089,26,77,15,230,14,3*77
$GLGSV,2,2,06,78,25,287,17,88,35,316,38,3*76
$GLGSV,1,1,02,79,07,335,,86,17,088,,0*7F
$GAGSV,2,1,08,02,31,210,41,05,28,143,34,09,33,084,40,18,60,308,47,2*73
$GAGSV,2,2,08,27,10,324,19,30,39,275,43,34,55,310,48,36,51,051,36,2*70
$GAGSV,2,1,08,02,31,210,41,05,28,143,36,09,33,084,39,18,60,308,45,7*78
$GAGSV,2,2,08,27,10,324,34,30,39,275,36,34,55,310,45,36,51,051,35,7*76
$GAGSV,1,1,03,04,08,036,,11,08,080,,25,00,174,,0*4B
$GBGSV,3,1,11,01,43,152,41,02,28,236,32,03,44,206,37,04,35,132,33,1*7E
$GBGSV,3,2,11,07,63,216,37,08,53,264,38,10,64,247,37,11,36,095,27,1*7B
$GBGSV,3,3,11,13,44,257,38,14,61,114,44,28,49,315,43,1*4E
$GBGSV,2,1,08,01,43,152,42,02,28,236,39,07,63,216,43,08,53,264,43,3*75
$GBGSV,2,2,08,10,64,247,40,11,36,095,29,13,44,257,42,14,61,114,43,3*7D
$GBGSV,1,1,03,05,08,256,,21,08,036,,23,07,221,,0*41
$GNRMC,044614.00,A,3727.0374128,N,12639.3912138,E,0.008,,220622,,,R,V*0C
$GNVTG,,T,,M,0.008,N,0.015,K,D*34
$GNGNS,044614.00,3727.0374128,N,12639.3912138,E,RRRR,27,0.63,26.147,17.842,2.0,4095,V*0D
$GNGGA,044614.00,3727.0374128,N,12639.3912138,E,4,12,0.63,26.147,M,17.842,M,2.0,4095*5E
$GNGSA,A,3,06,09,14,19,11,12,17,,,,,,1.24,0.63,1.07,1*02
$GNGSA,A,3,87,78,88,72,65,,,,,,,,1.24,0.63,1.07,2*00
$GNGSA,A,3,02,05,34,30,09,36,,,,,,,1.24,0.63,1.07,3*08
$GNGSA,A,3,04,01,03,28,07,08,10,14,13,,,,1.24,0.63,1.07,4*05
$GPGSV,3,1,10,02,18,277,25,06,55,303,48,09,27,124,42,11,22,271,37,1*6E
$GPGSV,3,2,10,12,16,318,33,14,21,186,36,17,72,101,44,19,76,350,40,1*6E
$GPGSV,3,3,10,28,,,43,50,47,179,40,1*55
$GPGSV,2,1,06,06,55,303,42,09,27,124,41,11,22,271,34,12,16,318,33,6*65
$GPGSV,2,2,06,14,21,186,32,17,72,101,37,6*6A
