$GNRMC,044419.00,A,3727.0372270,N,12639.3907898,E,0.006,,220622,,,F,V*16
$GNVTG,,T,,M,0.006,N,0.011,K,D*3E
$GNGNS,044419.00,3727.0372270,N,12639.3907898,E,FFFF,27,0.59,27.633,17.842,2.0,4095,V*01
$GNGGA,044419.00,3727.0372270,N,12639.3907898,E,5,12,0.59,27.633,M,17.842,M,2.0,4095*53
$GNGSA,A,3,06,09,14,19,11,12,17,02,,,,,1.17,0.59,1.01,1*0F
$GNGSA,A,3,87,78,88,72,65,71,,,,,,,1.17,0.59,1.01,2*09
$GNGSA,A,3,02,05,34,30,36,,,,,,,,1.17,0.59,1.01,3*0E
$GNGSA,A,3,03,01,04,28,08,10,14,13,,,,,1.17,0.59,1.01,4*0D
$GPGSV,3,1,10,02,17,276,29,06,55,302,48,09,27,124,41,11,21,271,37,1*6D
$GPGSV,3,2,10,12,16,318,33,14,22,186,31,17,73,099,40,19,75,349,41,1*65
$GPGSV,3,3,10,28,,,39,50,47,179,37,1*58
$GPGSV,2,1,06,06,55,302,40,09,27,124,39,11,21,271,32,12,16,318,35,6*6A
$GPGSV,2,2,06,14,22,186,30,17,73,099,36,6*6B
$GLGSV,2,1,08,65,35,164,38,71,24,035,29,72,55,090,37,77,15,230,21,1*7D
$GLGSV,2,2,08,78,25,287,36,79,07,335,17,87,55,021,40,88,34,316,37,1*75
$GLGSV,2,1,06,65,35,164,30,71,24,035,23,72,55,090,32,78,25,287,34,3*72
$GLGSV,2,2,06,79,07,335,20,88,34,316,37,3*75
$GAGSV,2,1,06,02,32,211,33,05,27,144,36,18,58,308,47,30,39,276,42,2*76
$GAGSV,2,2,06,34,55,309,45,36,51,051,37,2*7D
$GAGSV,2,1,06,02,32,211,34,05,27,144,35,18,58,308,46,30,39,276,41,7*75
$GAGSV,2,2,06,34,55,309,45,36,51,051,38,7*77
$GAGSV,1,1,02,04,08,037,,25,00,174,,0*7B
$GBGSV,3,1,09,01,43,152,40,03,44,206,32,04,35,132,38,07,63,216,35,1*77
$GBGSV,3,2,09,08,53,263,39,10,64,247,34,13,44,257,38,14,61,115,42,1*70
$GBGSV,3,3,09,28,49,314,46,1*4C
$GBGSV,3,1,09,01,43,152,41,02,28,236,39,03,44,206,38,04,35,132,40,3*75
$GBGSV,3,2,09,07,63,216,42,08,53,263,41,10,64,247,39,13,44,257,30,3*78
$GBGSV,3,3,09,14,61,115,45,3*4B
$GBGSV,1,1,02,05,08,256,,11,36,094,,0*71
$GNRMC,044420.00,A,3727.0372277,N,12639.3907934,E,0.025,,220622,,,F,V*1D
$GNVTG,,T,,M,0.025,N,0.047,K,D*3C
$GNGNS,044420.00,3727.0372277,N,12639.3907934,E,FFFF,27,0.59,27.601,17.842,2.0,4095,V*0A
$GNGGA,044420.00,3727.0372277,N,12639.3907934,E,5,12,0.59,27.601,M,17.842,M,2.0,4095*58
$GNGSA,A,3,06,09,14,19,11,12,17,02,,,,,1.17,0.59,1.01,1*0F
$GNGSA,A,3,87,78,88,72,65,71,,,,,,,1.17,0.59,1.01,2*09
$GNGSA,A,3,02,05,34,30,36,,,,,,,,1.17,0.59,1.01,3*0E
$GNGSA,A,3,03,01,04,28,08,10,14,13,,,,,1.17,0.59,1.01,4*0D
$GPGSV,3,1,10,02,17,276,29,06,55,302,49,09,27,124,41,11,21,271,38,1*63
$GPGSV,3,2,10,12,16,318,37,14,22,186,29,17,73,099,39,19,75,349,40,1*67
$GPGSV,3,3,10,28,,,40,50,47,179,35,1*54
$GPGSV,2,1,06,06,55,302,41,09,27,124,39,11,21,271,32,12,16,318,35,6*6B
$GPGSV,2,2,06,14,22,186,30,17,73,099,36,6*6B
$GLGSV,2,1,08,65,35,164,37,71,24,035,28,72,55,090,36,77,15,230,22,1*71
$GLGSV,2,2,08,78,25,287,32,79,07,335,17,87,55,021,40,88,34,316,33,1*75
$GLGSV,2,1,06,65,35,164,30,71,24,035,21,72,55,090,33,78,25,287,33,3*76
$GLGSV,2,2,06,79,07,335,20,88,34,316,36,3*74
$GAGSV,2,1,06,02,32,211,32,05,27,144,37,18,58,308,47,30,39,276,42,2*76
$GAGSV,2,2,06,34,55,309,45,36,51,051,37,2*7D
$GAGSV,2,1,06,02,32,211,34,05,27,144,35,18,58,308,47,30,39,276,42,7*77
$GAGSV,2,2,06,34,55,309,45,36,51,051,38,7*77
$GAGSV,1,1,02,04,08,037,,25,00,174,,0*7B
$GBGSV,3,1,10,01,43,152,40,02,28,236,34,03,44,206,32,04,35,132,37,1*79
$GBGSV,3,2,10,07,63,216,35,08,53,263,39,10,64,247,34,13,44,257,38,1*78
$GBGSV,3,3,10,14,61,115,42,28,49,314,45,1*76
$GBGSV,3,1,09,01,43,152,41,02,28,236,39,03,44,206,38,04,35,132,40,3*75
$GBGSV,3,2,09,07,63,216,42,08,53,263,42,10,64,247,39,13,44,257,30,3*7B
$GBGSV,3,3,09,14,61,115,45,3*4B
$GNRMC,044421.00,A,3727.0372286,N,12639.3908000,E,0.028,,220622,,,F,V*1E
$GNVTG,,T,,M,0.028,N,0.053,K,D*34
$GNGNS,044421.00,3727.0372286,N,12639.3908000,E,FFFF,27,0.59,27.572,17.842,2.0,4095,V*03
$GNGSA,A,3,06,09,14,19,11,12,17,02,,,,,1.17,0.59,1.01,1*0F
$GNGSA,A,3,87,78,88,72,65,71,,,,,,,1.17,0.59,1.01,2*09
$GNGSA,A,3,02,05,34,30,36,,,,,,,,1.17,0.59,1.01,3*0E
$GNGSA,A,3,03,01,04,28,08,10,14,13,,,,,1.17,0.59,1.01,4*0D
$GPGSV,3,1,10,02,17,276,30,06,55,302,50,09,27,124,41,11,21,271,37,1*6C
$GPGSV,3,2,10,12,16,318,36,14,22,186,28,17,73,099,39,19,75,349,41,1*66
$GPGSV,3,3,10,28,,,39,50,47,179,35,1*5A
$GPGSV,2,1,06,06,55,302,41,09,27,124,40,11,21,271,33,12,16,318,36,6*67
$GPGSV,2,2,06,14,22,186,30,17,73,099,36,6*6B
$GLGSV,2,1,08,65,35,164,37,71,24,035,27,72,55,090,35,77,15,230,23,1*7C
$GLGSV,2,2,08,78,25,287,33,79,07,335,16,87,55,021,40,88,34,316,29,1*7E
$GLGSV,2,1,06,65,35,164,29,71,24,035,20,72,55,090,33,78,25,287,33,3*7F
$GLGSV,2,2,06,79,07,335,20,88,34,316,36,3*74
$GAGSV,2,1,06,02,32,211,32,05,27,144,37,18,58,308,46,30,39,276,42,2*77
$GAGSV,2,2,06,34,55,309,45,36,51,051,36,2*7C
$GAGSV,2,1,06,02,32,21$GAGSV,2,2,06,34,55,309,46,36,51,051,38,7*74
$GAGSV,1,1,02,04,08,037,,25,00,174,,0*7B
$GBGSV,3,1,10,01,43,152,40,02,28,236,34,03,44,206,32,04,35,132,37,1*79
$GBGSV,3,2,10,07,63,216,35,08,53,263,40,10,64,247,35,13,44,257,38,1*77
$GBGSV,3,3,10,14,61,115,42,28,49,314,46,1*75
$GBGSV,3,1,09,01,43,152,41,02,28,236,39,03,44,206,38,04,35,132,40,3*75
$GBGSV,3,2,09,07,63,216,42,08,53,263,41,10,64,247,39,13,44,257,31,3*79
$GBGSV,3,3,09,14,61,115,44,3*4A
$GBGSV,1,1,02,05,08,256,,11,36,094,,0*71
$GNRMC,044422.00,A,3727.0372356,N,12639.3908053,E,0.022,,220622,,,F,V*1D
$GNVTG,,T,,M,0.022,N,0.042,K,D*3E
$GNGNS,044422.00,3727.0372356,N,12639.3908053,E,FFFF,27,0.59,27.560,17.842,2.0,4095,V*09
$GNGGA,044422.00,3727.0372356,N,12639.3908053,E,5,12,0.59,27.560,M,17.842,M,2.0,4095*5B
$GNGSA,A,3,06,09,14,19,11,12,17,02,,,,,1.17,0.59,1.01,1*0F
$GNGSA,A,3,87,78,88,72,65,71,,,,,,,1.17,0.59,1.01,2*09
$GNGSA,A,3,03,01,04,28,08,10,14,13,,,,,1.17,0.59,1.01,4*0D
$GPGSV,3,1,10,02,17,276,31,06,55,302,48,09,27,124,41,11,21,271,35,1*66
$GPGSV,3,2,10,12,16,318,34,14,22,186,32,17,73,099,39,19,75,349,41,1*6F
$GPGSV,3,3,10,28,,,40,50,47,179,38,1*59
$GPGSV,2,1,06,06,55,302,39,09,27,124,40,11,21,271,34,12,16,318,35,6*6C
$GPGSV,2,2,06,14,22,186,30,17,73,099,36,6*6B
$GLGSV,2,1,08,65,35,164,39,71,24,035,27,72,55,090,36,77,15,230,23,1*71
$GLGSV,2,2,08,78,25,287,38,79,07,335,16,87,55,021,42,88,34,316,29,1*77
$GLGSV,2,1,06,65,35,164,28,71,24,035,20,72,55,090,32,78,25,287,32,3*7E
$GLGSV,2,2,06,79,07,335,20,88,34,316,36,3*74
$GAGSV,2,1,06,02,32,211,36,05,27,144,39,18,58,308,48,30,39,276,40,2*71
$GAGSV,2,2,06,34,55,309,46,36,51,051,37,2*7E
$GAGSV,2,1,06,02,32,211,38,05,27,144,35,18,58,308,47,30,39,276,40,7*79
$GAGSV,2,2,06,34,55,309,44,36,51,051,39,7*77
$GAGSV,1,1,02,04,08,037,,25,00,174,,0*7B
$GBGSV,3,1,10,01,43,152,43,02,28,236,34,03,44,206,33,04,35,132,39,1$GNRMC,044423.00,A,3727.0372327,N,12639.3908025,E,0.026,,220622,,,F,V*1F
$GNVTG,,T,,M,0.026,N,0.048,K,D*30
$GNGNS,044423.00,3727.0372327,N,12639.3908025,E,FFFF,27,0.59,27.551,17.842,1.0,4095,V*0E
$GNGGA,044423.00,3727.0372327,N,12639.3908025,E,5,12,0.59,27.551,M,17.842,M,1.0,4095*5C
$GNGSA,A,3,06,09,14,19,11,12,17,02,,,,,1.17,0.59,1.01,1*0F
$GNGSA,A,3,87,78,88,72,65,71,,,,,,,1.17,0.59,1.01,2*09
$GNGSA,A,3,02,05,34,30,36,,,,,,,,1.17,0.59,1.01,3*0E
$GNGSA,A,3,03,01,04,28,08,10,14,13,,,,,1.17,0.59,1.01,4*0D
$GPGSV,3,1,10,02,17,276,31,06,55,302,50,09,27,124,41,11,21,271,37,1*6D
$GPGSV,3,2,10,12,16,318,34,14,22,186,32,17,73,099,39,19,75,349,41,1*6F
$GPGSV,3,3,10,28,,,39,50,47,179,35,1*5A
$GPGSV,2,1,06,06,55,302,42,09,27,124,41,11,21,271,33,12,16,318,31,6*62
$GPGSV,2,2,06,14,22,186,28,17,73,099,37,6*63
$GLGSV,2,1,08,65,35,164,36,71,24,035,27,72,55,090,37,77,15,230,23,1*7F
$GLGSV,2,2,08,78,25,287,34,79,07,335,16,87,55,021,42,88,34,316,36,1*75
$GLGSV,2,1,06,65,35,164,28,71,24,035,18,72,55,090,32,78,25,287,33,3*74
$GLGSV,2,2,06,79,07,335,19,88,34,316,36,3*7E
$GAGSV,2,1,06,02,32,211,35,05,27,144,39,18,58,308,49,30,39,276,41,2*72
$GAGSV,2,2,06,34,55,309,46,36,51,051,37,2*7E
$GAGSV,2,1,06,02,32,211,38,05,27,144,34,18,58,308,48,30,39,276,43,7*74
$GAGSV,2,2,06,34,55,309,46,36,51,051,39,7*75
$GAGSV,1,1,02,04,08,037,,25,00,174,,0*7B
$GBGSV,3,1,10,01,43,152,40,02,28,236,35,03,44,206,34,04,35,132,39,1*70
$GBGSV,3,2,10,07,63,216,35,08,53,263,40,10,64,247,34,13,44,257,38,1*76
$GBGSV,3,3,10,14,61,115,42,28,49,314,47,1*74
$GBGSV,3,1,09,01,43,152,43,02,28,236,38,03,44,206,39,04,35,132,40,3*77
$GBGSV,3,2,09,07,63,216,42,08,53,263,40,10,64,247,38,13,44,257,33,3*7B
$GBGSV,3,3,09,14,61,115,45,3*4B
$GBGSV,1,1,02,05,08,256,,11,36,094,,0*71
$GNRMC,044424.00,A,3727.0372303,N,12639.3908053,E,0.047,,220622,,,F,V*18
$GNVTG,,T,,M,0.047,N,0.087,K,D*34
$GNGNS,044424.00,3727.0372303,N,12639.3908053,E,FFFF,27,0.59,27.534,17.842,2.0,4095,V*0E
$GNGGA,044424.00,3727.0372303,N,12639.3908053,E,5,12,0.59,27.534,M,17.842,M,2.0,4095*5C
$GNGSA,A,3,06,09,14,19,11,12,17,02,,,,,1.17,0.59,1.01,1*0F
$GNGSA,A,3,87,78,88,72,65,71,,,,,,,1.17,0.59,1.01,2*09
$GNGSA,A,3,02,05,34,30,36,,,,,,,,1.17,0.59,1.01,3*0E
$GNGSA,A,3,03,01,04,28,08,10,14,13,,,,,1.17,0.59,1.01,4*0D
$GPGSV,3,1,10,02,17,276,31,06,55,302,49,09,27,124,41,11,21,271,38,1*6A
$GPGSV,3,2,10,12,16,318,38,14,22,186,31,17,73,099,40,19,75,349,40,1*6F
$GPGSV,3,3,10,28,,,37,50,47,179,35,1*54
$GPGSV,2,1,06,06,55,302,42,09,27,124,41,11,21,271,33,12,16,318,34,6*67
$GNRMC,044425.00,A,3727.0372310,N,12639.3908102,E,0.030,,220622,,,F,V*1E
$GNVTG,,T,,M,0.030,N,0.056,K,D*38
$GNGNS,044425.00,3727.0372310,N,12639.3908102,E,FFFF,27,0.59,27.515,17.842,2.0,4095,V*0B
$GNGGA,044425.00,3727.0372310,N,12639.3908102,E,5,12,0.59,27.515,M,17.842,M,2.0,4095*59
$GNGSA,A,3,06,09,14,19,11,12,17,02,,,,,1.17,0.59,1.01,1*0F
$GNGSA,A,3,87,78,88,72,65,71,,,,,,,1.17,0.59,1.01,2*09
$GNGSA,A,3,02,05,34,30,36,,,,,,,,1.17,0.59,1.01,3*0E
$GNGSA,A,3,03,01,04,28,08,10,14,13,,,,,1.17,0.59,1.01,4*0D
$GPGSV,3,1,10,02,17,276,31,06,55,302,50,09,27,124,41,11,21,271,38,1*62
$GPGSV,3,2,10,12,16,318,36,14,22,186,30,17,73,099,40,19,75,349,42,1*62
$GPGSV,3,3,10,28,,,37,50,47,179,35,1*54
$GPGSV,2,1,06,06,55,302,41,09,27,124,40,11,21,271,33,12,16,318,35,6*64
$GPGSV,2,2,06,14,22,186,27,17,73,099,37,6*6C
$GLGSV,2,1,07,65,35,164,40,71,24,035,29,72,55,090,37,77,15,230,24,1*78
$GLGSV,2,2,07,78,25,287,27,87,55,021,41,88,34,316,40,1*41
$GLGSV,2,1,06,65,35,164,28,71,24,035,18,72,55,090,32,78,25,287,31,3*76
$GLGSV,2,2,06,79,07,335,19,88,34,316,39,3*71
$GAGSV,2,1,06,02,32,211,34,05,27,144,39,18,58,308,48,30,39,276,42,2*71
$GAGSV,2,2,06,34,55,309,46,36,51,051,38,2*71
$GAGSV,2,1,07,02,32,211,38,05,27,144,35,09,33,084,40,18,58,308,47,7*77
$GAGSV,2,2,07,30,39,276,42,34,55,309,45,36,51,051,39,7*4B
$GAGSV,1,1,03,04,08,037,,25,00,174,,27,09,324,,0*43
$GBGSV,3,1,11,01,43,152,40,02,28,236,34,03,44,206,34,04,35,132,37,1*7E
$GBGSV,3,2,11,07,63,216,35,08,53,263,41,10,64,247,33,11,36,094,29,1*7B
$GBGSV,3,3,11,13,44,257,39,14,61,115,43,28,49,314,47,1*4C
$GBGSV,2,1,07,01,43,152,41,03,44,206,39,07,63,216,42,08,53,263,41,3*75
$GBGSV,2,2,07,10,64,247,38,13,44,257,32,14,61,115,44,3*4E
$GBGSV,1,1,01,05,08,256,,0*4A
$GNRMC,044426.00,A,3727.0372323,N,12639.3908113,E,0.016,,220622,,,F,V*19
$GNVTG,,T,,M,0.016,N,0.030,K,D*3C
$GNGNS,044426.00,3727.0372323,N,12639.3908113,E,FFFF,27,0.59,27.475,17.842,2.0,4095,V*0F
$GNGGA,044426.00,3727.0372323,N,12639.3908113,E,5,12,0.59,27.475,M,17.842,M,2.0,4095*5D
$GNGSA,A,3,06,09,14,19,11,12,17,02,,,,,1.17,0.59,1.01,1*0F
$GNGSA,A,3,87,78,88,72,65,71,,,,,,,1.17,0.59,1.01,2*09
$GNGSA,A,3,02,05,34,30,36,,,,,,,,1.17,0.59,1.01,3*0E
$GNGSA,A,3,03,01,04,28,08,10,14,13,,,,,1.17,0.59,1.01,4*0D
$GPGSV,3,1,10,02,17,276,31,06,55,302,50,09,27,124,41,11,21,271,38,1*62
$GPGSV,3,2,10,12,16,318,37,14,22,186,30,17,73,099,39,19,75,349,41,1*6E
$GPGSV,3,3,10,28,,,38,50,47,179,35,1*5B
$GPGSV,2,1,06,06,55,302,41,09,27,124,40,11,21,271,33,12,16,318,36,6*67
$GPGSV,2,2,06,14,22,186,27,17,73,099,37,6*6C
$GLGSV,2,1,07,65,35,164,40,71,24,035,28,72,55,090,36,77,15,230,23,1*7F
$GLGSV,2,2,07,78,25,287,28,87,55,021,41,88,34,316,42,1*4C
$GLGSV,2,1,06,65,35,164,28,71,24,035,18,72,55,090,32,78,25,287,31,3*76
$GLGSV,2,2,06,79,07,335,20,88,34,316,39,3*7B
$GAGSV,2,1,06,02,32,211,34,05,27,144,39,18,58,308,48,30,39,276,42,2*71
$GAGSV,2,2,06,34,55,309,46,36,51,051,38,2*71
$GAGSV,2,1,07,02,32,211,39,05,27,144,35,09,33,084,40,18,58,308,46,7*77
$GAGSV,2,2,07,30,39,276,42,34,55,309,46,36,51,051,39,7*48
$GAGSV,1,1,03,04,08,037,,25,00,174,,27,09,324,,0*43
$GBGSV,3,1,11,01,43,152,41,02,28,236,34,03,44,206,34,04,35,132,37,1*7F
$GBGSV,3,2,11,07,63,216,35,08,53,263,41,10,64,247,33,11,36,094,28,1*7A
$GBGSV,3,3,11,13,44,257,36,14,61,115,43,28,49,314,46,1*42
$GNRMC,044427.00,A,3727.0372421,N,12639.3908179,E,0.027,,220622,,,F,V*13
$GNVTG,,T,,M,0.027,N,0.050,K,D*38
$GNGNS,044427.00,3727.0372421,N,12639.3908179,E,FFFF,27,0.59,27.422,17.842,2.0,4095,V*05
$GNGSA,A,3,06,09,14,19,11,12,17,02,,,,,1.17,0.59,1.01,1*0F
$GNGSA,A,3,87,78,88,72,65,71,,,,,,,1.17,0.59,1.01,2*09
$GNGSA,A,3,02,05,34,30,36,,,,,,,,1.17,0.59,1.01,3*0E
$GNGSA,A,3,03,01,04,28,08,10,14,13,,,,,1.17,0.59,1.01,4*0D
$GPGSV,3,1,10,02,17,276,31,06,55,302,50,09,27,124,42,11,21,271,38,1*61
$GPGSV,3,2,10,12,16,318,37,14,22,186,30,17,73,099,40,19,75,349,42,1*63
$GPGSV,3,3,10,28,,,37,50,47,179,34,1*55
$GPGSV,2,1,06,06,55,302,41,09,27,124,40,11,21,271,33,12,16,318,36,6*67
$GPGSV,2,2,06,14,22,186,26,17,73,099,36,6*6C
$GLGSV,2,1,07,65,35,164,41,71,24,035,28,72,55,090,36,77,15,230,24,1*79
$GLGSV,2,2,07,78,25,287,28,87,55,021,41,88,34,316,42,1*4C
$GLGSV,2,1,06,65,35,164,29,71,24,035,20,72,55,090,33,78,25,287,31,3*7D
$GLGSV,2,2,06,79,07,335,20,88,34,316,39,3*7B
$GAGSV,2,1,07,02,32,211,34,05,27,144,39,09,33,084,40,18,58,308,49,2*7C
$GAGSV,2,2,07,30,39,276,43,34,55,309,46,36,51,051,38,2*4D
$GAGSV,2,1,07,02,32,21$GAGSV,2,2,07,30,39,276,42,34,55,309,46,36,51,051,39,7*48
$GAGSV,1,1,03,04,08,037,,25,00,174,,27,09,324,,0*43
$GBGSV,3,1,11,01,43,152,41,02,28,236,34,03,44,206,33,04,35,132,37,1*78
$GBGSV,3,2,11,07,63,216,35,08,53,263,41,10,64,247,33,11,36,094,28,1*7A
$GBGSV,3,3,11,13,44,257,38,14,61,115,43,28,49,314,47,1*4D
$GBGSV,2,1,07,01,43,152,41,03,44,206,39,07,63,216,42,08,53,263,41,3*75
$GBGSV,2,2,07,10,64,247,38,13,44,257,32,14,61,115,44,3*4E
$GBGSV,1,1,01,05,08,256,,0*4A
$GNRMC,044428.00,A,3727.0372515,N,12639.3908296,E,0.027,,220622,,,F,V*18
$GNVTG,,T,,M,0.027,N,0.050,K,D*38
$GNGNS,044428.00,3727.0372515,N,12639.3908296,E,FFFF,27,0.59,27.390,17.842,2.0,4095,V*00
$GNGGA,044428.00,3727.0372515,N,12639.3908296,E,5,12,0.59,27.390,M,17.842,M,2.0,4095*52
$GNGSA,A,3,06,09,14,19,11,12,17,02,,,,,1.17,0.59,1.01,1*0F
$GNGSA,A,3,87,78,88,72,65,71,,,,,,,1.17,0.59,1.01,2*09
$GNGSA,A,3,02,05,34,30,36,,,,,,,,1.17,0.59,1.01,3*0E
$GNGSA,A,3,03,01,04,28,08,10,14,13,,,,,1.17,0.59,1.01,4*0D
$GPGSV,3,1,10,02,17,276,30,06,55,302,50,09,27,124,43,11,21,271,38,1*61
$GPGSV,3,2,10,12,16,318,35,14,22,186,32,17,73,099,40,19,75,349,42,1*63
$GPGSV,3,3,10,28,,,37,50,47,179,34,1*55
$GPGSV,2,1,06,06,55,302,41,09,27,124,40,11,21,271,33,12,16,318,36,6*67
$GPGSV,2,2,06,14,22,186,26,17,73,099,36,6*6C
$GLGSV,2,1,07,65,35,164,41,71,24,035,32,72,55,090,37,77,15,230,25,1*72
$GLGSV,2,2,07,78,25,287,29,87,55,021,41,88,34,316,40,1*4F
$GLGSV,2,1,06,65,35,164,28,71,24,035,21,72,55,090,33,78,25,287,31,3*7D
$GLGSV,2,2,06,79,07,335,20,88,34,316,39,3*7B
$GAGSV,2,1,07,02,31,210,35,05,27,144,38,09,33,084,41,18,58,308,48,2*7E
$GAGSV,2,2,07,30,39,276,43,34,55,309,47,36,51,051,37,2*43
$GAGSV,2,1,07,02,31,210,39,05,27,144,36,09,33,084,40,18,58,308,47,7*77
$GAGSV,2,2,07,30,39,276,42,34,55,309,45,36,51,051,39,7*4B
$GAGSV,1,1,03,04,08,037,,25,00,174,,27,09,324,,0*43
$GBGSV,3,1,11,01,43,152,40,02,28,236,34,03,44,206,32,04,35,132,37,1*78
$GBGSV,3,2,11,07,63,216,35,08,53,263,41,10,64,247,33,11,36,094,27,1*75
$GBGSV,3,3,11,13,44,257,38,14,61,114,43,28,49,314,47,1*4C
$GBGSV,2,1,07,01,43,152,42,03,44,206,39,07,63,216,42,08,53,263,42,3*75
$GBGSV,2,2,07,10,64,247,38,13,44,257,32,14,61,114,44,3*4F
$GBGSV,1,1,01,05,08,256,,0*4A
$GNRMC,044429.00,A,3727.0372630,N,12639.3908416,E,0.021,,220622,,,F,V*15
$GNVTG,,T,,M,0.021,N,0.038,K,D*30
$GNGNS,044429.00,3727.0372630,N,12639.3908416,E,FFFF,27,0.59,27.349,17.842,2.0,4095,V*0F
$GNGGA,044429.00,3727.0372630,N,12639.3908416,E,5,12,0.59,27.349,M,17.842,M,2.0,4095*5D
$GNGSA,A,3,06,09,14,19,11,12,17,02,,,,,1.17,0.59,1.01,1*0F
$GNGSA,A,3,87,78,88,72,65,71,,,,,,,1.17,0.59,1.01,2*09
$GNGSA,A,3,02,05,34,30,36,,,,,,,,1.17,0.59,1.01,3*0E
$GNGSA,A,3,03,01,04,28,08,10,14,13,,,,,1.17,0.59,1.01,4*0D
$GPGSV,3,1,10,02,17,276,29,06,55,302,50,09,27,124,42,11,21,271,38,1*68
$GPGSV,3,2,10,12,16,318,37,14,22,186,33,17,73,099,40,19,75,349,42,1*60
$GPGSV,3,3,10,28,,,36,50,47,179,34,1*54
$GPGSV,2,1,06,06,55,302,41,09,27,124,40,11,21,271,32,12,16,318,36,6*66
$GPGSV,2,2,06,14,22,186,26,17,73,099,37,6*6D
$GLGSV,2,1,07,65,35,164,41,71,24,035,31,72,55,090,36,77,15,230,25,1*70
$GLGSV,2,2,07,78,25,287,29,87,55,021,41,88,34,316,41,1*4E
$GLGSV,2,1,06,65,35,164,28,71,24,035,21,72,55,090,33,78,25,287,31,3*7D
$GLGSV,2,2,06,79,07,335,20,88,34,316,39,3*7B
$GAGSV,2,1,08,02,31,210,35,05,27,144,38,09,33,084,40,18,58,308,48,2*70
$GAGSV,2,2,08,27,09,324,36,30,39,276,43,34,55,309,47,36,51,051,38,2*7F
$GAGSV,2,1,07,02,31,210,39,05,27,144,36,09,33,084,41,18,58,308,46,7*77
$GAGSV,2,2,07,30,39,276,41,34,55,309,45,36,51,051,39,7*48
$GAGSV,1,1,02,04,08,037,,25,00,174,,0*7B
$GBGSV,3,1,11,01,43,152,41,02,28,236,35,03,44,206,33,04,35,132,37,1*79
$GBGSV,3,2,11,07,63,216,35,08,53,263,41,10,64,247,33,11,36,094,26,1*74
$GBGSV,3,3,11,13,44,257,38,14,61,114,43,28,49,314,47,1*4C
$GBGSV,2,1,07,01,43,152,42,03,44,206,39,07,63,216,42,08,53,263,42,3*75
$GBGSV,2,2,07,10,64,247,38,13,44,257,32,14,61,114,44,3*4F
$GBGSV,1,1,01,05,08,256,,0*4A
$GNRMC,044430.00,A,3727.0372740,N,12639.3908521,E,0.036,,220622,,,F,V*18
$GNVTG,,T,,M,0.036,N,0.067,K,D*3C
$GNGNS,044430.00,3727.0372740,N,12639.3908521,E,FFFF,27,0.59,27.283,17.842,2.0,4095,V*03
$GNGGA,044430.00,3727.0372740,N,12639.3908521,E,5,12,0.59,27.283,M,17.842,M,2.0,4095*51
$GNGSA,A,3,06,09,14,19,11,12,17,02,,,,,1.17,0.59,1.01,1*0F
$GNGSA,A,3,87,78,88,72,65,71,,,,,,,1.17,0.59,1.01,2*09
$GNGSA,A,3,03,01,04,28,08,10,14,13,,,,,1.17,0.59,1.01,4*0D
$GPGSV,3,1,10,02,17,276,29,06,55,302,50,09,27,124,43,11,21,271,38,1*69
$GPGSV,3,2,10,12,16,318,34,14,22,186,33,17,73,099,41,19,75,349,42,1*62
$GPGSV,3,3,10,28,,,37,50,47,179,35,1*54
$GPGSV,2,1,06,06,55,302,41,09,27,124,40,11,21,271,32,12,16,318,35,6*65
$GPGSV,2,2,06,14,22,186,27,17,73,099,36,6*6D
$GLGSV,2,1,07,65,35,164,42,71,24,035,32,72,55,090,37,77,15,230,25,1*71
$GLGSV,2,2,07,78,25,287,29,87,55,021,41,88,34,316,37,1*4F
$GLGSV,2,1,06,65,35,164,27,71,24,035,20,72,55,090,33,78,25,287,30,3*72
$GLGSV,2,2,06,79,07,335,21,88,34,316,38,3*7B
$GAGSV,2,1,08,02,31,210,35,05,27,144,38,09,33,084,41,18,58,308,48,2*71
$GAGSV,2,2,08,27,09,324,35,30,39,276,43,34,55,309,46,36,51,051,37,2*72
$GAGSV,2,1,08,02,31,210,39,05,27,144,36,09,33,084,41,18,58,308,47,7*79
$GAGSV,2,2,08,27,09,324,34,30,39,276,41,34,55,309,45,36,51,051,39,7*79
$GAGSV,1,1,02,04,08,037,,25,00,174,,0*7B
$GBGSV,3,1,11,01,43,152,41,0$GNRMC,044431.00,A,3727.0372802,N,12639.3908587,E,0.033,,220622,,,F,V*19
$GNVTG,,T,,M,0.033,N,0.060,K,D*3E
$GNGNS,044431.00,3727.0372802,N,12639.3908587,E,FFFF,27,0.59,27.242,17.842,2.0,4095,V*0A
$GNGGA,044431.00,3727.0372802,N,12639.3908587,E,5,12,0.59,27.242,M,17.842,M,2.0,4095*58
$GNGSA,A,3,06,09,14,19,11,12,17,02,,,,,1.17,0.59,1.01,1*0F
$GNGSA,A,3,87,78,88,72,65,71,,,,,,,1.17,0.59,1.01,2*09
$GNGSA,A,3,02,05,34,30,36,,,,,,,,1.17,0.59,1.01,3*0E
$GNGSA,A,3,03,01,04,28,08,10,14,13,,,,,1.17,0.59,1.01,4*0D
$GPGSV,3,1,10,02,17,276,28,06,55,302,50,09,27,124,42,11,21,271,37,1*66
$GPGSV,3,2,10,12,16,318,36,14,22,186,34,17,73,099,42,19,75,349,42,1*64
$GPGSV,3,3,10,28,,,37,50,47,179,34,1*55
$GPGSV,2,1,06,06,55,302,41,09,27,124,40,11,21,271,34,12,16,318,35,6*63
$GPGSV,2,2,06,14,22,186,29,17,73,099,36,6*63
$GLGSV,2,1,07,65,35,164,42,71,24,035,32,72,55,090,39,77,15,230,24,1*7E
$GLGSV,2,2,07,78,25,287,30,87,55,021,41,88,34,316,38,1*48
$GLGSV,2,1,06,65,35,164,26,71,24,035,20,72,55,090,33,78,25,287,29,3*7B
$GLGSV,2,2,06,79,07,335,21,88,34,316,36,3*75
$GAGSV,2,1,08,02,31,210,31,05,27,144,38,09,33,084,41,18,58,308,49,2*74
$GAGSV,2,2,08,27,09,324,34,30,39,276,44,34,55,309,47,36,51,051,37,2*75
$GAGSV,2,1,08,02,31,210,39,05,27,144,36,09,33,084,40,18,58,308,47,7*78
$GAGSV,2,2,08,27,09,324,34,30,39,276,41,34,55,309,45,36,51,051,39,7*79
$GAGSV,1,1,02,04,08,037,,25,00,174,,0*7B
$GBGSV,3,1,11,01,43,152,41,02,28,236,35,03,44,206,33,04,35,132,36,1*78
$GBGSV,3,2,11,07,63,216,36,08,53,263,41,10,64,247,35,11,36,094,23,1*74
$GBGSV,3,3,11,13,44,257,40,14,61,114,42,28,49,314,46,1*43
$GBGSV,2,1,07,01,43,152,40,03,44,206,39,07,63,216,42,08,53,263,41,3*74
$GBGSV,2,2,07,10,64,247,39,13,44,257,36,14,61,114,44,3*4A
$GBGSV,1,1,01,05,08,256,,0*4A
$GNRMC,044432.00,A,3727.0372886,N,12639.3908695,E,0.010,,220622,,,F,V*17
$GNVTG,,T,,M,0.010,N,0.019,K,D*31
$GNGNS,044432.00,3727.0372886,N,12639.3908695,E,FFFF,27,0.59,27.224,17.842,2.0,4095,V*05
$GNGGA,044432.00,3727.0372886,N,12639.3908695,E,5,12,0.59,27.224,M,17.842,M,2.0,4095*57
$GNGSA,A,3,06,09,14,19,11,12,17,02,,,,,1.17,0.59,1.01,1*0F
$GNGSA,A,3,87,78,88,72,65,71,,,,,,,1.17,0.59,1.01,2*09
$GNGSA,A,3,02,05,34,30,36,,,,,,,,1.17,0.59,1.01,3*0E
$GNGSA,A,3,03,01,04,28,08,10,14,13,,,,,1.17,0.59,1.01,4*0D
$GPGSV,3,1,10,02,17,276,27,06,55,302,50,09,27,124,42,11,21,271,37,1*69
$GPGSV,3,2,10,12,16,318,37,14,22,186,35,17,73,099,42,19,75,349,42,1*64
$GPGSV,3,3,10,28,,,38,50,47,179,34,1*5A
$GPGSV,2,1,06,06,55,302,41,09,27,124,40,11,21,271,34,12,16,318,36,6*60
$GPGSV,2,2,06,14,22,186,28,17,73,099,36,6*62
$GLGSV,2,1,07,65,35,164,42,71,24,035,32,72,55,090,37,77,15,230,22,1*76
$GLGSV,2,2,07,78,25,287,32,87,55,021,41,88,34,316,35,1*47
$GLGSV,2,1,06,65,35,164,27,71,24,035,19,72,55,090,33,78,25,287,28,3*71
$GLGSV,2,2,06,79,07,335,21,88,34,316,36,3*75
$GAGSV,2,1,08,02,31,210,30,05,27,144,38,09,33,084,41,18,58,308,49,2*75
$GAGSV,2,2,08,27,09,324,35,30,39,276,43,34,55,309,47,36,51,051,36,2*72
$GAGSV,2,1,08,02,31,210,40,05,27,144,35,09,33,084,40,18,58,308,47,7*75
$GAGSV,2,2,08,27,09,324,35,30,39,276,41,34,55,309,45,36,51,051,39,7*78
$GAGSV,1,1,02,04,08,037,,25,00,174,,0*7B
$GBGSV,3,1,11,01,43,152,41,02,28,236,34,03,44,206,33,04,35,132,36,1*79
$GBGSV,3,2,11,07,63,216,36,08,53,263,41,10,64,247,34,11,36,094,21,1*77
$GNRMC,044433.00,A,3727.0372922,N,12639.3908821,E,0.010,,220622,,,F,V*18
$GNVTG,,T,,M,0.010,N,0.019,K,D*31
$GNGNS,044433.00,3727.0372922,N,12639.3908821,E,FFFF,27,0.59,27.196,17.842,1.0,4095,V*03
$GNGGA,044433.00,3727.0372922,N,12639.3908821,E,5,12,0.59,27.196,M,17.842,M,1.0,4095*51
$GNGSA,A,3,06,09,14,19,11,12,17,02,,,,,1.17,0.59,1.01,1*0F
$GNGSA,A,3,87,78,88,72,65,71,,,,,,,1.17,0.59,1.01,2*09
$GNGSA,A,3,02,05,34,30,36,,,,,,,,1.17,0.59,1.01,3*0E
$GNGSA,A,3,03,01,04,28,08,10,14,13,,,,,1.17,0.59,1.01,4*0D
$GPGSV,3,1,10,02,17,276,28,06,55,302,50,09,27,124,41,11,21,271,38,1*6A
$GPGSV,3,2,10,12,16,318,31,14,22,186,33,17,73,099,42,19,75,349,43,1*65
$GPGSV,3,3,10,28,,,39,50,47,179,34,1*5B
$GPGSV,2,1,06,06,55,302,41,09,27,124,40,11,21,271,33,12,16,318,35,6*64
$GPGSV,2,2,06,14,22,186,30,17,73,099,35,6*68
$GLGSV,2,1,07,65,35,164,42,71,24,035,31,72,55,090,37,77,15,230,21,1*76
$GLGSV,2,2,07,78,25,287,26,87,55,021,41,88,34,316,32,1*45
$GLGSV,2,1,06,65,35,164,26,71,24,035,19,72,55,090,32,78,25,287,27,3*7E
$GLGSV,2,2,06,79,07,335,20,88,34,316,34,3*76
$GAGSV,2,1,08,02,31,210,34,05,27,144,37,09,33,084,40,18,58,308,48,2*7E
$GAGSV,2,2,08,27,09,324,34,30,39,276,43,34,55,309,46,36,51,051,36,2*72
$GAGSV,2,1,08,02,31,210,40,05,27,144,35,09,33,084,40,18,58,308,48,7*7A
$GAGSV,2,2,08,27,09,324,34,30,39,276,41,34,55,309,45,36,51,051,39,7*79
$GAGSV,1,1,02,04,08,037,,25,00,174,,0*7B
$GBGSV,3,1,11,01,43,152,41,02,28,236,35,03,44,206,33,04,35,132,36,1*78
$GBGSV,3,2,11,07,63,216,36,08,53,263,41,10,64,247,34,11,36,094,19,1*7C
$GBGSV,3,3,11,13,44,257,40,14,61,114,42,28,49,314,46,1*43
$GBGSV,2,1,07,01,43,152,40,03,44,206,38,07,63,216,42,08,53,263,41,3*75
$GBGSV,2,2,07,10,64,247,38,13,44,257,36,14,61,114,42,3*4D
$GBGSV,1,1,01,05,08,256,,0*4A
$GNRMC,044434.00,A,3727.0372942,N,12639.3908928,E,0.012,,220622,,,F,V*13
$GNVTG,,T,,M,0.012,N,0.022,K,D*3B
$GNGNS,044434.00,3727.0372942,N,12639.3908928,E,FFFF,27,0.59,27.175,17.842,2.0,4095,V*04
$GNGGA,044434.00,3727.0372942,N,12639.3908928,E,5,12,0.59,27.175,M,17.842,M,2.0,4095*56
$GNGSA,A,3,06,09,14,19,11,12,17,02,,,,,1.17,0.59,1.01,1*0F
$GNGSA,A,3,87,78,88,72,65,71,,,,,,,1.17,0.59,1.01,2*09
$GNGSA,A,3,02,05,34,30,36,,,,,,,,1.17,0.59,1.01,3*0E
$GNGSA,A,3,03,01,04,28,08,10,14,13,,,,,1.17,0.59,1.01,4*0D
$GPGSV,3,1,10,02,17,276,29,06,55,302,50,09,27,124,42,11,21,271,38,1*68
$GPGSV,3,2,10,12,16,318,35,14,22,186,33,17,73,099,42,19,75,349,43,1*61
$GPGSV,3,3,10,28,,,39,50,47,179,33,1*5C
$GPGSV,2,1,06,06,55,302,41,09,27,124,40,11,21,271,33,12,16,318,35,6*64
$GPGSV,2,2,06,14,22,186,31,17,73,099,36,6*6A
$GLGSV,2,1,07,65,35,164,43,71,24,035,31,72,55,090,34,77,15,230,22,1*77
$GLGSV,2,2,07,78,25,287,28,87,55,021,41,88,34,316,30,1*49
$GLGSV,2,1,06,65,35,164,26,71,24,035,19,72,55,090,32,78,25,287,28,3*71
$GLGSV,2,2,06,79,07,335,20,88,34,316,33,3*71
$GAGSV,2,1,08,02,31,210,33,05,27,144,37,09,33,084,40,18,59,308,48,2*78
$GAGSV,2,2,08,27,09,324,35,30,39,276,43,34,55,309,46,36,51,051,37,2*72
$GAGSV,2,1,08,02,31,210,40,05,27,144,35,09,33,084,41,18,59,308,47,7*75
$GAGSV,2,2,08,27,09,324,33,30,39,276,41,34,55,309,45,36,51,051,39,7*7E
$GAGSV,1,1,02,04,08,037,,25,00,174,,0*7B
$GBGSV,3,1,11,01,43,152,40,02,28,236,34,03,44,206,33,04,35,132,36,1*78
$GBGSV,3,2,11,07,63,216,35,08,53,263,41,10,64,247,33,11,36,094,18,1*79
$GBGSV,3,3,11,13,44,257,39,14,61,114,42,28,49,314,47,1*4C
$GBGSV,2,1,07,01,43,152,40,03,44,206,38,07,63,216,42,08,53,263,42,3*76
$GBGSV,2,2,07,10,64,247,39,13,44,257,36,14,61,114,44,3*4A
$GNRMC,044435.00,A,3727.0372985,N,12639.3909016,E,0.033,,220622,,,F,V*1F
$GNVTG,,T,,M,0.033,N,0.060,K,D*3E
$GNGNS,044435.00,3727.0372985,N,12639.3909016,E,FFFF,27,0.59,27.142,17.842,2.0,4095,V*0F
$GNGGA,044435.00,3727.0372985,N,12639.3909016,E,5,12,0.59,27.142,M,17.842,M,2.0,4095*5D
$GNGSA,A,3,06,09,14,19,11,12,17,02,,,,,1.17,0.59,1.01,1*0F
$GNGSA,A,3,87,78,88,72,65,71,,,,,,,1.17,0.59,1.01,2*09
$GNGSA,A,3,02,05,34,30,36,,,,,,,,1.17,0.59,1.01,3*0E
$GNGSA,A,3,03,01,04,28,08,10,14,13,,,,,1.17,0.59,1.01,4*0D
$GPGSV,3,1,10,02,17,276,27,06,55,302,50,09,27,124,42,11,21,271,38,1*66
$GPGSV,3,2,10,12,16,318,35,14,22,186,34,17,73,099,42,19,75,349,42,1*67
$GPGSV,3,3,10,28,,,38,50,47,179,33,1*5D
$GPGSV,2,1,06,06,55,302,41,09,27,124,40,11,21,271,33,12,16,318,35,6*64
$GPGSV,2,2,06,14,22,186,31,17,73,099,36,6*6A
$GLGSV,2,1,07,65,35,164,43,71,24,035,29,72,55,090,34,77,15,230,22,1*7E
$GLGSV,2,2,07,78,25,287,29,87,55,021,41,88,34,316,30,1*48
$GLGSV,2,1,06,65,35,164,25,71,24,035,18,72,55,090,33,78,25,287,29,3*73
$GLGSV,2,2,06,79,07,335,19,88,34,316,33,3*7B
$GAGSV,2,1,08,02,31,210,33,05,27,144,37,09,33,084,39,18,59,308,48,2*76
$GAGSV,2,2,08,27,09,324,35,30,39,276,43,34,55,309,47,36,51,051,37,2*73
$GAGSV,2,1,08,02,31,210,40,05,27,144,36,09,33,084,41,18,59,308,47,7*76
$GAGSV,2,2,08,27,09,324,33,30,39,276,42,34,55,309,45,36,51,051,39,7*7D
$GAGSV,1,1,02,04,08,037,,25,00,174,,0*7B
$GBGSV,3,1,11,01,43,152,40,02,28,236,33,03,44,206,33,04,35,132,37,1*7E
$GBGSV,3,2,11,07,63,216,35,08,53,263,40,10,64,247,31,11,36,094,16,1*74
$GBGSV,3,3,11,13,44,257,37,14,61,114,42,28,49,314,46,1*43
$GBGSV,2,1,07,01,43,152,41,03,44,206,38,07,63,216,42,08,53,263,41,3*74
$GBGSV,2,2,07,10,64,247,38,13,44,257,34,14,61,114,44,3*49
$GBGSV,1,1,01,05,08,256,,0*4A
$GNRMC,044436.00,A,3727.0372948,N,12639.3909023,E,0.033,,220622,,,F,V*1B
$GNGNS,044436.00,3727.0372948,N,12639.3909023,E,FFFF,27,0.59,27.150,17.842,2.0,4095,V*08
$GNGGA,044436.00,3727.0372948,N,12639.3909023,E,5,12,0.59,27.150,M,17.842,M,2.0,4095*5A
$GNGSA,A,3,06,09,14,19,11,12,17,02,,,,,1.17,0.59,1.01,1*0F
$GNGSA,A,3,87,78,88,72,65,71,,,,,,,1.17,0.59,1.01,2*09
$GNGSA,A,3,02,05,34,30,36,,,,,,,,1.17,0.59,1.01,3*0E
$GPGSV,3,1,10,02,17,276,27,06,55,302,49,09,27,124,42,11,21,271,39,1*6F
$GPGSV,3,2,10,12,16,318,37,14,22,186,37,17,73,099,42,19,75,349,42,1*66
$GPGSV,3,3,10,28,,,38,50,47,179,33,1*5D
$GPGSV,2,1,06,06,55,302,41,09,27,124,41,11,21,271,33,12,16,318,35,6*65
$GPGSV,2,2,06,14,22,186,28,17,73,099,37,6*63
$GLGSV,2,1,07,65,35,164,44,71,24,035,27,72,55,090,34,77,15,230,22,1*77
$GLGSV,2,2,07,78,25,287,29,87,55,021,41,88,34,316,31,1*49
$GLGSV,2,1,06,65,35,164,25,71,24,035,16,72,55,090,32,78,25,287,29,3*7C
$GLGSV,2,2,06,79,07,335,19,88,34,316,33,3*7B
$GAGSV,2,1,08,02,31,210,32,05,27,144,38,09,33,084,39,18,59,308,48,2*78
$GAGSV,2,2,08,27,09,324,35,30,39,276,43,34,55,309,47,36,51,051,37,2*73
$GAGSV,2,1,08,02,31,210,39,05,27,144,35,09,33,084,41,18,59,308,46,7*7A
$GAGSV,2,2,08,27,09,324,35,30,39,276,42,34,55,309,45,36,51,051,38,7*7A
$GAGSV,1,1,02,04,08,037,,25,00,174,,0*7B
$GBGSV,3,1,11,01,43,152,41,02,28,236,34,03,44,206,33,04,35,132,38,1*77
$GNRMC,044437.00,A,3727.0372976,N,12639.3909002,E,0.029,,220622,,,F,V*1F
$GNVTG,,T,,M,0.029,N,0.053,K,D*35
$GNGNS,044437.00,3727.0372976,N,12639.3909002,E,FFFF,27,0.59,27.133,17.842,2.0,4095,V*02
$GNGGA,044437.00,3727.0372976,N,12639.3909002,E,5,12,0.59,27.133,M,17.842,M,2.0,4095*50
$GNGSA,A,3,06,09,14,19,11,12,17,02,,,,,1.17,0.59,1.01,1*0F
$GNGSA,A,3,87,78,88,72,65,71,,,,,,,1.17,0.59,1.01,2*09
$GNGSA,A,3,02,05,34,30,36,,,,,,,,1.17,0.59,1.01,3*0E
$GNGSA,A,3,03,01,04,28,08,10,14,13,,,,,1.17,0.59,1.01,4*0D
$GPGSV,3,1,10,02,17,276,27,06,55,302,50,09,27,124,43,11,21,271,39,1*66
$GPGSV,3,2,10,12,16,318,38,14,22,186,37,17,73,099,42,19,75,349,42,1*69
$GPGSV,3,3,10,28,,,37,50,47,179,33,1*52
$GPGSV,2,1,06,06,55,302,42,09,27,124,41,11,21,271,34,12,16,318,34,6*60
$GPGSV,2,2,06,14,22,186,28,17,73,099,37,6*63
$GLGSV,2,1,07,65,35,164,43,71,24,035,26,72,55,090,34,77,15,230,20,1*73
$GLGSV,2,2,07,78,25,287,29,87,55,021,41,88,34,316,36,1*4E
$GLGSV,2,1,06,65,35,164,25,71,24,035,15,72,55,090,32,78,25,287,29,3*7F
$GLGSV,2,2,06,79,07,335,21,88,34,316,35,3*76
$GAGSV,2,1,08,02,31,210,31,05,27,144,38,09,33,084,39,18,59,308,48,2*7B
$GAGSV,2,2,08,27,09,324,34,30,39,276,43,34,55,309,47,36,51,051,37,2*72
$GAGSV,2,1,08,02,31,210,39,05,27,144,36,09,33,084,40,18,59,308,46,7*78
$GAGSV,2,2,08,27,09,324,35,30,39,276,41,34,55,309,45,36,51,051,38,7*79
$GAGSV,1,1,02,04,08,037,,25,00,174,,0*7B
$GBGSV,3,1,11,01,43,152,41,02,28,236,34,03,44,206,33,04,35,132,37,1*78
$GBGSV,3,2,11,07,63,216,34,08,53,263,40,10,64,247,30,11,36,094,16,1*74
$GBGSV,3,3,11,13,44,257,38,14,61,114,42,28,49,314,46,1*4C
$GBGSV,2,1,08,01,43,152,41,03,44,206,38,07,63,216,43,08,53,263,41,3*7A
$GBGSV,2,2,08,10,64,247,39,11,36,094,26,13,44,257,35,14,61,114,44,3*7A
$GBGSV,1,1,01,05,08,256,,0*4A
$GNRMC,044438.00,A,3727.0373026,N,12639.3909027,E,0.031,,220622,,,F,V*13
$GNVTG,,T,,M,0.031,N,0.057,K,D*38
$GNGNS,044438.00,3727.0373026,N,12639.3909027,E,FFFF,27,0.59,27.100,17.842,2.0,4095,V*07
$GNGGA,044438.00,3727.0373026,N,12639.3909027,E,5,12,0.59,27.100,M,17.842,M,2.0,4095*55
$GNGSA,A,3,06,09,14,19,11,12,17,02,,,,,1.17,0.59,1.01,1*0F
$GNGSA,A,3,87,78,88,72,65,71,,,,,,,1.17,0.59,1.01,2*09
$GNGSA,A,3,02,05,34,30,36,,,,,,,,1.17,0.59,1.01,3*0E
$GNGSA,A,3,03,01,04,28,08,10,14,13,,,,,1.17,0.59,1.01,4*0D
$GPGSV,3,1,10,02,17,276,27,06,55,302,49,09,27,124,43,11,21,271,39,1*6E
$GPGSV,3,2,10,12,16,318,36,14,22,186,37,17,73,099,42,19,75,349,42,1*67
$GPGSV,3,3,10,28,,,37,50,47,179,34,1*55
$GPGSV,2,1,06,06,55,302,41,09,27,124,41,11,21,271,33,12,16,318,34,6*64
$GPGSV,2,2,06,14,22,186,28,17,73,099,36,6*62
$GLGSV,2,1,07,65,35,164,44,71,24,035,26,72,55,090,34,77,15,230,19,1*7E
$GLGSV,2,2,07,78,25,287,28,87,55,021,41,88,34,316,39,1*40
$GLGSV,2,1,06,65,35,164,25,71,24,035,15,72,55,090,33,78,25,287,28,3*7F
$GLGSV,2,2,06,79,07,335,21,88,34,316,35,3*76
$GAGSV,2,1,08,02,31,210,32,05,27,144,38,09,33,084,39,18,59,308,48,2*78
$GAGSV,2,2,08,27,09,324,34,30,39,276,43,34,55,309,47,36,51,051,38,2*7D
$GAGSV,2,1,08,02,31,210,38,05,27,144,35,09,33,084,41,18,59,308,46,7*7B
$GAGSV,2,2,08,27,09,324,34,30,39,276,40,34,55,309,45,36,51,051,38,7*79
$GAGSV,1,1,02,04,08,037,,25,00,174,,0*7B
$GBGSV,3,1,11,01,43,152,41,02,28,236,34,03,44,206,32,04,35,132,38,1*76
$GBGSV,3,2,11,07,63,216,34,08,53,263,40,10,64,247,31,11,36,094,16,1*75
$GBGSV,3,3,11,13,44,257,38,14,61,114,43,28,49,314,47,1*4C
$GBGSV,2,1,07,01,43,152,41,03,44,206,38,07,63,216,42,08,53,263,40,3*75
$GBGSV,2,2,07,10,64,247,39,13,44,257,33,14,61,114,43,3*48
$GBGSV,1,1,01,05,08,256,,0*4A
$GNRMC,044439.00,A,3727.0373087,N,12639.3909023,E,0.029,,220622,,,F,V*14
$GNVTG,,T,,M,0.029,N,0.054,K,D*32
$GNGNS,044439.00,3727.0373087,N,12639.3909023,E,FFFF,27,0.59,27.061,17.842,2.0,4095,V*0F
$GNGGA,044439.00,3727.0373087,N,12639.3909023,E,5,12,0.59,27.061,M,17.842,M,2.0,4095*5D
$GNGSA,A,3,06,09,14,19,11,12,17,02,,,,,1.17,0.59,1.01,1*0F
$GNGSA,A,3,87,78,88,72,65,71,,,,,,,1.17,0.59,1.01,2*09
$GNGSA,A,3,02,05,34,30,36,,,,,,,,1.17,0.59,1.01,3*0E
$GNGSA,A,3,03,01,04,28,08,10,14,13,,,,,1.17,0.59,1.01,4*0D
$GPGSV,3,1,10,02,17,276,27,06,55,302,49,09,27,124,42,11,21,271,38,1*6E
$GPGSV,3,2,10,12,16,318,36,14,22,186,37,17,73,099,42,19,75,349,42,1*67
$GPGSV,3,3,10,28,,,37,50,47,179,34,1*55
$GPGSV,2,1,06,06,55,302,41,09,27,124,41,11,21,271,32,12,16,318,34,6*65
$GPGSV,2,2,06,14,22,186,28,17,73,099,37,6*63
$GLGSV,2,1,07,65,35,164,44,71,24,035,26,72,55,090,32,77,15,230,18,1*79
$GLGSV,2,2,07,78,25,287,29,87,55,021,41,88,34,316,39,1*41
$GLGSV,2,1,06,65,35,164,24,71,24,035,17,72,55,090,33,78,25,287,29,3*7D
$GLGSV,2,2,06,79,07,335,21,88,34,316,37,3*74
$GAGSV,2,1,08,02,31,210,34,05,27,144,37,09,33,084,39,18,59,308,48,2*71
$GAGSV,2,2,08,27,09,324,34,30,39,275,43,34,55,309,47,36,51,051,38,2*7E
$GAGSV,2,1,08,02,31,210,39,05,27,144,36,09,33,084,41,18,59,308,47,7*78
$GAGSV,2,2,08,27,09,324,34,30,39,275,40,34,55,309,45,36,51,051,37,7*75
$GAGSV,1,1,02,04,08,037,,25,00,174,,0*7B
$GBGSV,3,1,11,01,43,152,41,02,28,236,33,03,44,206,32,04,35,132,38,1*71
$GBGSV,3,2,11,07,63,216,33,08,53,263,40,10,64,247,32,11,36,094,16,1*71
$GBGSV,3,3,11,13,44,257,38,14,61,114,42,28,49,314,47,1*4D
$GBGSV,2,1,07,01,43,152,41,03,44,206,38,07,63,216,43,08,53,263,41,3*75
$GBGSV,2,2,07,10,64,247,39,13,44,257,32,14,61,114,43,3*49
$GBGSV,1,1,01,05,08,256,,0*4A
$GNRMC,044440.00,A,3727.0373163,N,12639.3909048,E,0.027,,220622,,,F,V*12
$GNVTG,,T,,M,0.027,N,0.051,K,D*39
$GNGNS,044440.00,3727.0373163,N,12639.3909048,E,FFFF,27,0.59,27.036,17.842,2.0,4095,V*05
$GNGGA,044440.00,3727.0373163,N,12639.3909048,E,5,12,0.59,27.036,M,17.842,M,2.0,4095*57
$GNGSA,A,3,06,09,14,19,11,12,17,02,,,,,1.17,0.59,1.01,1*0F
$GNGSA,A,3,87,78,88,72,65,71,,,,,,,1.17,0.59,1.01,2*09
$GNGSA,A,3,02,05,34,30,36,,,,,,,,1.17,0.59,1.01,3*0E
$GNGSA,A,3,03,01,04,28,08,10,14,13,,,,,1.17,0.59,1.01,4*0D
$GPGSV,3,1,09,02,17,276,27,06,55,302,50,09,27,124,43,11,21,271,39,1*6E
$GPGSV,3,2,09,12,16,318,38,14,22,186,37,17,73,099,42,19,75,349,41,1*62
$GPGSV,3,3,09,28,,,37,1*63
$GPGSV,2,1,06,06,55,302,42,09,27,124,41,11,21,271,32,12,16,318,34,6*66
$GPGSV,2,2,06,14,22,186,30,17,73,099,37,6*6A
$GPGSV,1,1,01,50,47,179,,0*5D
$GLGSV,2,1,07,65,35,164,44,71,24,035,26,72,55,090,33,77,15,230,17,1*77
$GLGSV,2,2,07,78,25,287,29,87,55,021,41,88,34,316,40,1*4F
$GLGSV,2,1,06,65,35,164,23,71,24,035,16,72,55,090,33,78,25,287,29,3*7B
$GLGSV,2,2,06,79,07,335,21,88,34,316,37,3*74
$GAGSV,2,1,08,02,31,210,33,05,27,144,37,09,33,084,39,18,59,308,49,2*77
$GAGSV,2,2,08,27,09,324,34,30,39,275,43,34,55,310,47,36,51,051,38,2*76
$GAGSV,2,1,08,02,31,210,39,05,27,144,35,09,33,084,41,18,59,308,46,7*7A
$GAGSV,2,2,08,27,09,324,33,30,39,275,41,34,55,310,45,36,51,051,37,7*7B
$GAGSV,1,1,02,04,08,037,,25,00,174,,0*7B
$GBGSV,3,1,11,01,43,152,40,02,28,236,34,03,44,206,32,04,35,132,38,1*77
$GBGSV,3,2,11,07,63,216,33,08,53,263,40,10,64,247,32,11,36,094,19,1*7E
$GBGSV,3,3,11,13,44,257,39,14,61,114,42,28,49,314,47,1*4C
$GBGSV,2,1,07,01,43,152,41,03,44,206,38,07,63,216,43,08,53,263,41,3*75
$GNRMC,044441.00,A,3727.0373199,N,12639.3909036,E,0.030,,220622,,,F,V*19
$GNVTG,,T,,M,0.030,N,0.055,K,D*3B
$GNGNS,044441.00,3727.0373199,N,12639.3909036,E,FFFF,27,0.59,27.001,17.842,2.0,4095,V*0C
$GNGGA,044441.00,3727.0373199,N,12639.3909036,E,5,12,0.59,27.001,M,17.842,M,2.0,4095*5E
$GNGSA,A,3,06,09,14,19,11,12,17,02,,,,,1.17,0.59,1.01,1*0F
$GNGSA,A,3,87,78,88,72,65,71,,,,,,,1.17,0.59,1.01,2*09
$GNGSA,A,3,02,05,34,30,36,,,,,,,,1.17,0.59,1.01,3*0E
$GNGSA,A,3,03,01,04,28,08,10,14,13,,,,,1.17,0.59,1.01,4*0D
$GPGSV,3,1,09,02,17,276,26,06,55,302,50,09,27,124,43,11,21,271,39,1*6F
$GPGSV,3,2,09,12,16,318,36,14,22,186,37,17,73,099,42,19,75,349,42,1*6F
$GPGSV,3,3,09,28,,,37,1*63
$GPGSV,2,1,06,06,55,302,42,09,27,124,40,11,21,271,31,12,16,318,34,6*64
$GPGSV,2,2,06,14,22,186,31,17,73,099,36,6*6A
$GPGSV,1,1,01,50,47,179,,0*5D
$GLGSV,2,1,07,65,35,164,44,71,24,035,24,72,55,090,35,77,15,230,16,1*72
$GLGSV,2,2,07,78,25,287,28,87,55,021,40,88,34,316,39,1*41
$GLGSV,2,1,06,65,35,164,21,71,24,035,15,72,55,090,33,78,25,287,29,3*7A
$GLGSV,2,2,06,79,07,335,20,88,34,316,38,3*7A
$GAGSV,2,1,08,02,31,210,33,05,27,144,38,09,33,084,39,18,59,308,49,2*78
$GAGSV,2,2,08,27,09,324,34,30,39,275,43,34,55,310,47,36,51,051,38,2*76
$GAGSV,2,1,08,02,31,210,39,05,27,144,35,09,33,084,41,18,59,308,46,7*7A
$GAGSV,2,2,08,27,09,324,34,30,39,275,41,34,55,310,45,36,51,051,38,7*73
$GAGSV,1,1,02,04,08,037,,25,00,174,,0*7B
$GBGSV,3,1,11,01,43,152,40,02,28,236,34,03,44,206,32,04,35,132,38,1*77
$GBGSV,3,2,11,07,63,216,33,08,53,263,40,10,64,247,32,11,36,094,20,1*74
$GBGSV,3,3,11,13,44,257,39,14,61,114,42,28,49,314,47,1*4C
$GBGSV,2,1,07,01,43,152,41,03,44,206,38,07,63,216,42,08,53,263,41,3*74
$GBGSV,2,2,07,10,64,247,39,13,44,257,34,14,61,114,43,3*4F
$GBGSV,1,1,01,05,08,256,,0*4A
$GNRMC,044442.00,A,3727.0374572,N,12639.3911612,E,0.057,,220622,,,R,V*00
$GNVTG,,T,,M,0.057,N,0.106,K,D*3D
$GNGNS,044442.00,3727.0374572,N,12639.3911612,E,RRRR,27,0.64,25.961,17.842,2.0,4095,V*03
$GNGGA,044442.00,3727.0374572,N,12639.3911612,E,4,12,0.64,25.961,M,17.842,M,2.0,4095*50
$GNGSA,A,3,87,78,88,72,65,,,,,,,,1.24,0.64,1.07,2*07
$GNGSA,A,3,02,05,34,30,09,36,,,,,,,1.24,0.64,1.07,3*0F
$GNGSA,A,3,03,01,04,28,08,10,14,13,,,,,1.24,0.64,1.07,4*05
$GPGSV,3,1,09,02,17,276,26,06,55,302,49,09,27,124,43,11,21,271,39,1*67
$GPGSV,3,2,09,12,16,318,36,14,22,186,36,17,73,099,42,19,75,349,42,1*6E
$GPGSV,3,3,09,28,,,38,1*6C
$GPGSV,2,1,06,06,55,302,42,09,27,124,40,11,21,271,30,12,16,318,34,6*65
$GPGSV,2,2,06,14,22,186,32,17,73,099,36,6*69
$GPGSV,1,1,01,50,47,179,,0*5D
$GLGSV,2,1,07,65,35,164,44,71,24,035,25,72,55,090,34,77,15,230,17,1*73
$GLGSV,2,2,07,78,25,287,29,87,55,021,40,88,34,316,38,1*41
$GLGSV,2,1,06,65,35,164,21,71,24,035,14,72,55,090,33,78,25,287,28,3*7A
$GLGSV,2,2,06,79,07,335,19,88,34,316,38,3*70
$GAGSV,2,1,08,02,31,210,32,05,27,144,37,09,33,084,39,18,59,308,48,2*77
$GAGSV,2,2,08,27,09,324,33,30,39,275,43,34,55,310,47,36,51,051,38,2*71
$GAGSV,2,1,08,02,31,210,40,05,27,144,35,09,33,084,40,18,59,308,47,7*74
$GAGSV,2,2,08,27,09,324,34,30,39,275,41,34,55,310,45,36,51,051,38,7*73
$GAGSV,1,1,02,04,08,037,,25,00,174,,0*7B
$GBGSV,3,1,11,01,43,152,40,02,28,236,33,03,44,206,33,04,35,132,37,1*7E
$GBGSV,3,2,11,07,63,216,33,08,53,263,40,10,64,247,32,11,36,094,19,1*7E
$GBGSV,3,3,11,13,44,257,39,14,61,114,42,28,49,314,47,1*4C
$GBGSV,2,1,07,01,43,152,41,03,44,206,38,07,63,216,42,08,53,263,42,3*77
$GBGSV,2,2,07,10,64,247,40,13,44,257,35,14,61,114,43,3*40
$GBGSV,1,1,01,05,08,256,,0*4A
$GNRMC,044443.00,A,3727.0374598,N,12639.3911625,E,0.045,,220622,,,R,V*02
$GNVTG,,T,,M,0.045,N,0.083,K,D*32
$GNGNS,044443.00,3727.0374598,N,12639.3911625,E,RRRR,27,0.64,25.960,17.842,1.0,4095,V*00
$GNGGA,044443.00,3727.0374598,N,12639.3911625,E,4,12,0.64,25.960,M,17.842,M,1.0,4095*53
$GNGSA,A,3,06,09,14,19,11,12,17,02,,,,,1.24,0.64,1.07,1*07
$GNGSA,A,3,87,78,88,72,65,,,,,,,,1.24,0.64,1.07,2*07
$GNGSA,A,3,02,05,34,30,09,36,,,,,,,1.24,0.64,1.07,3*0F
$GNGSA,A,3,03,01,04,28,08,10,14,13,,,,,1.24,0.64,1.07,4*05
$GPGSV,3,1,09,02,17,276,26,06,55,302,49,09,27,124,43,11,21,271,39,1*67
$GPGSV,3,2,09,12,16,318,35,14,22,186,37,17,73,099,42,19,75,349,42,1*6C
$GPGSV,3,3,09,28,,,38,1*6C
$GPGSV,2,1,06,06,55,302,42,09,27,124,41,11,21,271,30,12,16,318,34,6*64
$GPGSV,2,2,06,14,22,186,32,17,73,099,36,6*69
$GPGSV,1,1,01,50,47,179,,0*5D
$GLGSV,2,1,07,65,35,164,44,71,24,035,23,72,55,090,33,77,15,230,17,1*72
$GLGSV,2,2,07,78,25,287,29,87,55,021,40,88,34,316,37,1*4E
$GLGSV,2,1,06,65,35,164,20,71,24,035,15,72,55,090,33,78,25,287,28,3*7A
$GLGSV,2,2,06,79,07,335,18,88,34,316,39,3*70
$GAGSV,2,1,08,02,31,210,32,05,27,144,37,09,33,084,39,18,59,308,48,2*77
$GAGSV,2,2,08,27,09,324,33,30,39,275,44,34,55,310,47,36,51,051,38,2*76
$GAGSV,2,1,08,02,31,210,40,05,27,144,35,09,33,084,41,18,59,308,47,7*75
$GAGSV,2,2,08,27,09,324,34,30,39,275,41,34,55,310,45,36,51,051,39,7*72
$GAGSV,1,1,02,04,08,037,,25,00,174,,0*7B
$GBGSV,3,1,11,01,43,152,40,02,28,236,33,03,44,206,32,04,35,132,38,1*70
$GBGSV,3,2,11,07,63,216,33,08,53,263,40,10,64,247,32,11,36,094,19,1*7E
$GBGSV,3,3,11,13,44,257,39,14,61,114,42,28,49,314,47,1*4C
$GBGSV,2,1,07,01,43,152,41,03,44,206,38,07,63,216,42,08,53,263,41,3*74
$GBGSV,2,2,07,10,64,247,39,13,44,257,34,14,61,114,42,3*4E
$GBGSV,1,1,01,05,08,256,,0*4A
$GNRMC,044444.00,A,3727.0374575,N,12639.3911591,E,0.011,,220622,,,R,V*0B
$GNVTG,,T,,M,0.011,N,0.020,K,D*3A
$GNGNS,044444.00,3727.0374575,N,12639.3911591,E,RRRR,27,0.64,25.966,17.842,2.0,4095,V*0D
$GNGGA,044444.00,3727.0374575,N,12639.3911591,E,4,12,0.64,25.966,M,17.842,M,2.0,4095*5E
$GNGSA,A,3,06,09,14,19,11,12,17,02,,,,,1.24,0.64,1.07,1*07
$GNGSA,A,3,87,78,88,72,65,,,,,,,,1.24,0.64,1.07,2*07
$GNGSA,A,3,02,05,34,30,09,36,,,,,,,1.24,0.64,1.07,3*0F
$GNGSA,A,3,03,01,04,28,08,10,14,13,,,,,1.24,0.64,1.07,4*05
$GPGSV,3,1,10,02,17,276,25,06,55,302,49,09,27,124,42,11,21,271,39,1*6D
$GPGSV,3,2,10,12,16,318,35,14,22,186,37,17,73,099,42,19,75,349,41,1*67
$GPGSV,3,3,10,28,,,38,50,47,179,31,1*5F
$GPGSV,2,1,06,06,55,302,42,09,27,124,41,11,21,271,30,12,16,318,35,6*65
$GPGSV,2,2,06,14,22,186,32,17,73,099,36,6*69
$GLGSV,2,1,07,65,35,164,44,71,24,035,21,72,55,090,31,77,15,230,17,1*72
$GLGSV,2,2,07,78,25,287,30,87,55,021,41,88,34,316,37,1*47
$GLGSV,2,1,06,65,35,164,19,71,24,035,16,72,55,090,32,78,25,287,28,3*72
$GLGSV,2,2,06,79,07,335,17,88,34,316,39,3*7F
$GAGSV,2,1,08,02,31,210,32,05,27,144,38,09,33,084,39,18,59,308,48,2*78
$GAGSV,2,2,08,27,09,324,34,30,39,275,44,34,55,310,47,36,51,051,38,2*71
$GAGSV,2,1,08,02,31,210,40,05,27,144,35,09,33,084,40,18,59,308,47,7*74
$GAGSV,2,2,08,27,09,324,35,30,39,275,41,34,55,310,45,36,51,051,39,7*73
$GAGSV,1,1,02,04,08,037,,25,00,174,,0*7B
$GBGSV,3,1,11,01,43,152,40,02,28,236,33,03,44,206,32,04,35,132,37,1*7F
$GNRMC,044445.00,A,3727.0374535,N,12639.3911586,E,0.022,,220622,,,R,V*08
$GNVTG,,T,,M,0.022,N,0.040,K,D*3C
$GNGNS,044445.00,3727.0374535,N,12639.3911586,E,RRRR,27,0.64,25.982,17.842,2.0,4095,V*04
$GNGGA,044445.00,3727.0374535,N,12639.3911586,E,4,12,0.64,25.982,M,17.842,M,2.0,4095*57
$GNGSA,A,3,06,09,14,19,11,12,17,02,,,,,1.24,0.64,1.07,1*07
$GNGSA,A,3,87,78,88,72,65,,,,,,,,1.24,0.64,1.07,2*07
$GNGSA,A,3,02,05,34,30,09,36,,,,,,,1.24,0.64,1.07,3*0F
$GNGSA,A,3,03,01,04,28,08,10,14,13,,,,,1.24,0.64,1.07,4*05
$GPGSV,3,1,10,02,17,276,25,06,55,302,49,09,27,124,42,11,21,271,39,1*6D
$GPGSV,3,2,10,12,16,318,36,14,22,186,37,17,73,099,43,19,75,349,41,1*65
$GPGSV,3,3,10,28,,,38,50,47,179,32,1*5C
$GPGSV,2,1,06,06,55,302,42,09,27,124,41,11,21,271,30,12,16,318,35,6*65
$GPGSV,2,2,06,14,22,186,30,17,73,099,36,6*6B
$GLGSV,2,1,07,65,35,164,44,71,24,035,22,72,55,090,32,77,15,230,16,1*73
$GLGSV,2,2,07,78,25,287,30,87,55,021,41,88,34,316,36,1*46
$GLGSV,2,1,06,65,35,164,18,71,24,035,14,72,55,090,30,78,25,287,27,3*7C
$GLGSV,2,2,06,79,07,335,15,88,34,316,37,3*73
$GAGSV,2,1,08,02,31,210,32,05,27,144,38,09,33,084,39,18,59,308,49,2*79
$GAGSV,2,2,08,27,09,324,34,30,39,275,44,34,55,310,47,36,51,051,38,2*71
$GAGSV,2,1,08,02,31,210,40,05,27,144,36,09,33,084,41,18,59,308,47,7*76
$GAGSV,2,2,08,27,09,324,35,30,39,275,41,34,55,310,45,36,51,051,39,7*73
$GAGSV,1,1,02,04,08,037,,25,00,174,,0*7B
$GBGSV,3,1,11,01,43,152,39,02,28,236,34,03,44,206,33,04,35,132,37,1*77
$GBGSV,3,2,11,07,63,216,33,08,53,263,40,10,64,247,31,11,36,094,19,1*7D
$GBGSV,3,3,11,13,44,257,39,14,61,114,41,28,49,314,46,1*4E
$GBGSV,2,1,07,01,43,152,41,03,44,206,38,07,63,216,42,08,53,263,41,3*74
$GBGSV,2,2,07,10,64,247,40,13,44,257,35,14,61,114,43,3*40
$GBGSV,1,1,01,05,08,256,,0*4A
$GNRMC,044446.00,A,3727.0374525,N,12639.3911615,E,0.012,,220622,,,R,V*00
$GNVTG,,T,,M,0.012,N,0.023,K,D*3A
$GNGNS,044446.00,3727.0374525,N,12639.3911615,E,RRRR,27,0.64,25.985,17.842,2.0,4095,V*08
$GNGGA,044446.00,3727.0374525,N,12639.3911615,E,4,12,0.64,25.985,M,17.842,M,2.0,4095*5B
$GNGSA,A,3,06,09,14,19,11,12,17,02,,,,,1.24,0.64,1.07,1*07
$GNGSA,A,3,87,78,88,72,65,,,,,,,,1.24,0.64,1.07,2*07
$GNGSA,A,3,02,05,34,30,09,36,,,,,,,1.24,0.64,1.07,3*0F
$GNGSA,A,3,03,01,04,28,08,10,14,13,,,,,1.24,0.64,1.07,4*05
$GPGSV,3,1,10,02,17,276,25,06,55,302,49,09,27,124,42,11,21,271,39,1*6D
$GPGSV,3,2,10,12,16,318,36,14,22,186,38,17,73,099,43,19,75,349,41,1*6A
$GPGSV,3,3,10,28,,,37,50,47,179,31,1*50
$GPGSV,2,1,06,06,55,302,42,09,27,124,41,11,21,271,31,12,16,318,35,6*64
$GPGSV,2,2,06,14,22,186,30,17,73,099,36,6*6B
$GLGSV,2,1,07,65,35,164,44,71,24,035,23,72,55,090,34,77,15,230,18,1*7A
$GLGSV,2,2,07,78,25,287,30,87,55,021,41,88,34,316,31,1*41
$GLGSV,2,1,06,65,35,164,19,71,24,035,09,72,55,090,30,78,25,287,26,3*70
$GLGSV,2,2,06,79,07,335,12,88,34,316,37,3*74
$GAGSV,2,1,08,02,31,210,32,05,27,144,38,09,33,084,39,18,59,308,49,2*79
$GAGSV,2,2,08,27,09,324,34,30,39,275,43,34,55,310,47,36,51,051,37,2*79
$GAGSV,2,1,08,02,31,210,39,05,27,144,35,09,33,084,41,18,59,308,47,7*7B
$GNRMC,044447.00,A,3727.0374443,N,12639.3911586,E,0.022,,220622,,,R,V*0A
$GNVTG,,T,,M,0.022,N,0.041,K,D*3D
$GNGNS,044447.00,3727.0374443,N,12639.3911586,E,RRRR,27,0.64,25.985,17.842,2.0,4095,V*01
$GNGGA,044447.00,3727.0374443,N,12639.3911586,E,4,12,0.64,25.985,M,17.842,M,2.0,4095*52
$GNGSA,A,3,06,09,14,19,11,12,17,02,,,,,1.24,0.64,1.07,1*07
$GNGSA,A,3,87,78,88,72,65,,,,,,,,1.24,0.64,1.07,2*07
$GNGSA,A,3,02,05,34,30,09,36,,,,,,,1.24,0.64,1.07,3*0F
$GNGSA,A,3,03,01,04,28,08,10,14,13,,,,,1.24,0.64,1.07,4*05
$GPGSV,3,1,10,02,17,276,26,06,55,302,49,09,27,124,43,11,21,271,37,1*61
$GPGSV,3,2,10,12,16,318,35,14,22,186,35,17,73,099,43,19,75,349,41,1*64
$GPGSV,3,3,10,28,,,37,50,47,179,31,1*50
$GPGSV,2,1,06,06,55,302,41,09,27,124,39,11,21,271,31,12,16,318,38,6*65
$GPGSV,2,2,06,14,22,186,32,17,73,099,36,6*69
$GLGSV,2,1,07,65,35,164,42,71,24,035,25,72,55,090,39,77,15,230,20,1*7C
$GLGSV,2,2,07,78,25,287,29,87,55,021,42,88,34,316,37,1*4C
$GLGSV,2,1,06,65,35,164,18,71,24,035,07,72,55,090,30,78,25,287,26,3*7F
$GLGSV,2,2,06,79,07,335,12,88,34,316,37,3*74
$GAGSV,2,1,08,02,31,210,31,05,27,144,36,09,33,084,41,18,59,308,48,2*7A
$GAGSV,2,2,08,27,09,324,34,30,39,275,42,34,55,310,46,36,51,051,37,2*79
$GAGSV,2,1,08,02,31,210,39,05,27,144,31,09,33,084,41,18,59,308,46,7*7E
$GAGSV,2,2,08,27,09,324,35,30,39,275,41,34,55,310,44,36,51,051,39,7*72
$GAGSV,1,1,02,04,08,037,,25,00,174,,0*7B
$GBGSV,3,1,10,01,43,152,39,02,28,236,33,03,44,206,35,04,35,132,37,1*77
$GBGSV,3,2,10,07,63,216,35,08,53,263,40,10,64,247,36,13,44,257,42,1*79
$GBGSV,3,3,10,14,61,114,41,28,49,314,46,1*77
$GBGSV,2,1,07,01,43,152,39,03,44,206,38,07,63,216,44,08,53,263,43,3*7F
$GBGSV,2,2,07,10,64,247,41,13,44,257,40,14,61,114,43,3*43
$GBGSV,1,1,02,05,08,256,,11,36,094,,0*71
$GNRMC,044448.00,A,3727.0374566,N,12639.3911617,E,0.020,,220622,,,R,V*0A
$GNVTG,,T,,M,0.020,N,0.038,K,D*31
$GNGSA,A,3,02,05,34,30,09,36,,,,,,,1.24,0.64,1.07,3*0F
$GNGSA,A,3,03,01,04,28,08,10,14,13,,,,,1.24,0.64,1.07,4*05
$GPGSV,3,1,10,02,17,276,25,06,55,302,47,09,27,124,42,11,21,271,38,1*62
$GPGSV,3,2,10,12,16,318,32,14,22,186,37,17,73,099,42,19,75,349,42,1*63
$GPGSV,3,3,10,28,,,37,50,47,179,32,1*53
$GPGSV,2,1,06,06,55,302,41,09,27,124,40,11,21,271,32,12,16,318,35,6*65
$GPGSV,2,2,06,14,22,186,33,17,73,099,36,6*68
$GBGSV,3,2,10,07,63,216,34,08,53,263,39,10,64,247,32,13,44,257,38,1*7F
$GBGSV,3,3,10,14,61,114,43,28,49,314,46,1*75
$GBGSV,2,1,07,01,43,152,41,03,44,206,38,07,63,216,42,08,53,263,39,3*7B
$GBGSV,2,2,07,10,64,247,40,13,44,257,32,14,61,114,42,3*46
$GNRMC,044449.00,A,3727.0374525,N,12639.3911609,E,0.029,,220622,,,R,V*0A
$GNVTG,,T,,M,0.029,N,0.054,K,D*32
$GNGNS,044449.00,3727.0374525,N,12639.3911609,E,RRRR,27,0.64,25.989,17.842,2.0,4095,V*06
$GNGGA,044449.00,3727.0374525,N,12639.3911609,E,4,12,0.64,25.989,M,17.842,M,2.0,4095*55
$GNGSA,A,3,06,09,14,19,11,12,17,02,,,,,1.24,0.64,1.07,1*07
$GNGSA,A,3,87,78,88,72,65,,,,,,,,1.24,0.64,1.07,2*07
$GNGSA,A,3,02,05,34,30,09,36,,,,,,,1.24,0.64,1.07,3*0F
$GNGSA,A,3,03,01,04,28,08,10,14,13,,,,,1.24,0.64,1.07,4*05
$GPGSV,3,1,10,02,17,276,24,06,55,302,48,09,27,124,42,11,21,271,39,1*6D
$GPGSV,3,2,10,12,16,318,36,14,22,186,37,17,73,099,43,19,75,349,42,1*66
$GPGSV,3,3,10,28,,,38,50,47,179,32,1*5C
$GPGSV,2,1,06,06,55,302,41,09,27,124,41,11,21,271,32,12,16,318,34,6*65
$GPGSV,2,2,06,14,22,186,32,17,73,099,36,6*69
$GLGSV,2,1,07,65,35,164,44,71,24,035,26,72,55,090,34,77,15,230,21,1*75
$GLGSV,2,2,07,78,25,287,29,87,55,021,42,88,34,316,27,1*4D
$GLGSV,2,1,06,65,35,164,18,71,24,035,06,72,55,090,30,78,25,287,25,3*7D
$GLGSV,2,2,06,79,07,335,14,88,34,316,39,3*7C
$GAGSV,2,1,08,02,31,210,33,05,27,144,38,09,33,084,38,18,59,308,48,2*78
$GAGSV,2,2,08,27,09,324,34,30,39,275,43,34,55,310,47,36,51,051,39,2*77
$GAGSV,2,1,08,02,31,210,39,05,27,144,35,09,33,084,42,18,59,308,46,7*79
$GAGSV,2,2,08,27,09,324,34,30,39,275,40,34,55,310,45,36,51,051,38,7*72
$GAGSV,1,1,02,04,08,037,,25,00,174,,0*7B
$GBGSV,3,1,11,01,43,152,40,02,28,236,33,03,44,206,32,04,35,132,38,1*70
$GBGSV,3,2,11,07,63,216,33,08,53,264,39,10,64,247,31,13,44,257,38,1*7D
$GBGSV,3,3,11,14,61,114,43,21,08,036,26,28,49,314,46,1*4E
$GBGSV,2,1,07,01,43,152,41,03,44,206,38,07,63,216,42,08,53,264,39,3*7C
$GBGSV,2,2,07,10,64,247,39,13,44,257,32,14,61,114,43,3*49
$GBGSV,1,1,02,05,08,256,,11,36,094,,0*71
$GNRMC,044450.00,A,3727.0374534,N,12639.3911627,E,0.008,,220622,,,R,V*0D
$GNVTG,,T,,M,0.008,N,0.015,K,D*34
$GNGNS,044450.00,3727.0374534,N,12639.3911627,E,RRRR,27,0.63,25.982,17.842,2.0,4095,V*0E
$GNGGA,044450.00,3727.0374534,N,12639.3911627,E,4,12,0.63,25.982,M,17.842,M,2.0,4095*5D
$GNGSA,A,3,06,09,14,19,11,12,17,,,,,,1.23,0.63,1.06,1*04
$GNGSA,A,3,87,78,88,72,65,,,,,,,,1.23,0.63,1.06,2*06
$GNGSA,A,3,02,05,34,30,09,36,,,,,,,1.23,0.63,1.06,3*0E
$GNGSA,A,3,03,01,04,28,07,08,10,14,13,,,,1.23,0.63,1.06,4*03
$GPGSV,3,1,10,02,17,276,22,06,55,302,49,09,27,124,42,11,21,271,39,1*6A
$GPGSV,3,2,10,12,16,318,34,14,22,186,36,17,73,099,43,19,75,349,42,1*65
$GPGSV,3,3,10,28,,,37,50,47,179,33,1*52
$GPGSV,2,1,06,06,55,302,41,09,27,124,41,11,21,271,32,12,16,318,34,6*65
$GPGSV,2,2,06,14,22,186,33,17,73,099,36,6*68
$GLGSV,2,1,07,65,35,164,43,71,24,035,26,72,55,090,35,77,15,230,21,1*73
$GLGSV,2,2,07,78,25,287,28,87,55,021,42,88,34,316,34,1*4E
$GLGSV,2,1,06,65,35,164,16,71,24,035,06,72,55,090,32,78,25,287,26,3*72
$GLGSV,2,2,06,79,07,335,17,88,34,316,38,3*7E
$GLGSV,1,1,01,86,17,087,,0*4F
$GAGSV,2,1,08,02,31,210,32,05,27,144,38,09,33,084,39,18,59,308,48,2*78
$GAGSV,2,2,08,27,09,324,34,30,39,275,43,34,55,310,47,36,51,051,38,2*76
$GAGSV,2,1,08,02,31,210,39,05,27,144,35,09,33,084,41,18,59,308,46,7*7A
$GAGSV,2,2,08,27,09,324,34,30,39,275,41,34,55,310,45,36,51,051,38,7*73
$GAGSV,1,1,02,04,08,037,,25,00,174,,0*7B
$GBGSV,3,1,11,01,43,152,40,02,28,236,33,03,44,206,32,04,35,132,38,1*70
$GBGSV,3,2,11,07,63,216,33,08,53,264,40,10,64,247,32,13,44,257,39,1*71
$GBGSV,3,3,11,14,61,114,42,21,08,036,26,28,49,314,47,1*4E
$GBGSV,2,1,07,01,43,152,41,03,44,206,38,07,63,216,42,08,53,264,40,3*72
$GBGSV,2,2,07,10,64,247,39,13,44,257,33,14,61,114,42,3*49
$GNRMC,044451.00,A,3727.0374510,N,12639.3911615,E,0.020,,220622,,,R,V*01
$GNVTG,,T,,M,0.020,N,0.037,K,D*3E
$GNGNS,044451.00,3727.0374510,N,12639.3911615,E,RRRR,27,0.63,25.983,17.842,2.0,4095,V*09
$GNGGA,044451.00,3727.0374510,N,12639.3911615,E,4,12,0.63,25.983,M,17.842,M,2.0,4095*5A
$GNGSA,A,3,06,09,14,19,11,12,17,,,,,,1.23,0.63,1.06,1*04
$GNGSA,A,3,87,78,88,72,65,,,,,,,,1.23,0.63,1.06,2*06
$GNGSA,A,3,02,05,34,30,09,36,,,,,,,1.23,0.63,1.06,3*0E
$GNGSA,A,3,03,01,04,28,07,08,10,14,13,,,,1.23,0.63,1.06,4*03
$GPGSV,3,1,10,02,17,276,22,06,55,302,49,09,27,124,42,11,21,271,38,1*6B
$GPGSV,3,2,10,12,16,318,35,14,22,186,36,17,73,099,42,19,75,349,42,1*65
$GPGSV,3,3,10,28,,,36,50,47,179,33,1*53
$GPGSV,2,1,06,06,55,302,42,09,27,124,41,11,21,271,31,12,16,318,33,6*62
$GPGSV,2,2,06,14,22,186,34,17,73,099,35,6*6C
$GLGSV,2,1,07,65,35,164,42,71,24,035,26,72,55,090,36,77,15,230,22,1*72
$GLGSV,2,2,07,78,25,287,29,87,55,021,43,88,34,316,32,1*48
$GLGSV,2,1,06,65,35,164,15,71,24,035,02,72,55,090,31,78,25,287,27,3*77
$GLGSV,2,2,06,79,07,335,17,88,34,316,37,3*71
$GLGSV,1,1,01,86,17,087,,0*4F
$GAGSV,2,1,08,02,31,210,32,05,27,144,38,09,33,084,39,18,59,308,48,2*78
$GAGSV,2,2,08,27,09,324,34,30,39,275,43,34,55,310,47,36,51,051,38,2*76
$GAGSV,2,1,08,02,31,210,39,05,27,144,35,09,33,084,41,18,59,308,46,7*7A
$GAGSV,2,2,08,27,09,324,34,30,39,275,41,34,55,310,46,36,51,051,39,7*71
$GAGSV,1,1,02,04,08,037,,25,00,174,,0*7B
$GBGSV,3,1,11,01,43,152,40,02,28,236,33,03,44,206,33,04,35,132,38,1*71
$GBGSV,3,2,11,07,63,216,33,08,53,264,40,10,64,247,33,13,44,257,39,1*70
$GBGSV,3,3,11,14,61,114,42,21,08,036,27,28,49,314,47,1*4F
$GBGSV,2,1,07,01,43,152,41,03,44,206,38,07,63,216,42,08,53,264,40,3*72
$GBGSV,2,2,07,10,64,247,40,13,44,257,35,14,61,114,42,3*41
$GBGSV,1,1,02,05,08,256,,11,36,094,,0*71
$GNRMC,044452.00,A,3727.0374503,N,12639.3911601,E,0.021,,220622,,,R,V*04
$GNVTG,,T,,M,0.021,N,0.040,K,D*3F
$GNGNS,044452.00,3727.0374503,N,12639.3911601,E,RRRR,27,0.63,25.966,17.842,2.0,4095,V*06
$GNGGA,044452.00,3727.0374503,N,12639.3911601,E,4,12,0.63,25.966,M,17.842,M,2.0,4095*55
$GNGSA,A,3,87,78,88,72,65,,,,,,,,1.23,0.63,1.06,2*06
$GNGSA,A,3,02,05,34,30,09,36,,,,,,,1.23,0.63,1.06,3*0E
$GNGSA,A,3,03,01,04,28,07,08,10,14,13,,,,1.23,0.63,1.06,4*03
$GPGSV,3,1,10,02,17,276,22,06,55,302,49,09,27,124,42,11,21,271,38,1*6B
$GPGSV,3,2,10,12,16,318,36,14,22,186,36,17,73,099,43,19,75,349,42,1*67
$GPGSV,3,3,10,28,,,35,50,47,179,33,1*50
$GPGSV,2,1,06,06,55,302,42,09,27,124,40,11,21,271,31,12,16,318,34,6*64
$GPGSV,2,2,06,14,22,186,34,17,73,099,35,6*6C
$GLGSV,2,1,07,65,35,164,42,71,24,035,27,72,55,090,36,77,15,230,22,1*73
$GLGSV,2,2,07,78,25,287,31,87,55,021,43,88,34,316,36,1*45
$GLGSV,2,1,05,71,24,035,05,72,55,090,32,78,25,287,29,79,07,335,18,3*79
$GLGSV,2,2,05,88,34,316,36,3*49
$GLGSV,1,1,01,86,17,087,,0*4F
$GAGSV,2,1,08,02,31,210,31,05,27,144,38,09,33,084,39,18,59,308,48,2*7B
$GAGSV,2,2,08,27,09,324,33,30,39,275,43,34,55,310,47,36,51,051,38,2*71
$GAGSV,2,1,08,02,31,210,39,05,27,144,35,09,33,084,41,18,59,308,46,7*7A
$GAGSV,2$GAGSV,1,1,02,04,08,037,,25,00,174,,0*7B
$GBGSV,3,1,11,01,43,152,39,02,28,236,33,03,44,206,32,04,35,132,38,1*7E
$GBGSV,3,2,11,07,63,216,33,08,53,264,40,10,64,247,33,13,44,257,39,1*70
$GBGSV,3,3,11,14,61,114,42,21,08,036,27,28,49,314,47,1*4F
$GBGSV,2,1,07,01,43,152,41,03,44,206,38,07,63,216,42,08,53,264,40,3*72
$GBGSV,2,2,07,10,64,247,40,13,44,257,35,14,61,114,42,3*41
$GBGSV,1,1,02,05,08,256,,11,36,094,,0*71
$GNRMC,044453.00,A,3727.0374455,N,12639.3911611,E,0.027,,220622,,,R,V*00
$GNVTG,,T,,M,0.027,N,0.051,K,D*39
$GNGNS,044453.00,3727.0374455,N,12639.3911611,E,RRRR,26,0.63,25.968,17.842,1.0,4095,V*08
$GNGGA,044453.00,3727.0374455,N,12639.3911611,E,4,12,0.63,25.968,M,17.842,M,1.0,4095*5A
$GNGSA,A,3,06,09,14,19,11,12,17,,,,,,1.23,0.63,1.06,1*04
$GNGSA,A,3,87,78,88,72,65,,,,,,,,1.23,0.63,1.06,2*06
$GNGSA,A,3,02,05,34,30,09,36,,,,,,,1.23,0.63,1.06,3*0E
$GNGSA,A,3,03,01,04,28,07,08,10,14,13,,,,1.23,0.63,1.06,4*03
$GPGSV,3,1,10,02,17,276,21,06,55,302,49,09,27,124,42,11,21,271,38,1*68
$GPGSV,3,2,10,12,16,318,36,14,22,186,36,17,73,099,43,19,75,349,41,1*64
$GPGSV,3,3,10,28,,,35,50,47,179,33,1*50
$GPGSV,2,1,06,06,55,302,42,09,27,124,40,11,21,271,32,12,16,318,34,6*67
$GPGSV,2,2,06,14,22,186,35,17,73,099,34,6*6C
$GLGSV,2,1,07,65,35,164,42,71,24,035,27,72,55,090,36,77,15,230,23,1*72
$GLGSV,2,2,07,78,25,287,30,87,55,021,43,88,34,316,35,1*47
$GLGSV,2,1,05,71,24,035,07,72,55,090,32,78,25,287,29,79,07,335,19,3*7A
$GLGSV,2,2,05,88,34,316,34,3*4B
$GLGSV,1,1,01,86,17,087,,0*4F
$GAGSV,2,1,08,02,31,210,30,05,27,144,38,09,33,084,39,18,59,308,48,2*7A
$GAGSV,2,2,08,27,09,324,33,30,39,275,43,34,55,310,47,36,51,051,38,2*71
$GAGSV,2,1,08,02,31,210,40,05,27,144,35,09,33,084,41,18,59,308,46,7*74
$GAGSV,2,2,08,27,09,324,35,30,39,275,41,34,55,310,46,36,51,051,39,7*70
$GAGSV,1,1,02,04,08,037,,25,00,174,,0*7B
$GBGSV,3,1,11,01,43,152,39,02,28,236,34,03,44,206,34,04,35,132,37,1*70
$GBGSV,3,2,11,07,63,216,32,08,53,264,40,10,64,247,33,13,44,257,39,1*71
$GBGSV,3,3,11,14,61,114,42,21,08,036,26,28,49,314,46,1*4F
$GBGSV,2,1,07,01,43,152,40,03,44,206,38,07,63,216,42,08,53,264,41,3*72
$GBGSV,2,2,07,10,64,247,40,13,44,257,35,14,61,114,41,3*42
$GBGSV,1,1,02,05,08,256,,11,36,094,,0*71
$GNRMC,044454.00,A,3727.0374451,N,12639.3911605,E,0.009,,220622,,,R,V*0A
$GNVTG,,T,,M,0.009,N,0.017,K,D*37
$GNGNS,044454.00,3727.0374451,N,12639.3911605,E,RRRR,26,0.63,25.969,17.842,2.0,4095,V*0C
$GNGGA,044454.00,3727.0374451,N,12639.3911605,E,4,12,0.63,25.969,M,17.842,M,2.0,4095*5E
$GNGSA,A,3,06,09,14,19,11,12,17,,,,,,1.23,0.63,1.06,1*04
$GNGSA,A,3,87,78,88,72,65,,,,,,,,1.23,0.63,1.06,2*06
$GNGSA,A,3,02,05,34,30,09,36,,,,,,,1.23,0.63,1.06,3*0E
$GNGSA,A,3,03,01,04,28,07,08,10,14,13,,,,1.23,0.63,1.06,4*03
$GPGSV,3,1,10,02,17,276,19,06,55,302,49,09,27,124,42,11,21,271,38,1*63
$GPGSV,3,2,10,12,16,318,35,14,22,186,35,17,73,099,43,19,75,349,41,1*64
$GPGSV,3,3,10,28,,,35,50,47,179,34,1*57
$GPGSV,2,1,06,06,55,302,42,09,27,124,40,11,21,271,32,12,16,318,34,6*67
$GPGSV,2,2,06,14,22,186,35,17,73,099,34,6*6C
$GLGSV,2,1,07,65,35,164,41,71,24,035,28,72,55,090,37,77,15,230,23,1*7F
$GLGSV,2,2,07,78,25,287,31,87,55,022,43,88,34,316,34,1*44
$GLGSV,2,1,05,71,24,035,07,72,55,090,32,78,25,287,30,79,07,335,18,3*73
$GLGSV,2,2,05,88,34,316,34,3*4B
$GLGSV,1,1,01,86,17,087,,0*4F
$GAGSV,2,1,08,02,31,210,30,05,27,144,38,09,33,084,39,18,59,308,48,2*7A
$GAGSV,2,2,08,27,09,324,33,30,39,275,44,34,55,310,47,36,51,051,38,2*76
$GNRMC,044455.00,A,3727.0374489,N,12639.3911610,E,0.021,,220622,,,R,V*00
$GNVTG,,T,,M,0.021,N,0.039,K,D*31
$GNGGA,044455.00,3727.0374489,N,12639.3911610,E,4,12,0.63,25.968,M,17.842,M,2.0,4095*5F
$GNGSA,A,3,06,09,14,19,11,12,17,,,,,,1.23,0.63,1.06,1*04
$GNGSA,A,3,87,78,88,72,65,,,,,,,,1.23,0.63,1.06,2*06
$GNGSA,A,3,02,05,34,30,09,36,,,,,,,1.23,0.63,1.06,3*0E
$GNGSA,A,3,03,01,04,28,07,08,10,14,13,,,,1.23,0.63,1.06,4*03
$GPGSV,3,1,10,02,17,276,20,06,55,302,49,09,27,124,42,11,21,271,38,1*69
$GPGSV,3,2,10,12,16,318,35,14,22,186,38,17,73,099,43,19,75,349,41,1*69
$GPGSV,3,3,10,28,,,34,50,47,179,32,1*50
$GPGSV,2,1,06,06,55,302,42,09,27,124,40,11,21,271,32,12,16,318,34,6*67
$GPGSV,2,2,06,14,22,186,35,17,73,099,35,6*6D
$GLGSV,2,1,07,65,35,164,41,71,24,035,29,72,55,090,37,77,15,230,24,1*79
$GLGSV,2,2,07,78,25,287,33,87,55,022,43,88,34,316,32,1*40
$GLGSV,2,1,05,71,24,035,08,72,55,090,32,78,25,287,31,79,07,335,19,3*7C
$GLGSV,2,2,05,88,34,316,34,3*4B
$GLGSV,1,1,01,86,17,087,,0*4F
$GAGSV,2,1,08,02,31,210,30,05,27,144,38,09,33$GAGSV,2,2,08,27,09,324,33,30,39,275,44,34,55,310,47,36,51,051,38,2*76
$GAGSV,2,1,08,02,31,210,40,05,27,144,34,09,33,084,40,18,59,308,46,7*74
$GAGSV,2,2,08,27,09,324,35,30,39,275,41,34,55,310,45,36,51,051,40,7*7D
$GAGSV,1,1,02,04,08,037,,25,00,174,,0*7B
$GBGSV,3,1,12,01,43,152,39,02,28,236,33,03,44,206,35,04,35,132,37,1*75
$GBGSV,3,2,12,07,63,216,33,08,53,264,40,10,64,247,35,11,36,094,18,1*7C
$GBGSV,3,3,12,13,44,257,39,14,61,114,41,21,08,036,27,28,49,314,45,1*75
$GBGSV,2,1,07,01,43,152,40,03,44,206,38,07,63,216,42,08,53,264,40,3*73
$GBGSV,2,2,07,10,64,247,39,13,44,257,36,14,61,114,41,3*4F
$GBGSV,1,1,02,05,08,256,,23,08,221,,0*71
$GNRMC,044456.00,A,3727.0374462,N,12639.3911626,E,0.013,,220622,,,R,V*02
$GNVTG,,T,,M,0.013,N,0.023,K,D*3B
$GNGNS,044456.00,3727.0374462,N,12639.3911626,E,RRRR,26,0.63,25.986,17.842,2.0,4095,V*0E
$GNGGA,044456.00,3727.0374462,N,12639.3911626,E,4,12,0.63,25.986,M,17.842,M,2.0,4095*5C
$GNGSA,A,3,06,09,14,19,11,12,17,,,,,,1.23,0.63,1.06,1*04
$GNGSA,A,3,87,78,88,72,65,,,,,,,,1.23,0.63,1.06,2*06
$GNGSA,A,3,03,01,04,28,07,08,10,14,13,,,,1.23,0.63,1.06,4*03
$GPGSV,3,1,10,02,17,276,22,06,55,302,49,09,27,124,42,11,21,271,37,1*64
$GPGSV,3,2,10,12,16,318,34,14,22,186,38,17,73,099,43,19,75,349,41,1*68
$GPGSV,3,3,10,28,,,35,50,47,179,33,1*50
$GPGSV,2,1,06,06,55,302,41,09,27,124,39,11,21,271,33,12,16,318,34,6*6B
$GPGSV,2,2,06,14,22,186,35,17,73,099,35,6*6D
$GLGSV,2,1,07,65,35,164,40,71,24,035,29,72,55,090,37,77,15,230,23,1*7F
$GLGSV,2,2,07,78,25,287,33,87,55,022,42,88,34,316,32,1*41
$GLGSV,2,1,06,65,35,164,22,71,24,035,08,72,55,090,31,78,25,287,31,3*7E
$GLGSV,2,2,06,79,07,335,19,88,34,316,33,3*7B
$GLGSV,1,1,01,86,17,087,,0*4F
