$GNRMC,030441.00,A,3726.8884113,N,12639.2929191,E,0.024,,210622,,,F,V*1B
$GNVTG,,T,,M,0.024,N,0.044,K,D*3E
$GNGNS,030441.00,3726.8884113,N,12639.2929191,E,FFFF,24,0.69,15.739,17.840,2.0,4095,V*07
$GNGSA,A,3,03,14,21,17,01,06,19,,,,,,1.38,0.69,1.19,1*01
$GNGSA,A,3,85,75,76,69,,,,,,,,,1.38,0.69,1.19,2*0F
$GNGSA,A,3,13,21,15,27,03,,,,,,,,1.38,0.69,1.19,3*0C
$GNGSA,A,3,07,37,03,10,01,14,08,28,27,,,,1.38,0.69,1.19,4*0A
$GPGSV,3,1,10,01,40,045,36,03,57,097,43,06,25,249,41,08,07,106,09,1*64
$GPGSV,3,2,10,14,70,220,40,17,56,324,41,19,33,303,47,21,17,057,17,1*6D
$GPGSV,3,3,10,28,,,45,30,07,212,10,1*5A
$GPGSV,2,1,05,01,40,045,37,03,57,097,41,06,25,249,42,14,70,220,40,6*61
$GPGSV,2,2,05,17,56,324,32,6*57
$GPGSV,1,1,02,04,00,128,,50,47,179,,0*61
$GLGSV,2,1,05,69,15,035,24,70,32,099,13,75,37,213,38,76,44,293,40,1*71
$GLGSV,2,2,05,85,48,023,40,1*49
$GLGSV,1,1,04,69,15,035,22,75,37,213,35,76,44,293,42,85,48,023,37,3*78
$GLGSV,1,1,04,71,12,147,,77,10,334,,84,04,067,,86,45,307,,0*7D
$GAGSV,2,1,05,13,53,273,37,15,59,030,41,18,75,033,33,21,41,305,34,2*74
$GAGSV,2,2,05,27,61,213,43,2*46
$GAGSV,2,1,07,03,12,100,26,15,5$GAGSV,2,2,07,27,61,213,39,30,18,164,24,34,13,058,15,7*4F
$GAGSV,1,1,04,01,00,327,,05,06,051,,08,03,147,,26,04,249,,0*76
$GBGSV,3,1,10,01,43,152,38,03,43,205,36,04,,,31,07,81,262,34,1*41
$GBGSV,3,2,10,08,45,221,39,10,69,294,41,14,36,087,39,27,26,284,44,1*7A
$GBGSV,3,3,10,28,66,342,46,37,37,246,42,1*7C
$GBGSV,2,1,07,01,43,152,32,03,43,205,35,07,81,262,37,08,45,221,39,3*7A
$GBGSV,2,2,07,10,69,294,44,14,36,087,40,27,26,284,08,3*4E
$GNVTG,,T,,M,0.007,N,0.013,K,D*3D
$GNRMC,030443.00,A,3726.8884135,N,12639.2929196,E,0.020,,210622,,,F,V*1E
$GNVTG,,T,,M,0.020,N,0.036,K,D*3F
$GNGNS,030443.00,3726.8884135,N,12639.2929196,E,FFFF,25,0.69,15.727,17.840,1.0,4095,V*0B
$GNGGA,030443.00,3726.8884135,N,12639.2929196,E,5,12,0.69,15.727,M,17.840,M,1.0,4095*5B
$GNGSA,A,3,03,14,21,17,01,06,19,,,,,,1.38,0.69,1.19,1*01
$GNGSA,A,3,85,75,76,69,,,,,,,,,1.38,0.69,1.19,2*0F
$GNGSA,A,3,13,21,15,27,03,,,,,,,,1.38,0.69,1.19,3*0C
$GNGSA,A,3,07,37,03,10,01,14,08,28,27,,,,1.38,0.69,1.19,4*0A
$GPGSV,3,1,10,01,40,045,36,03,57,097,43,06,25,249,41,08,07,106,11,1*6D
$GPGSV,3,2,10,14,69,218,37,17,56,324,40,19,33,303,47,21,17,057,18,1*60
$GPGSV,3,3,10,28,,,44,30,07,212,15,1*5E
$GPGSV,1,1,01,08,07,106,22,5*59
$GPGSV,2,1,05,01,40,045,35,03,57,097,39,06,25,249,40,14,69,218,38,6*62
$GPGSV,2,2,05,17,56,324,32,6*57
$GPGSV,1,1,02,04,00,128,,50,47,179,,0*61
$GLGSV,2,1,06,69,15,035,22,70,32,099,09,71,12,147,22,75,37,213,38,1*75
$GLGSV,2,2,06,76,44,293,39,85,48,023,41,1*78
$GLGSV,1,1,04,69,15,035,24,75,37,213,35,76,44,293,41,85,48,023,36,3*7C
$GLGSV,1,1,03,77,10,334,,84,04,067,,86,45,307,,0*4D
$GAGSV,2,1,05,13,53,273,36,15,59,030,40,18,75,033,34,21,41,305,33,2*74
$GAGSV,2,2,05,27,61,213,42,2*47
$GAGSV,2,1,06,03,12,100,24,15,59,030,43,18,75,033,40,21,41,305,44,7*72
$GAGSV,2,2,06,27,61,213,38,34,13,058,19,7*7C
$GAGSV,2,1,05,01,00,327,,05,06,051,,08,03,147,,26,04,249,,0*74
$GAGSV,2,2,05,26,04,249,,0*4E
$GBGSV,3,1,10,01,43,152,40,03,43,205,36,04,,,31,07,81,262,37,1*4D
$GBGSV,3,2,10,08,45,221,37,10,69,294,40,14,36,087,39,27,26,284,44,1*75
$GBGSV,3,3,10,28,66,342,47,37,37,246,42,1*7D
$GBGSV,2,1,06,01,43,152,32,03,43,205,33,07,81,262,35,08,45,221,37,3*71
$GBGSV,2,2,06,10,69,294,41,14,36,087,36,3*7C
$GNRMC,030444.00,A,3726.8884096,N,12639.2929230,E,0.004,,210622,,,F,V*18
$GNVTG,,T,,M,0.004,N,0.007,K,D*3B
$GNGNS,030444.00,3726.8884096,N,12639.2929230,E,FFFF,24,0.69,15.727,17.840,2.0,4095,V*09
$GNGGA,030444.00,3726.8884096,N,12639.2929230,E,5,12,0.69,15.727,M,17.840,M,2.0,4095*58
$GNGSA,A,3,03,14,21,17,01,06,19,,,,,,1.38,0.69,1.19,1*01
$GNGSA,A,3,85,75,76,69,,,,,,,,,1.38,0.69,1.19,2*0F
$GNGSA,A,3,13,21,15,27,03,,,,,,,,1.38,0.69,1.19,3*0C
$GNGSA,A,3,07,37,03,10,01,14,08,28,27,,,,1.38,0.69,1.19,4*0A
$GPGSV,3,1,10,01,40,045,37,03,57,097,41,06,25,249,41,08,07,106,09,1*67
$GPGSV,3,2,10,14,69,218,39,17,57,324,42,19,33,303,47,21,17,057,17,1*62
$GPGSV,3,3,10,28,,,44,30,07,212,17,1*5C
$GPGSV,2,1,06,01,40,045,35,03,57,097,39,06,25,249,40,08,07,106,20,6*61
$GPGSV,2,2,06,14,69,218,38,17,57,324,32,6*6F
$GPGSV,1,1,02,04,00,128,,50,47,179,,0*61
$GLGSV,2,1,06,69,15,035,22,70,32,099,10,71,12,147,20,75,37,213,40,1*70
$GLGSV,2,2,06,76,44,293,40,85,48,023,41,1*76
$GLGSV,1,1,04,69,15,035,25,75,37,213,33,76,44,293,40,85,48,023,37,3*7B
$GLGSV,1,1,03,77,10,334,,84,04,067,,86,45,307,,0*4D
$GAGSV,2,1,05,13,53,273,36,15,59,030,41,18,75,033,34,21,41,305,34,2*72
$GAGSV,2,2,05,27,61,213,42,2*47
$GAGSV,2,1,06,03,12,100,23,15,59,030,42,18,75,033,42,21,41,305,45,7*77
$GAGSV,2,2,06,27,61,213,39,34,13,058,19,7*7D
$GAGSV,2,1,05,01,00,327,,05,06,051,,08,03,147,,26,04,249,,0*74
$GAGSV,2,2,05,26,04,249,,0*4E
$GBGSV,3,1,10,01,43,152,40,03,43,205,36,04,,,31,07,81,262,37,1*4D
$GBGSV,3,2,10,08,45,221,39,10,69,294,41,14,36,087,39,27,26,284,41,1*7F
$GBGSV,3,3,10,28,66,342,47,37,37,246,41,1*7E
$GBGSV,2,1,06,01,43,152,31,03,43,205,32,07,81,262,36,08,45,221,37,3*70
$GNRMC,030445.00,A,3726.8884139,N,12639.2929204,E,0.013,,210622,,,F,V*1C
$GNVTG,,T,,M,0.013,N,0.025,K,D*3D
$GNGNS,030445.00,3726.8884139,N,12639.2929204,E,FFFF,24,0.69,15.727,17.840,2.0,4095,V*0B
$GNGGA,030445.00,3726.8884139,N,12639.2929204,E,5,12,0.69,15.727,M,17.840,M,2.0,4095*5A
$GNGSA,A,3,03,14,21,17,01,06,19,,,,,,1.38,0.69,1.19,1*01
$GNGSA,A,3,85,75,76,69,,,,,,,,,1.38,0.69,1.19,2*0F
$GNGSA,A,3,13,21,15,27,03,,,,,,,,1.38,0.69,1.19,3*0C
$GNGSA,A,3,07,37,03,10,01,14,08,28,27,,,,1.38,0.69,1.19,4*0A
$GPGSV,3,1,10,01,40,045,37,03,57,097,41,06,25,249,42,08,07,106,09,1*64
$GPGSV,3,2,10,14,69,218,40,17,57,324,41,19,33,303,46,21,17,057,22,1*68
$GPGSV,3,3,10,28,,,44,30,07,212,08,1*52
$GPGSV,2,1,06,01,40,045,34,03,57,097,38,06,25,249,38,08,07,106,17,6*6A
$GPGSV,2,2,06,14,69,218,36,17,57,324,31,6*62
$GPGSV,1,1,02,04,00,128,,50,47,179,,0*61
$GLGSV,2,1,06,69,15,035,22,70,32,099,10,71,12,147,19,75,37,213,37,1*7A
$GLGSV,2,2,06,76,44,293,40,85,48,023,40,1*77
$GLGSV,1,1,04,69,15,035,26,75,37,213,32,76,44,293,39,85,48,023,34,3*74
$GLGSV,1,1,03,77,10,334,,84,04,067,,86,45,307,,0*4D
$GAGSV,2,1,05,13,53,273,38,15,59,030,40,18,75,033,36,21,41,305,36,2*7D
$GAGSV,2,2,05,27,61,213,41,2*44
$GAGSV,2,1,06,03,12,100,22,15,59,030,42,18,75,033,42,21,41,305,45,7*76
$GAGSV,2,2,06,27,61,213,39,34,13,058,20,7*77
$GAGSV,2,1,05,01,00,327,,05,06,051,,08,03,147,,26,04,249,,0*74
$GAGSV,2,2,05,26,04,249,,0*4E
$GBGSV,3,1,10,01,43,152,39,03,43,205,35,04,,,31,07,81,262,37,1*40
$GBGSV,3,2,10,08,45,221,39,10,69,294,41,14,36,087,39,27,26,284,43,1*7D
$GBGSV,3,3,10,28,66,342,47,37,37,246,41,1*7E
$GBGSV,2,1,06,01,43,152,30,03,43,205,31,07,81,262,35,08,45,221,35,3*73
$GBGSV,2,2,06,10,69,294,40,14,36,087,36,3*7D
$GNRMC,030446.00,A,3726.8884167,N,12639.2929175,E,0.001,,210622,,,F,V*12
$GNVTG,,T,,M,0.001,N,0.002,K,D*3B
$GNGNS,030446.00,3726.8884167,N,12639.2929175,E,FFFF,25,0.69,15.727,17.840,2.0,4095,V*07
$GNGGA,030446.00,3726.8884167,N,12639.2929175,E,5,12,0.69,15.727,M,17.840,M,2.0,4095*57
$GNGSA,A,3,03,14,21,17,01,06,19,,,,,,1.38,0.69,1.19,1*01
$GNGSA,A,3,85,75,76,69,,,,,,,,,1.38,0.69,1.19,2*0F
$GNGSA,A,3,13,21,15,27,03,,,,,,,,1.38,0.69,1.19,3*0C
$GNGSA,A,3,07,37,03,10,01,14,08,28,27,,,,1.38,0.69,1.19,4*0A
$GPGSV,3,1,10,01,40,045,36,03,57,097,41,06,25,249,42,08,07,106,10,1*6D
$GPGSV,3,2,10,14,69,218,39,17,57,324,39,19,34,303,46,21,17,057,22,1*6E
$GPGSV,3,3,10,28,,,43,30,07,212,09,1*54
$GPGSV,2,1,06,01,40,045,35,03,57,097,38,06,25,249,38,08,07,106,16,6*6A
$GPGSV,2,2,06,14,69,218,36,17,57,324,32,6*61
$GPGSV,1,1,02,04,00,128,,50,47,179,,0*61
$GLGSV,2,1,06,69,15,035,22,70,32,099,11,71,12,147,18,75,37,213,39,1*74
$GLGSV,2,2,06,76,44,293,40,85,48,023,42,1*75
$GLGSV,1,1,04,69,15,035,25,75,37,213,33,76,44,293,40,85,48,023,35,3*79
$GLGSV,1,1,03,77,10,334,,84,04,067,,86,45,307,,0*4D
$GAGSV,2,1,05,13,53,273,36,15,59,030,39,18,75,033,34,21,41,305,35,2*7C
$GAGSV,2,2,05,27,61,213,41,2*44
$GAGSV,2,1,06,03,12,100,22,15,59,030,41,18,75,033,42,21,41,305,43,7*73
$GAGSV,2,2,06,27,61,213,37,34,13,058,22,7*7B
$GAGSV,2,1,05,01,00,327,,05,06,051,,08,03,147,,26,04,249,,0*74
$GAGSV,2,2,05,26,04,249,,0*4E
$GBGSV,3,1,10,01,43,152,39,03,43,205,35,04,,,31,07,81,262,37,1*40
$GBGSV,3,2,10,08,45,221,38,10,69,294,41,14,36,087,38,27,26,284,42,1*7C
$GBGSV,3,3,10,28,66,342,47,37,37,246,42,1*7D
$GBGSV,2,1,06,01,43,152,29,03,43,205,30,07,81,262,36,08,45,221,37,3*7B
$GBGSV,2,2,06,10,69,294,40,14,36,087,36,3*7D
$GNRMC,030447.00,A,3726.8884098,N,12639.2929198,E,0.017,,210622,,,F,V*16
$GNVTG,,T,,M,0.017,N,0.031,K,D*3C
$GNGNS,030447.00,3726.8884098,N,12639.2929198,E,FFFF,25,0.69,15.718,17.840,2.0,4095,V*08
$GNGGA,030447.00,3726.8884098,N,12639.2929198,E,5,12,0.69,15.718,M,17.840,M,2.0,4095*58
$GNGSA,A,3,03,14,21,17,01,06,19,,,,,,1.38,0.69,1.19,1*01
$GNGSA,A,3,85,75,76,69,,,,,,,,,1.38,0.69,1.19,2*0F
$GNGSA,A,3,13,21,15,27,03,,,,,,,,1.38,0.69,1.19,3*0C
$GNGSA,A,3,07,37,03,10,01,14,08,28,27,,,,1.38,0.69,1.19,4*0A
$GPGSV,3,1,10,01,40,045,39,03,57,097,41,06,25,249,38,08,07,106,11,1*6E
$GPGSV,3,2,10,14,69,218,39,17,57,324,39,19,34,303,45,21,17,057,25,1*6A
$GPGSV,3,3,10,28,,,44,30,07,212,09,1*53
$GPGSV,2,1,06,01,40,045,36,03,57,097,39,06,25,249,38,08,07,106,15,6*6B
$GPGSV,2,2,06,14,69,218,37,17,57,324,32,6*60
$GPGSV,1,1,02,04,00,128,,50,47,179,,0*61
$GLGSV,2,1,06,69,15,035,25,70,32,099,09,71,12,147,18,75,37,213,39,1*7A
$GLGSV,2,2,06,76,44,293,39,85,48,023,42,1*7B
$GLGSV,1,1,04,69,15,035,25,75,37,213,32,76,44,293,41,85,48,023,34,3*78
$GLGSV,1,1,03,77,10,334,,84,04,067,,86,45,307,,0*4D
$GAGSV,2,1,05,13,53,273,36,15,59,030,40,18,75,033,35,21,41,305,35,2*73
$GAGSV,2,2,05,27,61,213,41,2*44
$GAGSV,2,1,06,03,12,100,23,15,59,030,41,18,75,033,43,21,41,305,42,7*72
$GAGSV,2,2,06,27,61,213,39,34,13,058,22,7*75
$GAGSV,2,1,05,01,00,327,,05,06,051,,08,03,147,,26,04,249,,0*74
$GAGSV,2,2,05,26,04,249,,0*4E
$GBGSV,3,1,10,01,43,152,39,03,43,205,35,04,,,30,07,81,262,36,1*40
$GBGSV,3,2,10,08,45,221,38,10,69,294,41,14,36,087,38,27,26,284,45,1*7B
$GBGSV,3,3,10,28,66,342,47,37,37,246,40,1*7F
$GBGSV,2,1,06,01,43,152,27,03,43,205,31,07,81,262,36,08,45,221,37,3*74
$GBGSV,2,2,06,10,69,294,41,14,36,087,36,3*7C
$GNRMC,030448.00,A,3726.8884133,N,12639.2929200,E,0.008,,210622,,,F,V*15
$GNGGA,030448.00,3726.8884133,N,12639.2929200,E,5,12,0.69,15.729,M,17.840,M,2.0,4095*57
$GAGSV,2,1,05,01,00,327,,05,06,051,,08,03,147,,26,04,249,,0*74
$GAGSV,2,2,05,26,04,249,,0*4E
$GBGSV,3,1,10,01,43,152,37,03,43,205,37,04,,,31,07,81,262,33,1*48
$GBGSV,3,2,10,08,45,221,36,10,69,294,42,14,36,087,38,27,26,284,45,1*76
$GBGSV,3,3,10,28,66,342,47,37,37,246,38,1*70
$GNRMC,030449.00,A,3726.8884170,N,12639.2929185,E,0.006,,210622,,,F,V*13
$GNVTG,,T,,M,0.006,N,0.010,K,D*3F
$GNGNS,030449.00,3726.8884170,N,12639.2929185,E,FFFF,24,0.69,15.721,17.840,2.0,4095,V*06
$GNGGA,030449.00,3726.8884170,N,12639.2929185,E,5,12,0.69,15.721,M,17.840,M,2.0,4095*57
$GNGSA,A,3,03,14,21,17,01,06,19,,,,,,1.38,0.69,1.19,1*01
$GNGSA,A,3,85,75,76,69,,,,,,,,,1.38,0.69,1.19,2*0F
$GNGSA,A,3,13,21,15,27,03,,,,,,,,1.38,0.69,1.19,3*0C
$GNGSA,A,3,07,37,03,10,01,14,08,28,27,,,,1.38,0.69,1.19,4*0A
$GPGSV,3,1,10,01,40,045,38,03,57,097,41,06,25,249,30,08,07,106,15,1*63
$GPGSV,3,2,10,14,69,218,40,17,57,324,39,19,34,303,45,21,16,057,25,1*65
$GPGSV,3,3,10,28,,,45,30,07,212,11,1*5B
$GPGSV,2,1,06,01,40,045,36,03,57,097,39,06,25,249,35,08,07,106,14,6*67
$GPGSV,2,2,06,14,69,218,36,17,57,324,33,6*60
$GPGSV,1,1,02,04,00,128,,50,47,179,,0*61
$GLGSV,2,1,06,69,15,035,23,70,32,099,12,71,12,147,23,75,37,213,41,1*71
$GLGSV,2,2,06,76,44,293,38,85,48,023,42,1*7A
$GLGSV,1,1,04,69,15,035,25,75,37,213,29,76,44,293,41,85,48,023,33,3*75
$GLGSV,1,1,03,77,10,334,,84,04,067,,86,45,307,,0*4D
$GAGSV,2,1,05,13,53,273,40,15,59,030,39,18,75,033,34,21,41,305,34,2*7C
$GAGSV,2,2,05,27,61,213,41,2*44
$GAGSV,2,1,07,03,12,100,26,13,53,273,24,15,59,030,41,18,75,033,43,7*74
$GAGSV,2,2,07,21,41,305,44,27,61,213,41,34,13,058,19,7*43
$GAGSV,2,1,05,01,00,327,,05,06,051,,08,03,147,,26,04,249,,0*74
$GAGSV,2,2,05,26,04,249,,0*4E
$GBGSV,3,1,10,01,43,152,38,03,43,205,37,04,,,30,07,81,262,34,1*41
$GBGSV,3,2,10,08,45,221,36,10,69,294,42,14,36,087,38,27,27,284,44,1*76
$GBGSV,3,3,10,28,66,342,46,37,37,246,39,1*70
$GBGSV,2,1,06,01,43,152,28,03,43,205,33,07,81,262,36,08,45,221,38,3*76
$GBGSV,2,2,06,10,69,294,42,14,36,087,38,3*71
$GNRMC,030450.00,A,3726.8884169,N,12639.2929189,E,0.010,,210622,,,F,V*18
$GNVTG,,T,,M,0.010,N,0.018,K,D*30
$GNGNS,030450.00,3726.8884169,N,12639.2929189,E,FFFF,25,0.69,15.732,17.840,2.0,4095,V*09
$GNGGA,030450.00,3726.8884169,N,12639.2929189,E,5,12,0.69,15.732,M,17.840,M,2.0,4095*59
$GNGSA,A,3,03,14,21,17,01,06,19,,,,,,1.38,0.69,1.19,1*01
$GNGSA,A,3,85,75,76,69,,,,,,,,,1.38,0.69,1.19,2*0F
$GNGSA,A,3,13,21,15,27,03,,,,,,,,1.38,0.69,1.19,3*0C
$GNGSA,A,3,07,37,03,10,01,14,08,28,27,,,,1.38,0.69,1.19,4*0A
$GPGSV,3,1,10,01,40,045,38,03,57,097,42,06,25,249,32,08,07,106,15,1*62
$GPGSV,3,2,10,14,69,218,40,17,57,324,41,19,34,303,43,21,16,057,24,1*6D
$GPGSV,3,3,10,28,,,44,30,07,212,09,1*53
$GPGSV,2,1,06,01,40,045,37,03,57,097,39,06,25,249,34,08,07,106,12,6*61
$GPGSV,2,2,06,14,69,218,37,17,57,324,33,6*61
$GPGSV,1,1,02,04,00,128,,50,47,179,,0*61
$GLGSV,2,1,06,69,15,035,21,70,32,099,11,71,12,147,24,75,37,213,40,1*76
$GLGSV,2,2,06,76,44,293,40,85,48,023,41,1*76
$GLGSV,1,1,04,69,15,035,24,75,37,213,30,76,44,293,40,85,48,023,33,3*7D
$GLGSV,1,1,03,77,10,334,,84,04,067,,86,45,307,,0*4D
$GAGSV,2,1,05,13,53,273,39,15,59,030,39,18,75,033,32,21,41,305,37,2*77
$GAGSV,2,2,05,27,61,213,41,2*44
$GAGSV,2,1,06,03,12,100,26,15,59,030,42,18,75,033,44,21,41,305,42,7*73
$GAGSV,2,2,06,27,61,213,39,34,13,058,18,7*7C
$GAGSV,2,1,05,01,00,327,,05,06,051,,08,03,147,,26,04,249,,0*74
$GAGSV,2,2,05,26,04,249,,0*4E
$GBGSV,3,1,10,01,43,152,38,03,43,205,36,04,,,31,07,81,262,33,1*46
$GBGSV,3,2,10,08,45,221,37,10,69,294,43,14,36,087,38,27,27,284,45,1*77
$GBGSV,3,3,10,28,66,342,46,37,37,246,37,1*7E
$GNRMC,030451.00,A,3726.8884153,N,12639.2929190,E,0.007,,210622,,,F,V*1E
$GNVTG,,T,,M,0.007,N,0.013,K,D*3D
$GNGNS,030451.00,3726.8884153,N,12639.2929190,E,FFFF,24,0.69,15.728,17.840,2.0,4095,V*03
$GNGGA,030451.00,3726.8884153,N,12639.2929190,E,5,12,0.69,15.728,M,17.840,M,2.0,4095*52
$GNGSA,A,3,03,14,21,17,01,06,19,,,,,,1.38,0.69,1.19,1*01
$GNGSA,A,3,85,75,76,69,,,,,,,,,1.38,0.69,1.19,2*0F
$GNGSA,A,3,13,21,15,27,03,,,,,,,,1.38,0.69,1.19,3*0C
$GNGSA,A,3,07,37,03,10,01,14,08,28,27,,,,1.38,0.69,1.19,4*0A
$GPGSV,3,1,10,01,40,045,38,03,57,097,42,06,25,249,33,08,07,106,14,1*62
$GPGSV,3,2,10,14,69,218,38,17,57,324,41,19,34,303,41,21,16,057,22,1*66
$GPGSV,3,3,10,28,,,44,30,07,212,11,1*5A
$GPGSV,2,1,06,01,40,045,37,03,57,097,39,06,25,249,34,08,07,106,12,6*61
$GPGSV,2,2,06,14,69,218,38,17,57,324,33,6*6E
$GPGSV,1,1,02,04,00,128,,50,47,179,,0*61
$GLGSV,2,1,05,69,15,035,20,71,12,147,24,75,37,213,39,76,44,293,39,1*7F
$GLGSV,2,2,05,85,48,023,41,1*48
$GLGSV,1,1,04,69,15,035,24,75,37,213,35,76,44,293,42,85,48,023,34,3*7D
$GLGSV,1,1,04,70,32,099,,77,10,334,,84,04,067,,86,45,307,,0*7C
$GAGSV,2,1,05,13,53,273,39,15,59,030,40,18,75,033,33,21,41,305,35,2*7A
$GAGSV,2,2,05,27,61,213,41,2*44
$GAGSV,2,1,06,03,12,100,26,15,59,030,42,18,75,033,41,21,41,305,42,7*76
$GAGSV,2,2,06,27,61,213,40,34,13,058,18,7*72
$GAGSV,2,1,05,01,00,327,,05,06,051,,08,03,147,,26,04,249,,0*74
$GAGSV,2,2,05,26,04,249,,0*4E
$GBGSV,3,1,10,01,43,152,38,03,43,205,36,04,,,31,07,81,262,32,1*47
$GBGSV,3,2,10,08,45,221,37,10,69,294,42,14,36,087,36,27,27,284,45,1*78
$GBGSV,3,3,10,28,66,342,46,37,37,246,37,1*7E
$GBGSV,2,1,06,01,43,152,30,03,43,205,34,07,81,262,36,08,45,221,39,3*79
$GBGSV,2,2,06,10,69,294,44,14,36,087,39,3*76
$GNRMC,030452.00,A,3726.8884143,N,12639.2929201,E,0.016,,210622,,,F,V*17
$GNVTG,,T,,M,0.016,N,0.030,K,D*3C
$GNGNS,030452.00,3726.8884143,N,12639.2929201,E,FFFF,24,0.69,15.726,17.840,2.0,4095,V*04
$GNGGA,030452.00,3726.8884143,N,12639.2929201,E,5,12,0.69,15.726,M,17.840,M,2.0,4095*55
$GNGSA,A,3,03,14,21,17,01,06,19,,,,,,1.38,0.69,1.19,1*01
$GNGSA,A,3,85,75,76,69,,,,,,,,,1.38,0.69,1.19,2*0F
$GNGSA,A,3,13,21,15,27,03,,,,,,,,1.38,0.69,1.19,3*0C
$GNGSA,A,3,07,37,03,10,01,14,08,28,27,,,,1.38,0.69,1.19,4*0A
$GPGSV,3,1,10,01,40,045,38,03,57,097,43,06,25,249,31,08,07,106,14,1*61
$GPGSV,3,2,10,14,69,218,38,17,57,324,41,19,34,303,40,21,16,057,19,1*6F
$GPGSV,3,3,10,28,,,45,30,07,212,08,1*53
$GPGSV,2,1,06,01,40,045,36,03,57,097,39,06,25,249,34,08,07,106,10,6*62
$GPGSV,2,2,06,14,69,218,38,17,57,324,33,6*6E
$GPGSV,1,1,02,04,00,128,,50,47,179,,0*61
$GLGSV,2,1,05,69,15,035,18,71,12,147,25,75,37,213,40,76,44,293,39,1*7B
$GLGSV,2,2,05,85,48,023,41,1*48
$GLGSV,1,1,04,69,15,035,25,75,37,213,35,76,44,293,42,85,48,023,35,3*7D
$GLGSV,1,1,04,70,32,099,,77,10,334,,84,04,067,,86,45,307,,0*7C
$GAGSV,2,1,05,13,53,273,39,15,59,030,40,18,75,033,34,21,41,305,36,2*7E
$GAGSV,2,2,05,27,61,213,43,2*46
$GAGSV,2,1,06,03,12,100,26,15,59,030,40,18,75,033,43,21,41,305,43,7*77
$GAGSV,2,2,06,27,61,213,38,34,13,058,20,7*76
$GAGSV,2,1,05,01,00,327,,05,06,051,,08,03,147,,26,04,249,,0*74
$GAGSV,2,2,05,26,04,249,,0*4E
$GBGSV,3,1,10,01,43,152,38,03,43,205,36,04,,,31,07,81,262,35,1*40
$GBGSV,3,2,10,08,45,221,37,10,69,293,42,14,36,087,38,27,27,284,47,1*73
$GBGSV,3,3,10,28,66,342,45,37,37,246,38,1*72
$GBGSV,2,1,06,01,43,152,30,03,43,205,34,07,81,262,36,08,45,221,39,3*79
$GBGSV,2,2,06,10,69,293,43,14,36,087,39,3*76
$GNRMC,030453.00,A,3726.8884142,N,12639.2929200,E,0.008,,210622,,,F,V*19
$GNVTG,,T,,M,0.008,N,0.015,K,D*34
$GNGNS,030453.00,3726.8884142,N,12639.2929200,E,FFFF,25,0.69,15.718,17.840,1.0,4095,V*0A
$GNGGA,030453.00,3726.8884142,N,12639.2929200,E,5,12,0.69,15.718,M,17.840,M,1.0,4095*5A
$GNGSA,A,3,03,14,21,17,01,06,19,,,,,,1.38,0.69,1.19,1*01
$GNGSA,A,3,85,75,76,69,,,,,,,,,1.38,0.69,1.19,2*0F
$GNGSA,A,3,13,21,15,27,03,,,,,,,,1.38,0.69,1.19,3*0C
$GNGSA,A,3,07,37,03,10,01,14,08,28,27,,,,1.38,0.69,1.19,4*0A
$GPGSV,3,1,10,01,40,045,39,03,57,097,42,06,25,249,31,08,07,106,12,1*67
$GPGSV,3,2,10,14,69,218,40,17,57,324,41,19,34,303,42,21,16,057,20,1*68
$GPGSV,3,3,10,28,,,45,30,07,212,10,1*5A
$GPGSV,2,1,05,01,40,045,36,03,57,097,39,06,25,249,33,14,69,218,38,6*65
$GPGSV,2,2,05,17,57,324,34,6*50
$GPGSV,1,1,02,04,00,128,,50,47,179,,0*61
$GLGSV,2,1,05,69,15,035,20,71,12,147,25,75,37,213,40,76,44,293,40,1*7E
$GLGSV,2,2,05,85,48,023,41,1*48
$GLGSV,1,1,04,69,15,035,23,75,37,213,35,76,44,293,42,85,48,023,34,3*7A
$GLGSV,1,1,04,70,32,099,,77,10,334,,84,04,067,,86,45,307,,0*7C
$GAGSV,2,1,05,13,53,273,39,15,59,030,40,18,75,033,33,21,41,305,36,2*79
$GAGSV,2,2,05,27,61,213,41,2*44
$GAGSV,2,1,06,03,12,100,25,15,59,030,40,18,75,033,42,21,41,305,43,7*75
$GAGSV,2,2,06,27,61,213,38,34,13,058,22,7*74
$GAGSV,2,1,05,01,00,327,,05,06,051,,08,03,147,,26,04,249,,0*74
$GAGSV,2,2,05,26,04,249,,0*4E
$GBGSV,3,1,10,01,43,152,37,03,43,205,35,04,,,31,07,81,262,34,1*4D
$GBGSV,3,2,10,08,45,221,38,10,69,293,42,14,36,087,37,27,27,284,46,1*72
$GBGSV,3,3,10,28,66,342,46,37,37,246,40,1*7E
$GBGSV,2,1,06,01,43,152,30,03,43,205,34,07,81,262,36,08,45,221,39,3*79
$GBGSV,2,2,06,10,69,293,42,14,36,087,40,3*79
$GNRMC,030454.00,A,3726.8884109,N,12639.2929223,E,0.012,,210622,,,F,V*1B
$GNVTG,,T,,M,0.012,N,0.022,K,D*3B
$GNGNS,030454.00,3726.8884109,N,12639.2929223,E,FFFF,24,0.69,15.724,17.840,2.0,4095,V*0E
$GNGGA,030454.00,3726.8884109,N,12639.2929223,E,5,12,0.69,15.724,M,17.840,M,2.0,4095*5F
$GNGSA,A,3,03,14,21,17,01,06,19,,,,,,1.38,0.69,1.19,1*01
$GNGSA,A,3,85,75,76,69,,,,,,,,,1.38,0.69,1.19,2*0F
$GNGSA,A,3,13,21,15,27,03,,,,,,,,1.38,0.69,1.19,3*0C
$GNGSA,A,3,07,37,03,10,01,14,08,28,27,,,,1.38,0.69,1.19,4*0A
$GPGSV,3,1,10,01,40,045,39,03,57,097,42,06,25,249,29,08,07,106,12,1*6E
$GPGSV,3,2,10,14,69,218,42,17,57,324,42,19,34,303,41,21,16,057,22,1*68
$GPGSV,3,3,10,28,,,44,30,07,212,08,1*52
$GPGSV,2,1,05,01,40,045,36,03,57,097,39,06,25,249,33,14,69,218,37,6*6A
$GPGSV,2,2,05,17,57,324,34,6*50
$GPGSV,1,1,02,04,00,128,,50,47,179,,0*61
$GLGSV,2,1,05,69,15,035,20,71,12,147,25,75,37,213,39,76,44,293,41,1*71
$GLGSV,2,2,05,85,48,023,40,1*49
$GLGSV,1,1,04,69,15,035,22,75,37,213,35,76,44,293,42,85,48,023,34,3*7B
$GLGSV,1,1,04,70,32,099,,77,10,334,,84,04,067,,86,45,307,,0*7C
$GAGSV,2,1,05,13,53,273,39,15,59,030,40,18,75,033,35,21,41,305,39,2*70
$GAGSV,2,2,05,27,61,213,42,2*47
$GAGSV,2,1,06,03,12,100,26,15,59,030,40,18,75,033,42,21,41,305,42,7*77
$GAGSV,2,2,06,27,61,213,38,34,13,058,22,7*74
$GAGSV,2,1,05,01,00,327,,05,06,051,,08,03,147,,26,04,249,,0*74
$GAGSV,2,2,05,26,04,249,,0*4E
$GBGSV,3,1,10,01,43,152,38,03,43,205,34,04,,,30,07,81,262,32,1*44
$GBGSV,3,2,10,08,45,221,37,10,69,293,42,14,36,087,37,27,27,284,46,1*7D
$GBGSV,3,3,10,28,66,342,45,37,37,246,39,1*73
$GBGSV,2,1,06,01,43,152,31,03,43,205,33,07,81,262,37,08,45,221,39,3*7E
$GBGSV,2,2,06,10,69,293,43,14,36,087,40,3*78
$GNRMC,030455.00,A,3726.8884115,N,12639.2929231,E,0.012,,210622,,,F,V*14
$GNVTG,,T,,M,0.012,N,0.022,K,D*3B
$GNGNS,030455.00,3726.8884115,N,12639.2929231,E,FFFF,24,0.69,15.731,17.840,2.0,4095,V*05
$GNGGA,030455.00,3726.8884115,N,12639.2929231,E,5,12,0.69,15.731,M,17.840,M,2.0,4095*54
$GNGSA,A,3,03,14,21,17,01,06,19,,,,,,1.38,0.69,1.19,1*01
$GNGSA,A,3,85,75,76,69,,,,,,,,,1.38,0.69,1.19,2*0F
$GNGSA,A,3,13,21,15,27,03,,,,,,,,1.38,0.69,1.19,3*0C
$GNGSA,A,3,07,37,03,10,01,14,08,28,27,,,,1.38,0.69,1.19,4*0A
$GPGSV,3,1,10,01,40,045,39,03,57,097,40,06,25,249,28,08,07,106,14,1*6B
$GPGSV,3,2,10,14,69,218,41,17,57,324,40,19,34,303,42,21,16,057,21,1*69
$GPGSV,3,3,10,28,,,44,30,06,212,08,1*53
$GPGSV,2,1,05,01,40,045,37,03,57,097,39,06,25,249,33,14,69,218,37,6*6B
$GPGSV,2,2,05,17,57,324,34,6*50
$GPGSV,1,1,02,04,00,128,,50,47,179,,0*61
$GLGSV,2,1,05,69,15,035,21,71,12,147,25,75,37,213,38,76,44,293,40,1*70
$GLGSV,2,2,05,85,48,023,40,1*49
$GLGSV,1,1,04,69,15,035,21,75,37,213,35,76,44,293,42,85,48,023,34,3*78
$GLGSV,1,1,04,70,32,099,,77,10,334,,84,04,067,,86,45,307,,0*7C
$GAGSV,2,1,05,13,53,273,41,15,59,030,39,18,75,033,34,21,41,305,37,2*7E
$GAGSV,2,2,05,27,61,213,42,2*47
$GAGSV,2,1,06,03,12,100,26,15,59,030,40,18,75,033,41,21,41,305,43,7*75
$GAGSV,2,2,06,27,61,213,39,34,13,058,23,7*74
$GAGSV,2,1,05,01,00,327,,05,06,051,,08,03,147,,26,04,249,,0*74
$GAGSV,2,2,05,26,04,249,,0*4E
$GBGSV,3,1,10,01,43,152,38,03,43,205,33,04,,,31,07,81,262,31,1*41
$GBGSV,3,2,10,08,45,221,37,10,69,293,42,14,36,087,37,27,27,284,44,1*7F
$GBGSV,3,3,10,28,66,342,45,37,37,246,39,1*73
$GBGSV,2,1,06,01,43,152,29,03,43,205,33,07,81,262,37,08,45,221,38,3*76
$GBGSV,2,2,06,10,69,293,43,14,36,087,40,3*78
$GNRMC,030456.00,A,3726.8884085,N,12639.2929220,E,0.028,,210622,,,F,V*16
$GNVTG,,T,,M,0.028,N,0.052,K,D*35
$GNGNS,030456.00,3726.8884085,N,12639.2929220,E,FFFF,25,0.69,15.726,17.840,2.0,4095,V*09
$GNGGA,030456.00,3726.8884085,N,12639.2929220,E,5,12,0.69,15.726,M,17.840,M,2.0,4095*59
$GNGSA,A,3,03,14,21,17,01,06,19,,,,,,1.38,0.69,1.19,1*01
$GNGSA,A,3,85,75,76,69,,,,,,,,,1.38,0.69,1.19,2*0F
$GNGSA,A,3,13,21,15,27,03,,,,,,,,1.38,0.69,1.19,3*0C
$GNGSA,A,3,07,37,03,10,01,14,08,28,27,,,,1.38,0.69,1.19,4*0A
$GPGSV,3,1,10,01,40,045,38,03,57,097,39,06,25,249,29,08,07,106,11,1*60
$GPGSV,3,2,10,14,69,218,42,17,57,324,39,19,34,303,43,21,16,057,20,1*64
$GPGSV,3,3,10,28,,,44,30,06,212,12,1*58
$GPGSV,2,1,06,01,40,045,38,03,57,097,40,06,25,249,36,08,07,106,22,6*61
$GPGSV,2,2,06,14,69,218,38,17,57,324,35,6*68
$GPGSV,1,1,02,04,00,128,,50,47,179,,0*61
$GLGSV,2,1,05,69,15,035,29,71,12,147,24,75,37,213,39,76,44,293,41,1*79
$GLGSV,2,2,05,85,48,023,40,1*49
$GLGSV,1,1,04,69,15,035,22,75,37,213,36,76,44,293,42,85,48,023,34,3*78
$GLGSV,1,1,04,70,32,099,,77,10,334,,84,04,067,,86,45,307,,0*7C
$GAGSV,2,1,05,13,53,273,42,15,59,030,40,18,75,033,34,21,41,305,37,2*73
$GAGSV,2,2,05,27,61,213,42,2*47
$GAGSV,2,1,06,03,12,100,26,15,59,030,40,18,75,033,40,21,41,305,43,7*74
$GAGSV,2,2,06,27,61,213,39,34,13,058,23,7*74
$GAGSV,2,1,05,01,00,327,,05,06,051,,08,03,147,,26,04,249,,0*74
$GAGSV,2,2,05,26,04,249,,0*4E
$GBGSV,3,1,10,01,43,152,38,03,43,205,33,04,,,31,07,81,262,32,1*42
$GBGSV,3,2,10,08,45,221,37,10,69,293,42,14,36,087,37,27,27,284,44,1*7F
$GBGSV,3,3,10,28,66,342,46,37,37,246,40,1*7E
$GBGSV,2,1,06,01,43,152,30,03,43,205,33,07,81,262,38,08,45,221,38,3*71
$GBGSV,2,2,06,10,69,293,43,14,36,087,39,3*76
$GNRMC,030457.00,A,3726.8884086,N,12639.2929231,E,0.009,,210622,,,F,V*17
$GNVTG,,T,,M,0.009,N,0.017,K,D*37
$GNGNS,030457.00,3726.8884086,N,12639.2929231,E,FFFF,24,0.69,15.731,17.840,2.0,4095,V*0C
$GNGGA,030457.00,3726.8884086,N,12639.2929231,E,5,12,0.69,15.731,M,17.840,M,2.0,4095*5D
$GNGSA,A,3,03,14,21,17,01,06,19,,,,,,1.38,0.69,1.19,1*01
$GNGSA,A,3,85,75,76,69,,,,,,,,,1.38,0.69,1.19,2*0F
$GNGSA,A,3,13,21,15,27,03,,,,,,,,1.38,0.69,1.19,3*0C
$GNGSA,A,3,07,37,03,10,01,14,08,28,27,,,,1.38,0.69,1.19,4*0A
$GPGSV,3,1,10,01,40,045,39,03,57,097,41,06,25,249,34,08,07,106,12,1*61
$GPGSV,3,2,10,14,69,218,42,17,57,324,39,19,34,303,45,21,16,057,20,1*62
$GPGSV,3,3,10,28,,,43,30,06,212,10,1*5D
$GPGSV,1,1,01,30,06,212,14,5*50
$GPGSV,2,1,06,01,40,045,37,03,57,097,40,06,25,249,36,08,07,106,18,6*67
$GPGSV,2,2,06,14,69,218,38,17,57,324,33,6*6E
$GPGSV,1,1,02,04,00,128,,50,47,179,,0*61
$GLGSV,2,1,05,69,15,035,27,71,12,147,23,75,37,213,35,76,44,293,42,1*7F
$GLGSV,2,2,05,85,48,023,40,1*49
$GLGSV,2,1,05,69,15,035,22,71,12,147,21,75,37,213,36,76,44,293,41,3*7A
$GLGSV,2,2,05,85,48,023,34,3*48
$GLGSV,1,1,04,70,32,099,,77,10,334,,84,04,067,,86,45,307,,0*7C
$GAGSV,2,1,05,13,53,273,42,15,59,030,40,18,75,033,35,21,41,305,38,2*7D
$GAGSV,2,2,05,27,61,213,42,2*47
$GAGSV,2,1,07,03,12,100,25,13,53,273,27,15,59,030,40,18,75,033,41,7*77
$GAGSV,2,2,07,21,41,305,43,27,61,213,39,34,13,058,23,7*42
$GAGSV,2,1,05,01,00,327,,05,06,051,,08,03,147,,26,04,249,,0*74
$GAGSV,2,2,05,26,04,249,,0*4E
$GBGSV,3,1,10,01,43,152,38,03,43,205,28,04,,,31,07,81,262,34,1*4E
$GBGSV,3,2,10,08,45,221,41,10,69,293,42,14,36,087,36,27,27,284,44,1*7F
$GBGSV,3,3,10,28,66,342,45,37,37,246,40,1*7D
$GBGSV,2,1,06,01,43,152,30,03,43,205,33,07,81,262,37,08,45,221,38,3*7E
$GBGSV,2,2,06,10,69,293,42,14,36,087,37,3*79
$GNRMC,030458.00,A,3726.8884079,N,12639.2929296,E,0.037,,210622,,,F,V*18
$GNVTG,,T,,M,0.037,N,0.068,K,D*32
$GNGNS,030458.00,3726.8884079,N,12639.2929296,E,FFFF,25,0.69,15.707,17.840,2.0,4095,V*0A
$GNGGA,030458.00,3726.8884079,N,12639.2929296,E,5,12,0.69,15.707,M,17.840,M,2.0,4095*5A
$GNGSA,A,3,03,14,21,17,01,06,19,,,,,,1.38,0.69,1.19,1*01
$GNGSA,A,3,85,75,76,69,,,,,,,,,1.38,0.69,1.19,2*0F
$GNGSA,A,3,13,21,15,27,03,,,,,,,,1.38,0.69,1.19,3*0C
$GNGSA,A,3,07,37,03,10,01,14,08,28,27,,,,1.38,0.69,1.19,4*0A
$GPGSV,3,1,10,01,40,045,38,03,57,097,40,06,25,249,39,08,07,106,08,1*67
$GPGSV,3,2,10,14,69,218,43,17,57,324,42,19,34,303,45,21,16,057,21,1*6E
$GPGSV,3,3,10,28,,,46,30,06,212,08,1*51
$GPGSV,2,1,07,01,40,045,37,03,57,097,40,06,25,249,38,08,07,106,14,6*64
$GPGSV,2,2,07,14,69,218,39,17,57,324,34,30,06,212,12,6*5E
$GPGSV,1,1,02,04,00,128,,50,47,179,,0*61
$GNRMC,030459.00,A,3726.8884112,N,12639.2929261,E,0.003,,210622,,,F,V*1A
$GNVTG,,T,,M,0.003,N,0.006,K,D*3D
$GNGNS,030459.00,3726.8884112,N,12639.2929261,E,FFFF,25,0.69,15.722,17.840,2.0,4095,V*08
$GNGGA,030459.00,3726.8884112,N,12639.2929261,E,5,12,0.69,15.722,M,17.840,M,2.0,4095*58
$GNGSA,A,3,03,14,21,17,01,06,19,,,,,,1.38,0.69,1.19,1*01
$GNGSA,A,3,85,75,76,69,,,,,,,,,1.38,0.69,1.19,2*0F
$GNGSA,A,3,13,21,15,27,03,,,,,,,,1.38,0.69,1.19,3*0C
$GNGSA,A,3,07,37,03,10,01,14,08,28,27,,,,1.38,0.69,1.19,4*0A
$GPGSV,3,1,10,01,40,045,39,03,57,097,42,06,25,249,38,08,07,106,13,1*6F
$GPGSV,3,2,10,14,69,218,43,17,57,324,40,19,34,303,43,21,16,057,20,1*6B
$GPGSV,3,3,10,28,,,46,30,06,212,10,1*58
$GPGSV,2,1,06,01,40,045,37,03,57,097,40,06,25,249,39,08,07,106,12,6*62
$GPGSV,2,2,06,14,69,218,39,17,57,324,34,6*68
$GPGSV,1,1,02,04,00,128,,50,47,179,,0*61
$GLGSV,2,1,05,69,15,035,25,71,12,147,19,75,37,213,36,76,44,293,41,1*74
$GLGSV,2,2,05,85,48,023,40,1*49
$GLGSV,2,1,05,69,15,035,25,71,12,147,21,75,37,213,38,76,44,293,42,3*70
$GLGSV,2,2,05,85,48,023,35,3*49
$GLGSV,1,1,04,70,32,099,,77,10,334,,84,04,067,,86,45,307,,0*7C
$GAGSV,2,1,06,13,53,273,41,15,59,030,41,18,75,033,34,21,41,305,38,2*7D
$GAGSV,2,2,06,27,61,213,44,30,18,164,22,2*7B
$GAGSV,2,1,07,03,12,100,26,13,53,273,33,15,59,030,40,18,75,033,41,7*71
$GAGSV,2,2,07,21,41,305,43,27,61,213,38,34,13,058,25,7*45
$GAGSV,1,1,04,01,00,327,,05,06,051,,08,03,147,,26,04,249,,0*76
$GBGSV,3,1,10,01,43,152,39,03,43,205,34,04,,,32,07,81,262,38,1*4D
$GBGSV,3,2,10,08,45,221,41,10,69,293,41,14,36,087,38,27,27,284,41,1*77
$GBGSV,3,3,10,28,66,342,46,37,37,246,44,1*7A
$GBGSV,2,1,06,01,43,152,29,03,43,205,35,07,81,262,38,08,45,221,37,3*70
$GBGSV,2,2,06,10,69,293,43,14,36,087,38,3*77
$GNRMC,030500.00,A,3726.8884089,N,12639.2929255,E,0.012,,210622,,,F,V*13
$GNVTG,,T,,M,0.012,N,0.023,K,D*3A
$GNGNS,030500.00,3726.8884089,N,12639.2929255,E,FFFF,25,0.69,15.722,17.840,2.0,4095,V*01
$GNGGA,030500.00,3726.8884089,N,12639.2929255,E,5,12,0.69,15.722,M,17.840,M,2.0,4095*51
$GNGSA,A,3,03,14,21,17,01,06,19,,,,,,1.38,0.69,1.19,1*01
$GNGSA,A,3,85,75,76,69,,,,,,,,,1.38,0.69,1.19,2*0F
$GNGSA,A,3,13,21,15,27,03,,,,,,,,1.38,0.69,1.19,3*0C
$GNGSA,A,3,07,37,03,10,01,14,08,28,27,,,,1.38,0.69,1.19,4*0A
$GPGSV,3,1,11,01,40,045,37,03,57,097,41,06,25,249,37,08,07,106,07,1*69
$GPGSV,3,2,11,14,69,218,41,17,57,324,40,19,34,303,43,21,16,057,18,1*63
$GPGSV,3,3,11,28,,,45,30,06,212,09,50,47,179,27,1*6E
$GPGSV,2,1,06,01,40,045,36,03,57,097,39,06,25,249,38,08,07,106,09,6*66
$GPGSV,2,2,06,14,69,218,39,17,57,324,34,6*68
$GPGSV,1,1,01,04,00,128,,0*5B
$GLGSV,2,1,05,69,15,035,24,71,12,147,20,75,37,213,39,76,44,293,40,1*71
$GLGSV,2,2,05,85,48,023,41,1*48
$GLGSV,2,1,05,69,15,035,25,71,12,147,20,75,37,213,38,76,44,293,42,3*71
$GLGSV,2,2,05,85,48,023,34,3*48
$GLGSV,1,1,04,70,32,099,,77,10,334,,84,04,067,,86,45,307,,0*7C
$GAGSV,2,1,06,13,53,273,40,15,59,030,41,18,75,033,33,21,41,305,38,2*7B
$GAGSV,2,2,06,27,61,213,43,30,18,164,21,2*7F
$GBGSV,3,2,10,08,45,221,41,10,69,293,40,14,36,087,38,27,27,284,43,1*74
$GBGSV,3,3,10,28,66,342,46,37,37,246,43,1*7D
$GBGSV,2,1,06,01,43,152,29,03,43,205,33,07,81,262,38,08,45,221,38,3*79
$GBGSV,2,2,06,10,69,293,42,14,36,087,35,3*7B
$GNRMC,030501.00,A,3726.8884056,N,12639.2929266,E,0.011,,210622,,,F,V*13
$GNVTG,,T,,M,0.011,N,0.020,K,D*3A
$GNGNS,030501.00,3726.8884056,N,12639.2929266,E,FFFF,24,0.69,15.718,17.840,2.0,4095,V*0A
$GNGSA,A,3,03,14,17,01,06,19,,,,,,,1.38,0.69,1.19,1*02
$GNGSA,A,3,85,75,76,69,,,,,,,,,1.38,0.69,1.19,2*0F
$GNGSA,A,3,13,21,15,27,03,,,,,,,,1.38,0.69,1.19,3*0C
$GNGSA,A,3,07,37,03,10,01,14,08,28,27,,,,1.38,0.69,1.19,4*0A
$GPGSV,3,1,10,01,40,045,38,03,57,097,41,06,25,249,38,08,07,106,10,1*6E
$GPGSV,3,2,10,14,69,218,42,17,57,324,41,19,34,303,43,28,,,45,1*54
$GPGSV,3,3,10,30,06,212,08,50,47,179,27,1*65
$GPGSV,2,1,06,01,40,045,34,03,57,097,37,06,25,249,36,08,07,106,08,6*65
$GPGSV,2,2,06,14,69,218,37,17,57,324,34,6*66
$GPGSV,1,1,02,04,00,128,,21,16,057,,0*6E
$GLGSV,2,1,05,69,15,035,25,71,12,147,20,75,37,213,38,76,44,293,40,1*71
$GLGSV,2,2,05,85,48,023,41,1*48
$GLGSV,2,1,05,69,15,035,23,71,12,147,19,75,37,213,36,76,44,293,39,3*7F
$GLGSV,2,2,05,85,48,023,31,3*4D
$GLGSV,1,1,04,70,32,099,,77,10,334,,84,04,067,,86,45,307,,0*7C
$GAGSV,2,1,07,03,12,100,22,13,53,273,38,15,59,030,39,18,75,033,35,2*76
$GAGSV,2,2,07,21,41,$GAGSV,2,1,07,03,12,100,26,13,53,273,32,15,59,030,40,18,75,033,41,7*70
$GAGSV,2,2,07,21,41,305,44,27,61,213,38,34,13,058,23,7*44
$GAGSV,1,1,04,01,00,327,,05,06,051,,08,03,147,,26,04,249,,0*76
$GBGSV,3,1,10,01,43,152,39,03,43,205,34,04,,,32,07,81,262,37,1*42
$GBGSV,3,2,10,08,45,221,40,10,69,293,40,14,36,087,37,27,27,284,45,1*7C
$GBGSV,3,3,10,28,66,342,46,37,37,246,43,1*7D
$GBGSV,2,1,06,01,43,152,29,03,43,205,34,07,81,262,37,08,45,221,36,3*7F
$GBGSV,2,2,06,10,69,293,41,14,36,087,36,3*7B
$GNRMC,030502.00,A,3726.8884093,N,12639.2929233,E,0.015,,210622,,,F,V*1D
$GNVTG,,T,,M,0.015,N,0.028,K,D*36
$GNGNS,030502.00,3726.8884093,N,12639.2929233,E,FFFF,24,0.69,15.724,17.840,2.0,4095,V*0F
$GNGGA,030502.00,3726.8884093,N,12639.2929233,E,5,12,0.69,15.724,M,17.840,M,2.0,4095*5E
$GNGSA,A,3,03,14,17,01,06,19,,,,,,,1.38,0.69,1.19,1*02
$GNGSA,A,3,85,75,76,69,,,,,,,,,1.38,0.69,1.19,2*0F
$GNGSA,A,3,13,21,15,27,03,,,,,,,,1.38,0.69,1.19,3*0C
$GNGSA,A,3,07,37,03,10,01,14,08,28,27,,,,1.38,0.69,1.19,4*0A
$GPGSV,3,1,10,01,40,045,38,03,57,097,42,06,25,249,38,08,07,106,11,1*6C
$GPGSV,3,2,10,14,69,218,41,17,57,324,40,19,34,303,44,28,,,45,1*51
$GPGSV,2,1,05,01,40,045,35,03,57,097,38,06,25,249,36,14,69,218,38,6*62
$GPGSV,2,2,05,17,57,324,33,6*57
$GPGSV,1,1,02,04,00,128,,21,16,057,,0*6E
$GLGSV,2,1,05,69,15,035,24,71,12,147,19,75,37,213,38,76,44,293,40,1*7A
$GLGSV,2,2,05,85,48,023,41,1*48
$GLGSV,2,1,05,69,15,035,22,71,12,147,16,75,37,213,36,76,44,293,40,3*7F
$GLGSV,2,2,05,85,48,023,31,3*4D
$GLGSV,1,1,04,70,32,099,,77,10,334,,84,04,067,,86,45,307,,0*7C
$GAGSV,2,1,07,03,12,100,21,13,53,273,39,15,59,030,41,18,75,033,35,2*7B
$GAGSV,2,2,07,21,41,305,39,27,61,213,43,30,18,164,18,2*4E
$GAGSV,2,1,07,03,12,100,25,13,53,273,30,15,59,030,40,18,75,033,40,7*70
$GAGSV,2,2,07,21,41,305,44,27,61,213,38,34,13,058,23,7*44
$GAGSV,1,1,04,01,00,327,,05,06,051,,08,03,147,,26,04,249,,0*76
$GBGSV,3,1,10,01,43,152,39,03,43,205,34,04,,,31,07,81,262,37,1*41
$GBGSV,3,2,10,08,45,221,40,10,69,293,40,14,36,087,37,27,27,284,45,1*7C
$GBGSV,3,3,10,28,66,342,45,37,37,246,44,1*79
$GBGSV,2,1,06,01,43,152,29,03,43,205,34,07,81,$GBGSV,2,2,06,10,69,293,42,14,36,087,36,3*78
$GNRMC,030503.00,A,3726.8884079,N,12639.2929242,E,0.015,,210622,,,F,V*1E
$GNVTG,,T,,M,0.015,N,0.028,K,D*36
$GNGNS,030503.00,3726.8884079,N,12639.2929242,E,FFFF,24,0.69,15.723,17.840,1.0,4095,V*08
$GNGGA,030503.00,3726.8884079,N,12639.2929242,E,5,12,0.69,15.723,M,17.840,M,1.0,4095*59
$GNGSA,A,3,03,14,17,01,06,19,,,,,,,1.38,0.69,1.19,1*02
$GNGSA,A,3,85,75,76,69,,,,,,,,,1.38,0.69,1.19,2*0F
$GNGSA,A,3,13,21,15,27,03,,,,,,,,1.38,0.69,1.19,3*0C
$GNGSA,A,3,07,37,03,10,01,14,08,28,27,,,,1.38,0.69,1.19,4*0A
$GPGSV,3,1,09,01,40,045,38,03,57,097,40,06,25,249,38,08,07,106,11,1*66
$GPGSV,3,2,09,14,69,218,42,17,57,324,41,19,34,303,44,28,,,45,1*5B
$GPGSV,3,3,09,30,06,212,12,1*5A
$GPGSV,2,1,05,01,40,045,35,03,57,097,38,06,25,249,37,14,69,218,38,6*63
$GPGSV,2,2,05,17,57,324,33,6*57
$GPGSV,1,1,03,04,00,128,,21,16,057,,50,47,179,,0*56
$GLGSV,2,1,05,69,15,035,24,71,12,147,20,75,37,213,38,76,44,293,40,1*70
$GLGSV,2,2,05,85,48,023,41,1*48
$GLGSV,2,1,05,69,15,035,20,71,12,147,16,75,37,213,37,76,44,293,41,3*7D
$GLGSV,2,2,05,85,48,023,32,3*4E
$GLGSV,1,1,04,70,32,099,,77,10,334,,84,04,067,,86,45,307,,0*7C
$GAGSV,2,1,07,03,12,100,19,13,53,273,39,15,59,030,40,18,75,033,34,2*70
$GAGSV,2,2,07,21,41,305,39,27,61,213,43,30,18,164,18,2*4E
$GAGSV,2,1,07,03,12,100,25,13,53,273,31,15,59,030,40,18,75,033,40,7*71
$GAGSV,2,2,07,21,41,305,44,27,61,213,39,34,13,058,22,7*44
$GAGSV,1,1,04,01,00,327,,05,06,051,,08,03,147,,26,04,249,,0*76
$GBGSV,3,1,10,01,43,152,39,03,43,205,34,04,,,32,07,81,262,37,1*42
$GBGSV,3,2,10,08,45,221,40,10,69,293,40,14,36,087,38,27,27,284,45,1*73
$GBGSV,3,3,10,28,66,342,46,37,37,246,44,1*7A
$GBGSV,2,1,06,01,43,152,29,03,43,205,33,07,81,262,38,08,45,221,38,3*79
$GBGSV,2,2,06,10,69,293,42,14,36,087,35,3*7B
$GNRMC,030504.00,A,3726.8884093,N,12639.2929235,E,0.007,,210622,,,F,V*1E
$GNVTG,,T,,M,0.007,N,0.013,K,D*3D
$GNGNS,030504.00,3726.8884093,N,12639.2929235,E,FFFF,24,0.69,15.726,17.840,2.0,4095,V*0D
$GNGSA,A,3,03,14,17,01,06,19,,,,,,,1.38,0.69,1.19,1*02
$GNGSA,A,3,85,75,76,69,,,,,,,,,1.38,0.69,1.19,2*0F
$GNGSA,A,3,13,21,15,27,03,,,,,,,,1.38,0.69,1.19,3*0C
$GNGSA,A,3,07,37,03,10,01,14,08,28,27,,,,1.38,0.69,1.19,4*0A
$GPGSV,2,1,08,01,40,045,37,03,57,097,41,06,25,249,38,14,69,218,42,1*67
$GPGSV,2,2,08,17,57,324,40,19,34,303,43,28,,,45,30,06,212,07,1*59
$GPGSV,2,1,05,01,40,045,36,03,57,097,38,06,25,249,37,14,69,218,38,6*60
$GPGSV,2,2,05,17,57,324,34,6*50
$GPGSV,1,1,04,04,00,128,,08,07,106,,21,16,057,,50,47,179,,0*69
$GLGSV,2,1,05,69,15,035,23,71,12,147,19,75,37,213,38,76,44,293,39,1*73
$GLGSV,2,2,05,85,48,023,41,1*48
$GLGSV,2,1,05,69,15,035,20,71,12,147,16,75,37,213,36,76,44,293,41,3*7C
$GLGSV,2,2,05,85,48,023,32,3*4E
$GLGSV,1,1,04,70,32,099,,77,10,334,,84,04,067,,86,45,307,,0*7C
$GAGSV,2,1,07,03,12,100,18,13,53,273,40,15,59,030,40,18,75,033,34,2*7F
$GAGSV,2,2,07,21,41,305,39,27,61,213,42,30,18,164,18,2*4F$GAGSV,2,1,07,03,12,100,23,13,53,273,30,15,59,030,39,18,75,033,40,7*78
$GAGSV,2,2,07,21,41,305,44,27,61,213,39,34,13,058,22,7*44
$GAGSV,1,1,04,01,00,327,,05,06,051,,08,03,147,,26,04,249,,0*76
$GBGSV,3,1,10,01,43,152,39,03,43,205,34,04,,,31,07,81,262,37,1*41
$GBGSV,3,2,10,08,45,221,40,10,69,293,40,14,36,087,37,27,27,284,45,1*7C
$GBGSV,3,3,10,28,66,342,45,37,37,246,43,1*7E
$GBGSV,2,1,06,01,43,152,29,03,43,205,33,07,81,262,38,08,45,221,38,3*79
$GBGSV,2,2,06,10,69,293,42,14,36,087,36,3*78
$GNRMC,030505.00,A,3726.8884066,N,12639.2929245,E,0.010,,210622,,,F,V*14
$GNVTG,,T,,M,0.010,N,0.019,K,D*31
$GNGNS,030505.00,3726.8884066,N,12639.2929245,E,FFFF,24,0.69,15.714,17.840,2.0,4095,V*00
$GNGGA,030505.00,3726.8884066,N,12639.2929245,E,5,12,0.69,15.714,M,17.840,M,2.0,4095*51
$GNGSA,A,3,03,14,17,01,06,19,,,,,,,1.38,0.69,1.19,1*02
$GNGSA,A,3,85,75,76,69,,,,,,,,,1.38,0.69,1.19,2*0F
$GNGSA,A,3,13,21,15,27,03,,,,,,,,1.38,0.69,1.19,3*0C
$GNGSA,A,3,07,37,03,10,01,14,08,28,27,,,,1.38,0.69,1.19,4*0A
$GPGSV,2,1,08,01,40,045,37,03,57,097,41,06,25,249,38,14,69,218,41,1*64
$GPGSV,2,2,08,17,57,324,40,19,34,303,44,28,,,46,30,06,212,07,1*5D
$GPGSV,2,1,05,01,40,045,36,03,57,097,38,06,25,249,36,14,69,218,39,6*60
$GPGSV,2,2,05,17,57,324,33,6*57
$GPGSV,1,1,04,04,00,128,,08,07,106,,21,16,057,,50,47,179,,0*69
$GLGSV,2,1,05,69,15,035,20,71,12,147,19,75,37,213,38,76,44,293,39,1*70
$GLGSV,2,2,05,85,48,023,42,1*4B
$GLGSV,2,1,05,69,15,035,19,71,12,147,15,75,37,213,37,76,44,293,41,3*74
$GLGSV,2,2,05,85,48,023,32,3*4E
$GLGSV,1,1,04,70,32,099,,77,10,334,,84,04,067,,86,45,307,,0*7C
$GAGSV,2,1,07,03,12,100,16,13,53,273,40,15,59,030,40,18,75,033,34,2*71
$GAGSV,2,2,07,21,41,305,38,27,61,213,42,30,18,164,16,2*40
$GAGSV,2,1,07,03,12,100,23,13,53,273,35,15,59,030,39,18,75,033,41,7*7C
$GAGSV,2,2,07,21,41,305,44,27,61,213,39,34,13,058,24,7*42
$GAGSV,1,1,04,01,00,327,,05,06,051,,08,03,147,,26,04,249,,0*76
$GBGSV,3,1,10,01,43,152,40,03,43,205,32,04,,,31,07,81,262,36,1*48
$GBGSV,3,2,10,08,45,221,40,10,69,293,40,14,36,087,37,27,27,284,45,1*7C
$GBGSV,3,3,10,28,66,342,46,37,37,246,44,1*7A
$GBGSV,2,1,06,01,43,152,30,03,43,205,33,07,81,262,38,08,45,221,38,3*71
$GBGSV,2,2,06,10,69,293,42,14,36,087,37,3*79
$GNRMC,030506.00,A,3726.8884083,N,12639.2929238,E,0.006,,210622,,,F,V*11
$GNVTG,,T,,M,0.006,N,0.010,K,D*3F
$GNGNS,030506.00,3726.8884083,N,12639.2929238,E,FFFF,24,0.69,15.720,17.840,2.0,4095,V*05
$GNGGA,030506.00,3726.8884083,N,12639.2929238,E,5,12,0.69,15.720,M,17.840,M,2.0,4095*54
$GNRMC,030507.00,A,3726.8884056,N,12639.2929238,E,0.018,,210622,,,F,V*17
$GNVTG,,T,,M,0.018,N,0.034,K,D*36
$GNGNS,030507.00,3726.8884056,N,12639.2929238,E,FFFF,23,0.69,15.717,17.840,2.0,4095,V*0F
$GNGGA,030507.00,3726.8884056,N,12639.2929238,E,5,12,0.69,15.717,M,17.840,M,2.0,4095*59
$GNGSA,A,3,03,14,17,01,06,19,,,,,,,1.38,0.69,1.19,1*02
$GNGSA,A,3,85,75,76,69,,,,,,,,,1.38,0.69,1.19,2*0F
$GNGSA,A,3,13,21,15,27,03,,,,,,,,1.38,0.69,1.19,3*0C
$GNGSA,A,3,07,37,03,10,01,14,08,28,27,,,,1.38,0.69,1.19,4*0A
$GPGSV,2,1,08,01,40,045,38,03,57,097,40,06,25,249,38,14,69,218,42,1*69
$GPGSV,2,1,06,01,40,045,38,03,57,097,40,06,25,249,37,08,07,106,18,6*69
$GPGSV,2,2,06,14,69,218,38,17,57,324,34,6*69
$GPGSV,1,1,03,04,00,128,,21,16,057,,50,47,179,,0*56
$GLGSV,2,1,05,69,15,035,14,71,12,147,17,75,37,213,37,76,44,293,39,1*76
$GLGSV,2,2,05,85,48,023,42,1*4B
$GLGSV,1,1,04,69,15,035,18,75,37,213,38,76,44,293,43,85,48,023,35,3*7F
$GLGSV,1,1,04,70,32,099,,77,10,334,,84,04,067,,86,45,307,,0*7C
$GAGSV,2,1,07,03,12,100,17,13,53,273,41,15,59,030,41,18,75,033,36,2*72
$GAGSV,2,2,07,21,41,305,38,27,61,213,43,30,18,164,11,2*46
$GAGSV,2,1,06,13,53,273,34,15,59,030,38,18,75,033,41,21,41,305,43,7*7A
$GAGSV,2,2,06,27,61,213,39,34,13,058,26,7*71
$GAGSV,1,1,04,01,00,327,,05,06,051,,08,03,147,,26,04,249,,0*76
$GBGSV,3,1,10,01,43,152,39,03,43,205,33,04,,,31,07,81,262,36,1*47
$GBGSV,3,2,10,08,45,221,40,10,69,293,41,14,36,087,38,27,27,284,45,1*72
$GBGSV,3,3,10,28,66,342,46,37,37,246,44,1*7A
$GBGSV,2,1,06,01,43,152,30,03,43,205,33,07,81,2$GBGSV,2,2,06,10,69,293,43,14,36,087,38,3*77
$GNRMC,030508.00,A,3726.8884070,N,12639.2929279,E,0.006,,210622,,,F,V*16
$GNVTG,,T,,M,0.006,N,0.012,K,D*3D
$GNGNS,030508.00,3726.8884070,N,12639.2929279,E,FFFF,23,0.69,15.722,17.840,2.0,4095,V*07
$GNGGA,030508.00,3726.8884070,N,12639.2929279,E,5,12,0.69,15.722,M,17.840,M,2.0,4095*51
$GNGSA,A,3,03,14,17,01,06,19,,,,,,,1.38,0.69,1.19,1*02
$GNGSA,A,3,85,75,76,69,,,,,,,,,1.38,0.69,1.19,2*0F
$GNGSA,A,3,13,21,15,27,03,,,,,,,,1.38,0.69,1.19,3*0C
$GNGSA,A,3,07,37,03,10,01,14,08,28,27,,,,1.38,0.69,1.19,4*0A
$GPGSV,3,1,09,01,40,045,38,03,57,097,41,06,25,249,37,14,69,218,41,1*64
$GPGSV,3,3,09,30,06,212,08,1*51
$GPGSV,2,1,06,01,40,045,38,03,57,097,41,06,25,249,39,08,07,106,12,6*6C
$GPGSV,2,2,06,14,69,218,38,17,57,324,34,6*69
$GPGSV,1,1,02,04,00,128,,50,47,179,,0*61
$GLGSV,2,1,05,69,15,035,13,71,12,147,13,75,37,213,36,76,44,293,39,1*74
$GLGSV,2,2,05,85,48,023,42,1*4B
$GLGSV,1,1,04,69,15,035,16,75,37,213,39,76,44,293,43,85,48,023,34,3*71
$GLGSV,1,1,04,70,32,099,,77,10,334,,84,04,067,,86,45,307,,0*7C
$GAGSV,2,1,07,03,12,100,16,13,53,273,41,15,59,030,41,18,75,033,35,2*70
$GAGSV,2,2,07,21,41,305,38,27,61,213,43,30,18,164,10,2*47
$GAGSV,2,1,06,13,53,273,33,15,59,030,39,18,75,033,41,21,41,305,44,7*7B
$GAGSV,2,2,06,27,61,213,39,34,13,058,25,7*72
$GAGSV,1,1,04,01,00,327,,05,06,051,,08,03,147,,26,04,249,,0*76
$GBGSV,3,1,10,01,43,152,39,03,43,205,33,04,,,32,07,81,262,36,1*44
$GBGSV,3,2,10,08,45,221,40,10,69,293,41,14,36,087,38,27,27,284,44,1*73
$GBGSV,3,3,10,28,66,342,46,37,37,246,44,1*7A
$GBGSV,2,1,06,01,43,152,3$GBGSV,2,2,06,10,69,293,43,14,36,087,38,3*77
$GNRMC,030509.00,A,3726.8884052,N,12639.2929281,E,0.011,,210622,,,F,V*16
$GNVTG,,T,,M,0.011,N,0.021,K,D*3B
$GNGNS,030509.00,3726.8884052,N,12639.2929281,E,FFFF,24,0.69,15.709,17.840,2.0,4095,V*0F
$GNGGA,030509.00,3726.8884052,N,12639.2929281,E,5,12,0.69,15.709,M,17.840,M,2.0,4095*5E
$GNGSA,A,3,03,14,17,01,06,19,,,,,,,1.38,0.69,1.19,1*02
$GNGSA,A,3,85,75,76,69,,,,,,,,,1.38,0.69,1.19,2*0F
$GNGSA,A,3,13,21,15,27,03,,,,,,,,1.38,0.69,1.19,3*0C
$GNGSA,A,3,07,37,03,10,01,14,08,28,27,,,,1.38,0.69,1.19,4*0A
$GPGSV,3,1,09,01,40,045,38,03,57,097,39,06,25,249,37,14,69,218,43,1*69
$GPGSV,3,2,09,17,57,324,38,19,34,303,45,21,16,057,22,28,,,44,1*54
$GPGSV,3,3,09,30,06,212,09,1*50
$GPGSV,2,1,05,01,40,045,38,03,57,097,40,06,25,249,39,14,69,218,38,6*6F
$GPGSV,2,2,05,17,57,324,34,6*50
$GPGSV,1,1,03,04,00,128,,08,07,106,,50,47,179,,0*58
$GLGSV,2,1,05,69,15,035,15,71,12,147,13,75,37,213,34,76,44,293,39,1*70
$GLGSV,2,2,05,85,48,023,42,1*4B
$GLGSV,1,1,04,69,15,035,16,75,37,213,39,76,44,293,43,85,48,023,34,3*71
$GLGSV,1,1,04,70,32,099,,77,10,334,,84,04,067,,86,45,307,,0*7C
$GAGSV,2,1,07,03,12,100,16,13,53,273,41,15,59,030,41,18,75,033,33,2*76
$GAGSV,2,2,07,21,41,305,35,27,61,213,43,30,18,164,12,2*48
$GAGSV,2,1,06,13,53,273,34,15,59,030,38,18,75,033,41,21,41,305,45,7*7C
$GAGSV,2,2,06,27,61,213,39,34,13,058,25,7*72
$GAGSV,1,1,04,01,01,327,,05,06,051,,08,03,147,,26,04,249,,0*77
$GBGSV,3,1,10,01,43,152,39,03,43,205,32,04,,,31,07,81,262,35,1*45
$GBGSV,3,2,10,08,45,221,40,10,69,293,40,14,36,087,37,27,27,284,42,1*7B
$GBGSV,3,3,10,28,66,342,46,37,37,246,44,1*7A
$GBGSV,2,1,06,01,43,152,29,03,43,205,36,07,81,262,37,08,45,221,37,3*7C
$GBGSV,2,2,06,10,69,293,43,14,36,087,37,3*78
$GNRMC,030510.00,A,3726.8884062,N,12639.2929250,E,0.010,,210622,,,F,V*10
$GNVTG,,T,,M,0.010,N,0.018,K,D*30
$GNGNS,030510.00,3726.8884062,N,12639.2929250,E,FFFF,24,0.69,15.712,17.840,2.0,4095,V*02
$GNGGA,030510.00,3726.8884062,N,12639.2929250,E,5,12,0.69,15.712,M,17.840,M,2.0,4095*53
$GNGSA,A,3,03,14,21,17,01,06,19,,,,,,1.38,0.69,1.19,1*01
$GNGSA,A,3,13,21,15,27,,,,,,,,,1.38,0.69,1.19,3*0F
$GNGSA,A,3,07,37,03,10,01,14,08,28,27,,,,1.38,0.69,1.19,4*0A
$GPGSV,3,1,09,01,40,045,36,03,57,097,40,06,25,249,38,14,69,218,43,1*66
$GPGSV,3,2,09,17,57,324,38,19,34,303,42,21,16,057,20,28,,,46,1*53
$GPGSV,3,3,09,30,06,212,08,1*51
$GPGSV,2,1,05,01,40,045,36,03,57,097,39,06,25,249,38,14,69,218,37,6*61
$GPGSV,2,2,05,17,57,324,34,6*50
$GPGSV,1,1,03,04,00,128,,08,07,106,,50,47,179,,0*58
$GLGSV,2,1,05,69,15,035,18,71,12,147,13,75,37,213,36,76,44,293,40,1*71
$GLGSV,2,2,05,85,48,023,41,1*48
$GLGSV,1,1,04,69,15,035,16,75,37,213,38,76,44,293,44,85,48,023,31,3*72
$GLGSV,1,1,04,70,32,099,,77,10,334,,84,04,067,,86,45,307,,0*7C
$GAGSV,2,1,06,13,53,273,41,15,59,030,41,18,75,033,33,21,41,305,35,2*77
$GAGSV,2,2,06,27,61,213,43,30,18,164,09,2*75
$GAGSV,2,1,06,13,53,273,30,15,59,030,38,18,75,033,41,21,41,305,44,7*79
$GAGSV,2,2,06,27,61,213,41,34,13,058,25,7*7D
$GAGSV,2,1,05,01,01,327,,03,12,100,,05,06,051,,08,0$GAGSV,2,2,05,08,03,147,,0*48
$GBGSV,3,1,10,01,43,152,39,03,43,205,30,04,,,32,07,81,262,35,1*44
$GBGSV,3,2,10,08,45,221,40,10,69,293,39,14,36,087,37,27,27,284,43,1*74
$GBGSV,3,3,10,28,66,342,45,37,37,246,44,1*79
$GBGSV,2,1,06,01,43,152,30,03,43,205,36,07,81,262,37,08,45,221,37,3*74
$GBGSV,2,2,06,10,69,293,43,14,36,087,38,3*77
$GNRMC,030511.00,A,3726.8884053,N,12639.2929273,E,0.005,,210622,,,F,V*16
$GNVTG,,T,,M,0.005,N,0.010,K,D*3C
$GNGNS,030511.00,3726.8884053,N,12639.2929273,E,FFFF,23,0.69,15.712,17.840,2.0,4095,V*07
$GNGGA,030511.00,3726.8884053,N,12639.2929273,E,5,12,0.69,15.712,M,17.840,M,2.0,4095*51
$GNGSA,A,3,03,14,17,01,06,19,,,,,,,1.38,0.69,1.19,1*02
$GNGSA,A,3,85,75,76,69,,,,,,,,,1.38,0.69,1.19,2*0F
$GNGSA,A,3,13,21,15,27,,,,,,,,,1.38,0.69,1.19,3*0F
$GNGSA,A,3,07,37,03,10,01,14,08,28,27,,,,1.38,0.69,1.19,4*0A
$GPGSV,2,1,08,01,40,045,37,03,57,097,40,06,25,249,38,14,69,218,43,1*67
$GPGSV,2,2,08,17,57,324,39,19,34,303,44,28,,,45,30,06,212,10,1*56
$GPGSV,2,1,05,01,40,045,36,03,57,097,39,06,25,249,39,14,69,218,37,6*60
$GPGSV,2,2,05,17,57,324,35,6*51
$GPGSV,1,1,04,04,00,128,,08,07,106,,21,16,057,,50,47,179,,0*69
$GLGSV,2,1,06,69,15,035,17,70,32,099,17,71,12,147,15,75,37,213,36,1*76
$GLGSV,2,2,06,76,44,293,41,85,48,023,41,1*77
$GLGSV,1,1,04,69,15,035,18,75,37,213,38,76,44,293,43,85,48,023,32,3*78
$GLGSV,1,1,03,77,10,334,,84,04,067,,86,45,307,,0*4D
$GAGSV,2,1,05,13,53,273,41,15,59,030,40,18,75,033,29,21,41,305,35,2*7E
$GAGSV,2,2,05,27,61,213,43,2*46
$GAGSV,2,1,06,13,53,273,31,15,59,030,39,18,75,033,43,21,41,305,46,7*79
$GAGSV,2,2,06,27,61,213,41,34,13,058,25,7*7D
$GAGSV,2,1,06,01,01,327,,03,13,100,,05,06,051,,08,03,147,,0*79
$GAGSV,2,2,06,08,03,147,,26,04,249,,0*74
$GBGSV,3,1,10,01,43,152,39,03,43,205,30,04,,,33,07,81,262,36,1*46
$GBGSV,3,2,10,08,45,221,40,10,69,293,39,14,36,087,37,27,27,284,43,1*74
$GBGSV,3,3,10,28,66,342,45,37,37,246,45,1*78
$GBGSV,2,1,06,01,43,152,30,03,43,205,36,07,81,262,37,08,45,221,38,3*7B
$GBGSV,2,2,06,10,69,293,43,14,36,087,38,3*77
$GNRMC,030512.00,A,3726.8884094,N,12639.2929247,E,0.022,,210622,,,F,V*1C
$GNVTG,,T,,M,0.022,N,0.040,K,D*3C
$GNGNS,030512.00,3726.8884094,N,12639.2929247,E,FFFF,23,0.69,15.719,17.840,2.0,4095,V*03
$GNGGA,030512.00,3726.8884094,N,12639.2929247,E,5,12,0.69,15.719,M,17.840,M,2.0,4095*55
$GNGSA,A,3,03,14,17,01,06,19,,,,,,,1.38,0.69,1.19,1*02
$GNGSA,A,3,85,75,76,69,,,,,,,,,1.38,0.69,1.19,2*0F
$GNGSA,A,3,13,21,15,27,,,,,,,,,1.38,0.69,1.19,3*0F
$GNGSA,A,3,07,37,03,10,01,14,08,28,27,,,,1.38,0.69,1.19,4*0A
$GPGSV,3,1,09,01,40,045,38,03,57,097,39,06,25,249,38,14,69,218,42,1*67
$GPGSV,3,2,09,17,57,324,39,19,34,303,43,21,16,057,19,28,,,46,1*59
$GPGSV,3,3,09,30,06,212,08,1*51
$GPGSV,2,1,05,01,40,045,36,03,57,097,38,06,25,249,39,14,69,218,38,6*6E
$GNRMC,030513.00,A,3726.8884082,N,12639.2929253,E,0.008,,210622,,,F,V*17
$GNVTG,,T,,M,0.008,N,0.014,K,D*35
$GNGNS,030513.00,3726.8884082,N,12639.2929253,E,FFFF,23,0.69,15.719,17.840,1.0,4095,V*03
$GNGGA,030513.00,3726.8884082,N,12639.2929253,E,5,12,0.69,15.719,M,17.840,M,1.0,4095*55
$GNGSA,A,3,03,14,17,01,06,19,,,,,,,1.38,0.69,1.19,1*02
$GNGSA,A,3,85,75,76,69,,,,,,,,,1.38,0.69,1.19,2*0F
$GNGSA,A,3,13,21,15,27,,,,,,,,,1.38,0.69,1.19,3*0F
$GNGSA,A,3,07,37,03,10,01,14,08,28,27,,,,1.38,0.69,1.19,4*0A
$GPGSV,3,1,09,01,40,045,38,03,57,097,40,06,25,249,38,14,69,218,42,1*69
$GPGSV,3,2,09,17,57,324,39,19,34,303,44,21,16,057,20,28,,,46,1*54
$GPGSV,3,3,09,30,06,212,10,1*58
$GPGSV,2,1,05,01,40,045,36,03,57,097,39,06,25,249,39,14,69,218,38,6*6F
$GPGSV,2,2,05,17,57,324,35,6*51
$GPGSV,1,1,03,04,00,128,,08,07,106,,50,47,179,,0*58
$GLGSV,2,1,06,69,15,035,22,70,32,099,14,71,12,147,19,75,37,213,36,1*7F
$GLGSV,2,2,06,76,44,293,40,85,48,023,41,1*76
$GLGSV,1,1,04,69,15,035,14,75,37,213,37,76,44,293,41,85,48,023,32,3*79
$GLGSV,1,1,03,77,10,334,,84,04,067,,86,45,307,,0*4D
$GAGSV,2,1,05,13,53,273,41,15,59,030,40,18,75,033,31,21,41,305,36,2*74
$GAGSV,2,2,05,27,61,213,43,2*46
$GAGSV,2,1,06,13,53,273,32,15,59,030,38,18,75,033,42,21,41,305,46,7*7A
$GAGSV,2,2,06,27,61,213,39,34,13,058,26,7*71
$GAGSV,2,1,06,01,01,327,,03,13,100,,05,06,051,,08,03,147,,0*79
$GAGSV,2,2,06,08,03,147,,26,04,249,,0*74
$GBGSV,3,1,10,01,43,152,40,03,43,205,32,04,,,33,07,81,262,36,1*4A
$GBGSV,3,2,10,08,45,221,39,10,69,293,40,14,36,087,37,27,27,284,44,1*73
$GBGSV,3,3,10,28,66,342,45,37,37,246,44,1*79
$GBGSV,2,1,06,01,43,152,28,03,43,205,36,07,81,262,38,08,45,221,37,3*72
$GBGSV,2,2,06,10,69,293,43,14,36,087,36,3*79
$GNRMC,030514.00,A,3726.8884081,N,12639.2929247,E,0.006,,210622,,,F,V*18
$GNVTG,,T,,M,0.006,N,0.011,K,D*3E
$GNGNS,030514.00,3726.8884081,N,12639.2929247,E,FFFF,23,0.69,15.716,17.840,2.0,4095,V*0E
$GNGGA,030514.00,3726.8884081,N,12639.2929247,E,5,12,0.69,15.716,M,17.840,M,2.0,4095*58
$GNGSA,A,3,03,14,17,01,06,19,,,,,,,1.38,0.69,1.19,1*02
$GNGSA,A,3,85,75,76,69,,,,,,,,,1.38,0.69,1.19,2*0F
$GNGSA,A,3,13,21,15,27,,,,,,,,,1.38,0.69,1.19,3*0F
$GNGSA,A,3,07,37,03,10,01,14,08,28,27,,,,1.38,0.69,1.19,4*0A
$GPGSV,2,1,08,01,40,045,38,03,57,097,41,06,25,249,38,14,69,218,42,1*68
$GPGSV,2,2,08,17,57,324,39,19,34,303,45,28,,,45,30,06,212,08,1*5E
$GPGSV,2,1,05,01,40,045,37,03,57,097,39,06,25,249,39,14,69,218,39,6*6F
$GPGSV,2,2,05,17,57,324,35,6*51
$GPGSV,1,1,04,04,00,128,,08,07,106,,21,16,057,,50,47,179,,0*69
$GLGSV,2,1,06,69,15,035,25,70,32,099,13,71,12,147,20,75,37,213,36,1*75
$GLGSV,2,2,06,76,44,293,40,85,48,023,41,1*76
$GLGSV,1,1,04,69,15,035,10,75,37,213,36,76,44,293,41,85,48,023,32,3*7C
$GLGSV,1,1,03,77,10,334,,84,04,067,,86,45,307,,0*4D
$GAGSV,2,1,05,13,53,273,41,15,59,030,40,18,75,033,32,21,41,305,36,2*77
$GAGSV,2,2,05,27,61,213,43,2*46
$GAGSV,2,1,06,13,53,273,32,15,59,030,38,18,75,033,43,21,41,305,45,7*78
$GAGSV,2,2,06,27,61,213,39,34,13,058,26,7*71
$GAGSV,2,1,06,01,01,327,,03,13,100,,05,06,051,,08,03,147,,0*79
$GAGSV,2,2,06,08,03,147,,26,04,249,,0*74
$GBGSV,3,1,10,01,43,152,39,03,43,205,31,04,,,33,07,81,262,36,1*47
$GBGSV,3,2,10,08,45,221,39,10,69,293,40,14,36,087,37,27,27,284,43,1*74
$GBGSV,3,3,10,28,66,342,45,37,37,246,44,1*79
$GBGSV,2,1,06,01,43,152,27,03,43,205,36,07,81,262,37,08,45,221,37,3*72
$GBGSV,2,2,06,10,69,293,43,14,36,087,36,3*79
$GNRMC,030515.00,A,3726.8884068,N,12639.2929254,E,0.011,,210622,,,F,V*1A
$GNVTG,,T,,M,0.011,N,0.019,K,D*30
$GNGNS,030515.00,3726.8884068,N,12639.2929254,E,FFFF,23,0.69,15.709,17.840,2.0,4095,V*04
$GNGGA,030515.00,3726.8884068,N,12639.2929254,E,5,12,0.69,15.709,M,17.840,M,2.0,4095*52
$GNGSA,A,3,03,14,17,01,06,19,,,,,,,1.38,0.69,1.19,1*02
$GNGSA,A,3,85,75,76,69,,,,,,,,,1.38,0.69,1.19,2*0F
$GNGSA,A,3,13,21,15,27,,,,,,,,,1.38,0.69,1.19,3*0F
$GNGSA,A,3,07,37,03,10,01,14,08,28,27,,,,1.38,0.69,1.19,4*0A
$GPGSV,3,1,09,01,40,045,38,03,57,097,41,06,25,249,37,14,69,218,42,1*67
$GPGSV,3,2,09,17,57,324,39,19,34,303,44,21,16,057,24,28,,,46,1*50
$GPGSV,3,3,09,30,06,212,10,1*58
$GPGSV,2,1,05,01,40,045,36,03,57,097,39,06,25,249,39,14,69,218,38,6*6F
$GPGSV,2,2,05,17,57,324,35,6*51
$GPGSV,1,1,03,04,00,128,,08,07,106,,50,47,179,,0*58
$GLGSV,2,1,06,69,15,035,25,70,32,099,13,71,12,147,22,75,37,213,35,1*74
$GLGSV,2,2,06,76,44,293,41,85,48,023,41,1*77
$GLGSV,1,1,04,69,15,035,11,75,37,213,36,76,44,293,42,85,48,023,31,3*7D
$GLGSV,1,1,03,77,10,334,,84,04,067,,86,45,307,,0*4D
$GAGSV,2,1,05,13,53,273,42,15,59,030,41,18,75,033,32,21,41,305,37,2*74
$GAGSV,2,2,05,27,61,213,43,2*46
$GAGSV,2,1,06,13,53,273,34,15,59,030,38,18,75,033,42,21,41,305,46,7*7C
$GAGSV,2,2,06,27,61,213,39,34,13,058,25,7*72
$GAGSV,2,1,06,01,01,327,,03,13,100,,05,06,051,,08,03,147,,0*79
$GAGSV,2,2,06,08,03,147,,26,04,249,,0*74
$GBGSV,3,1,10,01,43,152,38,03,43,205,31,04,,,33,07,81,262,37,1*47
$GBGSV,3,2,10,08,45,221,40,10,69,293,40,14,36,087,37,27,27,284,44,1*7D
$GBGSV,3,3,10,28,66,342,45,37,37,246,44,1*79
$GBGSV,2,1,06,01,43,152,26,03,43,205,36,07,81,262,37,08,45,221,37,3*73
$GBGSV,2,2,06,10,69,293,42,14,36,087,37,3*79
$GNRMC,030516.00,A,3726.8884064,N,12639.2929268,E,0.005,,210622,,,F,V*1F
$GNVTG,,T,,M,0.005,N,0.009,K,D*34
$GNGNS,030516.00,3726.8884064,N,12639.2929268,E,FFFF,23,0.69,15.701,17.840,2.0,4095,V*0C
$GNGGA,030516.00,3726.8884064,N,12639.2929268,E,5,12,0.69,15.701,M,17.840,M,2.0,4095*5A
$GNGSA,A,3,03,14,17,01,06,19,,,,,,,1.38,0.69,1.19,1*02
$GNGSA,A,3,85,75,76,69,,,,,,,,,1.38,0.69,1.19,2*0F
$GNGSA,A,3,13,21,15,27,,,,,,,,,1.38,0.69,1.19,3*0F
$GNGSA,A,3,07,37,03,10,01,14,08,28,27,,,,1.38,0.69,1.19,4*0A
$GPGSV,3,1,09,01,40,045,38,03,57,097,41,06,25,249,37,14,69,218,42,1*67
$GPGSV,3,2,09,17,57,324,40,19,34,303,43,21,16,057,22,28,,,46,1*5F
$GPGSV,3,3,09,30,06,212,09,1*50
$GPGSV,2,1,05,01,40,045,36,03,57,097,39,06,25,249,39,14,69,218,38,6*6F
$GPGSV,2,2,05,17,57,324,35,6*51
$GPGSV,1,1,03,04,00,128,,08,07,106,,50,47,179,,0*58
$GLGSV,2,1,06,69,15,035,24,70,32,099,12,71,12,147,22,75,37,213,35,1*74
$GLGSV,2,2,06,76,44,293,41,85,48,023,41,1*77
$GLGSV,1,1,04,69,15,035,11,75,37,213,36,76,44,293,42,85,48,023,31,3*7D
$GLGSV,1,1,03,77,10,334,,84,04,067,,86,45,307,,0*4D
$GAGSV,2,1,05,13,53,273,42,15,59,030,41,18,75,033,31,21,41,305,38,2*78
$GAGSV,2,2,05,27,61,213,43,2*46
$GAGSV,2,1,06,13,53,273,35,15,59,030,39,18,75,033,43,21,41,305,46,7*7D
$GAGSV,2,2,06,27,61,213,39,34,13,058,24,7*73
$GAGSV,2,1,06,01,01,327,,03,13,100,,05,06,051,,08,03,147,,0*79
$GAGSV,2,2,06,08,03,147,,26,04,249,,0*74
$GBGSV,3,1,10,01,43,152,37,03,43,205,31,04,,,34,07,81,262,37,1*4F
$GBGSV,3,2,10,08,45,221,40,10,69,293,40,14,36,087,38,27,27,284,43,1*75
$GBGSV,3,3,10,28,66,342,45,37,37,246,44,1*79
$GBGSV,2,1,05,03,43,205,36,07,81,262,37,08,45,221,38,10,69,293,42,3*7B
$GBGSV,2,2,05,14,36,087,36,3*4B
$GNRMC,030517.00,A,3726.8884089,N,12639.2929241,E,0.006,,210622,,,F,V*15
$GNVTG,,T,,M,0.006,N,0.012,K,D*3D
$GNGNS,030517.00,3726.8884089,N,12639.2929241,E,FFFF,24,0.69,15.711,17.840,2.0,4095,V*03
$GNGGA,030517.00,3726.8884089,N,12639.2929241,E,5,12,0.69,15.711,M,17.840,M,2.0,4095*52
$GNGSA,A,3,03,14,17,01,06,21,19,,,,,,1.38,0.69,1.19,1*01
$GNGSA,A,3,85,75,76,69,,,,,,,,,1.38,0.69,1.19,2*0F
$GNGSA,A,3,13,21,15,27,,,,,,,,,1.38,0.69,1.19,3*0F
$GNGSA,A,3,07,37,03,10,01,14,08,28,27,,,,1.38,0.69,1.19,4*0A
$GPGSV,3,1,09,01,40,045,38,03,57,097,41,06,25,249,37,14,69,218,42,1*67
$GPGSV,3,2,09,17,57,324,41,19,34,303,44,21,16,057,23,28,,,46,1*58
$GPGSV,3,3,09,30,06,212,06,1*5F
$GPGSV,2,1,05,01,40,045,36,03,57,097,39,06,25,249,39,14,69,218,39,6*6E
$GPGSV,2,2,05,17,57,324,34,6*50
$GPGSV,1,1,03,04,00,128,,08,07,106,,50,47,179,,0*58
$GLGSV,2,1,06,69,15,035,23,70,32,099,11,71,12,147,22,75,37,213,35,1*70
$GLGSV,2,2,06,76,44,293,41,85,48,023,41,1*77
$GLGSV,1,1,04,69,15,035,14,75,37,213,36,76,44,293,42,85,48,023,31,3*78
$GLGSV,1,1,03,77,10,334,,84,04,067,,86,45,307,,0*4D
$GAGSV,2,1,05,13,53,273,42,15,59,030,41,18,75,033,32,21,41,305,38,2*7B
$GAGSV,2,2,05,27,61,213,43,2*46
$GAGSV,2,1,06,13,53,273,35,15,59,030,39,18,75,033,43,21,41,305,46,7*7D
$GAGSV,2,2,06,27,61,213,40,34,13,058,22,7*7B
$GAGSV,2,1,06,01,01,327,,03,13,100,,05,06,051,,08,03,147,,0*79
$GAGSV,2,2,06,08,03,147,,26,04,249,,0*74
$GBGSV,3,1,10,01,43,152,38,03,43,205,33,04,,,33,07,81,262,37,1*45
$GBGSV,3,2,10,08,45,221,40,10,69,293,41,14,36,087,38,27,27,284,44,1*73
$GBGSV,3,3,10,28,66,342,45,37,37,246,43,1*7E
$GBGSV,2,1,05,03,43,205,35,07,81,262,37,08,45,221,38,10,69,293,42,3*78
$GBGSV,2,2,05,14,36,087,37,3*4A
$GNRMC,030518.00,A,3726.8884068,N,12639.2929242,E,0.004,,210622,,,F,V*14
$GNVTG,,T,,M,0.004,N,0.007,K,D*3B
$GNGNS,030518.00,3726.8884068,N,12639.2929242,E,FFFF,24,0.69,15.699,17.840,2.0,4095,V*01
$GNGGA,030518.00,3726.8884068,N,12639.2929242,E,5,12,0.69,15.699,M,17.840,M,2.0,4095*50
$GNGSA,A,3,03,14,17,01,06,21,19,,,,,,1.38,0.69,1.19,1*01
$GNGSA,A,3,85,75,76,69,,,,,,,,,1.38,0.69,1.19,2*0F
$GNGSA,A,3,13,21,15,27,,,,,,,,,1.38,0.69,1.19,3*0F
$GNGSA,A,3,07,37,03,10,01,14,08,28,27,,,,1.38,0.69,1.19,4*0A
$GBGSV,2,2,05,14,36,087,37,3*4A
$GNRMC,030519.00,A,3726.8884063,N,12639.2929238,E,0.004,,210622,,,F,V*13
$GNVTG,,T,,M,0.004,N,0.007,K,D*3B
$GNGNS,030519.00,3726.8884063,N,12639.2929238,E,FFFF,24,0.69,15.704,17.840,2.0,4095,V*03
$GNGGA,030519.00,3726.8884063,N,12639.2929238,E,5,12,0.69,15.704,M,17.840,M,2.0,4095*52
$GNGSA,A,3,03,14,17,01,06,21,19,,,,,,1.38,0.69,1.19,1*01
$GNGSA,A,3,85,75,76,69,,,,,,,,,1.38,0.69,1.19,2*0F
$GNGSA,A,3,13,21,15,27,,,,,,,,,1.38,0.69,1.19,3*0F
$GNGSA,A,3,07,37,03,10,01,14,08,28,27,,,,1.38,0.69,1.19,4*0A
$GPGSV,3,1,09,01,40,045,37,03,57,097,41,06,25,249,37,14,69,218,42,1*68
$GPGSV,3,2,09,17,57,324,41,19,34,303,43,21,16,057,22,28,,,47,1*5F
$GPGSV,3,3,09,42,43,151,28,1*53
$GPGSV,2,1,05,01,40,045,34,03,57,097,39,06,25,249,39,14,69,218,39,6*6C
$GPGSV,2,2,05,17,57,324,35,6*51
$GPGSV,1,1,04,04,00,128,,08,07,106,,30,06,212,,50,47,179,,0*6B
$GLGSV,2,1,06,69,15,035,25,70,32,099,11,71,12,147,24,75,37,213,35,1*70
$GLGSV,2,2,06,76,44,293,41,85,48,023,41,1*77
$GLGSV,1,1,04,69,15,035,19,75,37,213,35,76,44,293,42,85,48,023,30,3*77
$GLGSV,1,1,03,77,10,334,,84,04,067,,86,45,307,,0*4D
$GAGSV,2,1,05,13,53,273,41,15,59,030,40,18,75,033,33,21,41,305,37,2*77
$GAGSV,2,2,05,27,61,213,43,2*46
$GAGSV,2,1,06,13,53,273,34,15,59,030,40,18,75,033,44,21,41,305,45,7*76
$GAGSV,2,2,06,27,61,213,41,34,13,058,23,7*7B
$GAGSV,2,1,06,01,01,327,,03,13,100,,05,06,051,,08,03,147,,0*79
$GAGSV,2,2,06,08,03,147,,26,04,249,,0*74
$GBGSV,3,1,10,01,43,152,38,03,43,205,35,04,,,33,07,81,262,37,1*43
$GBGSV,3,2,10,08,45,221,40,10,69,293,39,14,36,087,38,27,27,284,44,1*7C
$GBGSV,3,3,10,28,66,342,46,37,37,246,43,1*7D
$GBGSV,2,1,05,03,43,205,37,07,81,262,37,08,45,221,37,10,69,293,42,3*75
$GBGSV,2,2,05,14,36,087,38,3*45
$GNRMC,030520.00,A,3726.8884045,N,12639.2929287,E,0.007,,210622,,,F,V*1A
$GNVTG,,T,,M,0.007,N,0.014,K,D*3A
$GNGNS,030520.00,3726.8884045,N,12639.2929287,E,FFFF,24,0.69,15.691,17.840,2.0,4095,V*04
$GNGGA,030520.00,3726.8884045,N,12639.2929287,E,5,12,0.69,15.691,M,17.840,M,2.0,4095*55
$GNGSA,A,3,03,14,17,01,06,21,19,,,,,,1.38,0.69,1.19,1*01
$GNGSA,A,3,85,75,76,69,,,,,,,,,1.38,0.69,1.19,2*0F
$GNGSA,A,3,13,21,15,27,,,,,,,,,1.38,0.69,1.19,3*0F
$GNGSA,A,3,07,37,03,10,01,14,08,28,27,,,,1.38,0.69,1.19,4*0A
$GPGSV,3,1,09,01,40,045,37,03,57,097,41,06,25,249,36,14,69,218,42,1*69
$GPGSV,3,2,09,17,57,324,40,19,34,303,44,21,16,057,23,28,,,46,1*59
$GPGSV,3,3,09,42,43,151,26,1*5D
$GPGSV,2,1,05,01,40,045,36,03,57,097,40,06,25,249,39,14,69,218,39,6*60
$GPGSV,2,2,05,17,57,324,36,6*52
$GPGSV,1,1,04,04,00,128,,08,07,106,,30,06,212,,50,47,179,,0*6B
$GLGSV,2,1,06,69,15,035,24,70,32,099,14,71,12,147,23,75,37,213,36,1*70
$GLGSV,2,2,06,76,44,293,41,85,48,023,41,1*77
$GLGSV,1,1,04,69,15,035,18,75,37,213,35,76,44,293,42,85,48,023,31,3*77
$GLGSV,1,1,03,77,10,334,,84,04,067,,86,45,307,,0*4D
$GAGSV,2,1,05,13,53,273,41,15,59,030,40,18,75,033,33,21,41,305,38,2*78
$GAGSV,2,2,05,27,61,213,43,2*46
$GAGSV,2,1,06,13,53,273,35,15,59,030,40,18,75,033,45,21,41,305,45,7*76
$GAGSV,2,2,06,27,61,213,40,34,13,058,24,7*7D
$GAGSV,2,1,06,01,01,327,,03,13,100,,05,06,051,,08,03,147,,0*79
$GAGSV,2,2,06,08,03,147,,26,04,249,,0*74
$GBGSV,3,1,10,01,43,152,38,03,43,205,34,04,,,33,07,81,262,37,1*42
$GBGSV,3,2,10,08,45,221,40,10,69,293,41,14,36,087,38,27,27,284,44,1*73
$GBGSV,3,3,10,28,66,342,46,37,37,246,43,1*7D
$GBGSV,2,1,05,03,43,205,37,07,81,262,37,08,45,221,38,10,69,293,42,3*7A
$GBGSV,2,2,05,14,36,087,38,3*45
$GNRMC,030521.00,A,3726.8884020,N,12639.2929288,E,0.004,,210622,,,F,V*14
$GNVTG,,T,,M,0.004,N,0.008,K,D*34
$GNGNS,030521.00,3726.8884020,N,12639.2929288,E,FFFF,24,0.69,15.691,17.840,2.0,4095,V*09
$GNGGA,030521.00,3726.8884020,N,12639.2929288,E,5,12,0.69,15.691,M,17.840,M,2.0,4095*58
$GNGSA,A,3,03,14,17,01,06,21,19,,,,,,1.38,0.69,1.19,1*01
$GNGSA,A,3,85,75,76,69,,,,,,,,,1.38,0.69,1.19,2*0F
$GNGSA,A,3,13,21,15,27,,,,,,,,,1.38,0.69,1.19,3*0F
$GNGSA,A,3,07,37,03,10,01,14,08,28,27,,,,1.38,0.69,1.19,4*0A
$GPGSV,2,1,08,01,40,045,39,03,57,097,41,06,25,249,36,14,69,218,42,1*67
$GPGSV,2,2,08,17,57,324,41,19,34,303,45,21,16,057,24,28,,,45,1*5D
