$GNRMC,030206.00,A,3726.8877884,N,12639.2930399,E,0.030,,210622,,,F,V*12
$GNVTG,,T,,M,0.030,N,0.055,K,D*3B
$GNGNS,030206.00,3726.8877884,N,12639.2930399,E,FFFF,24,0.79,15.960,17.840,2.0,4095,V*08
$GNGGA,030206.00,3726.8877884,N,12639.2930399,E,5,12,0.79,15.960,M,17.840,M,2.0,4095*59
$GNGSA,A,3,03,14,21,17,01,06,19,,,,,,1.65,0.79,1.45,1*01
$GNGSA,A,3,85,75,76,69,,,,,,,,,1.65,0.79,1.45,2*0F
$GNGSA,A,3,13,21,15,27,03,,,,,,,,1.65,0.79,1.45,3*0C
$GNGSA,A,3,07,37,03,10,14,08,28,27,,,,,1.65,0.79,1.45,4*0B
$GPGSV,3,1,10,01,41,044,41,03,57,100,25,06,23,248,40,08,08,105,24,1*6E
$GPGSV,3,2,10,14,70,222,35,17,56,323,38,19,33,302,44,21,17,057,29,1*6B
$GPGSV,3,3,10,28,,,44,30,07,213,24,1*5D
$GNRMC,030207.00,A,3726.8877784,N,12639.2930382,E,0.015,,210622,,,F,V*11
$GNVTG,,T,,M,0.015,N,0.027,K,D*39
$GNGNS,030207.00,3726.8877784,N,12639.2930382,E,FFFF,24,0.79,15.924,17.840,2.0,4095,V*0C
$GNGGA,030207.00,3726.8877784,N,12639.2930382,E,5,12,0.79,15.924,M,17.840,M,2.0,4095*5D
$GNGSA,A,3,03,14,21,17,01,06,19,,,,,,1.65,0.79,1.45,1*01
$GNGSA,A,3,85,75,76,69,,,,,,,,,1.65,0.79,1.45,2*0F
$GNGSA,A,3,13,21,15,27,03,,,,,,,,1.65,0.79,1.45,3*0C
$GNGSA,A,3,07,37,03,10,14,08,28,27,,,,,1.65,0.79,1.45,4*0B
$GPGSV,3,1,09,01,41,044,41,03,57,100,28,06,23,248,40,08,08,105,23,1*6C
$GPGSV,3,2,09,14,70,222,35,17,56,323,38,19,33,302,44,21,17,057,29,1*63
$GPGSV,3,3,09,28,,,44,1*67
$GPGSV,2,1,05,01,41,044,36,03,57,100,33,06,23,248,39,14,70,222,39,6*6D
$GPGSV,2,2,05,17,56,323,33,6*51
$GPGSV,1,1,03,04,00,129,,30,07,213,,50,47,179,,0*55
$GLGSV,2,1,05,69,16,036,25,70,31,100,09,75,39,214,34,76,44,296,44,1*7D
$GLGSV,2,2,05,85,49,021,36,1*4B
$GLGSV,1,1,04,69,16,036,14,75,39,214,39,76,44,296,41,85,49,021,31,3*7B
$GLGSV,2,1,05,71,11,148,,74,00,178,,77,09,335,,84,04,066,,0*7D
$GLGSV,2,2,05,84,04,066,,0*44
$GAGSV,2,1,05,13,53,271,37,15,60,028,39,18,75,025,39,21,41,306,36,2*76
$GAGSV,2,2,05,27,62,214,37,2*41
$GAGSV,2,1,06,03,12,100,25,13,53,271,35,15,60,028,39,18,75,025,42,7*7E
$GAGSV,2,2,06,21,41,306,39,27,62,214,44,7*7A
$GAGSV,1,1,03,01,00,327,,05,06,052,,34,14,057,,0*44
$GBGSV,2,1,08,03,43,205,33,07,81,265,36,08,45,220,34,10,69,295,43,1*7D
$GBGSV,2,2,08,14,36,089,31,27,26,283,43,28,66,339,48,37,37,247,45,1*7D
$GBGSV,2,1,05,03,43,205,35,07,81,265,35,08,45,220,38,10,69,295,41,3*79
$GBGSV,2,2,05,14,36,089,39,3*4A
$GNRMC,030208.00,A,3726.8877626,N,12639.2930396,E,0.008,,210622,,,F,V*1E
$GNVTG,,T,,M,0.008,N,0.015,K,D*34
$GNGNS,030208.00,3726.8877626,N,12639.2930396,E,FFFF,24,0.79,15.907,17.840,2.0,4095,V*0E
$GNGGA,030208.00,3726.8877626,N,12639.2930396,E,5,12,0.79,15.907,M,17.840,M,2.0,4095*5F
$GNGSA,A,3,03,14,21,17,01,06,19,,,,,,1.65,0.79,1.45,1*01
$GNGSA,A,3,85,75,76,69,,,,,,,,,1.65,0.79,1.45,2*0F
$GNGSA,A,3,13,21,15,27,03,,,,,,,,1.65,0.79,1.45,3*0C
$GNGSA,A,3,07,37,03,10,14,08,28,27,,,,,1.65,0.79,1.45,4*0B
$GPGSV,3,1,09,01,41,044,41,03,57,100,30,06,23,248,40,08,08,105,22,1*64
$GPGSV,3,2,09,14,70,222,36,17,56,323,39,19,33,302,44,21,17,057,30,1*69
$GPGSV,3,3,09,28,,,44,1*67
$GPGSV,2,1,05,01,41,044,36,03,57,100,33,06,23,248,39,14,70,222,39,6*6D
$GPGSV,2,2,05,17,56,323,33,6*51
$GPGSV,1,1,03,04,00,129,,30,07,213,,50,47,179,,0*55
$GLGSV,2,1,05,69,16,036,27,70,31,100,08,75,39,214,35,76,44,296,44,1*7F
$GLGSV,2,2,05,85,49,021,38,1*45
$GLGSV,1,1,04,69,16,036,14,75,39,214,39,76,44,296,41,85,49,021,32,3*78
$GLGSV,2,1,05,71,11,148,,74,00,178,,77,09,335,,84,04,066,,0*7D
$GLGSV,2,2,05,84,04,066,,0*44
$GAGSV,2,1,05,13,53,271,37,15,60,029,40,18,75,025,39,21,41,306,36,2*79
$GAGSV,2,2,05,27,62,214,39,2*4F
$GAGSV,2,1,06,03,12,100,25,13,53,271,34,15,60,029,39,18,75,025,42,7*7E
$GAGSV,2,2,06,21,41,306,39,27,62,214,44,7*7A
$GAGSV,1,1,03,01,00,327,,05,06,052,,34,14,057,,0*44
$GBGSV,2,1,08,03,43,205,32,07,81,265,36,08,45,220,35,10,69,295,44,1*7A
$GBGSV,2,2,08,14,36,089,32,27,26,283,43,28,66,339,48,37,37,247,45,1*7E
$GBGSV,2,1,05,03,43,205,35,07,81,265,36,08,45,220,39,10,69,295,42,3*78
$GBGSV,2,2,05,14,36,089,40,3*44
$GNRMC,030209.00,A,3726.8877449,N,12639.2930389,E,0.018,,210622,,,F,V*1B
$GNVTG,,T,,M,0.018,N,0.034,K,D*36
$GNGNS,030209.00,3726.8877449,N,12639.2930389,E,FFFF,24,0.79,15.873,17.840,2.0,4095,V*08
$GNGGA,030209.00,3726.8877449,N,12639.2930389,E,5,12,0.79,15.873,M,17.840,M,2.0,4095*59
$GNGSA,A,3,03,14,21,17,01,06,19,,,,,,1.65,0.79,1.45,1*01
$GNGSA,A,3,85,75,76,69,,,,,,,,,1.65,0.79,1.45,2*0F
$GNGSA,A,3,13,21,15,27,03,,,,,,,,1.65,0.79,1.45,3*0C
$GNGSA,A,3,07,37,03,10,14,08,28,27,,,,,1.65,0.79,1.45,4*0B
$GPGSV,3,1,09,01,41,044,41,03,57,100,29,06,23,248,40,08,08,105,21,1*6F
$GPGSV,3,2,09,14,70,222,36,17,56,323,39,19,33,302,45,21,17,057,30,1*68
$GPGSV,3,3,09,28,,,44,1*67
$GPGSV,2,1,05,01,41,044,39,03,57,100,36,06,23,248,42,14,70,222,42,6*67
$GPGSV,2,2,05,17,56,323,34,6*56
$GPGSV,1,1,03,04,00,129,,30,07,213,,50,47,179,,0*55
$GLGSV,2,1,05,69,16,036,28,70,31,100,08,75,39,214,35,76,44,296,44,1*70
$GLGSV,2,2,05,85,49,021,37,1*4A
$GLGSV,1,1,04,69,16,036,16,75,39,214,41,76,44,296,42,85,49,021,32,3*76
$GLGSV,2,1,05,71,11,148,,74,00,178,,77,09,335,,84,04,066,,0*7D
$GLGSV,2,2,05,84,04,066,,0*44
$GAGSV,2,1,05,13,53,271,39,15,60,029,41,18,75,029,42,21,41,306,38,2*78
$GAGSV,2,2,05,27,62,214,38,2*4E
$GAGSV,2,1,06,03,12,100,26,13,53,271,37,15,60,029,39,18,75,029,43,7*73
$GAGSV,2,2,06,21,41,306,41,27,62,214,44,7*75
$GAGSV,1,1,03,01,00,327,,05,06,052,,34,14,057,,0*44
$GBGSV,2,1,08,03,43,205,31,07,81,265,35,08,45,220,35,10,69,295,43,1*7D
$GBGSV,2,2,08,14,36,089,32,27,26,283,42,28,66,339,48,37,37,247,44,1*7E
$GBGSV,2,1,05,03,43,205,38,07,81,265,38,08,45,220,41,10,69,295,43,3*75
$GBGSV,2,2,05,14,36,089,41,3*45
$GNRMC,030210.00,A,3726.8877275,N,12639.2930360,E,0.018,,210622,,,F,V*1D
$GNVTG,,T,,M,0.018,N,0.034,K,D*36
$GNGNS,030210.00,3726.8877275,N,12639.2930360,E,FFFF,24,0.79,15.811,17.840,2.0,4095,V*0A
$GNGGA,030210.00,3726.8877275,N,12639.2930360,E,5,12,0.79,15.811,M,17.840,M,2.0,4095*5B
$GNGSA,A,3,03,14,21,17,01,06,19,,,,,,1.65,0.79,1.45,1*01
$GNGSA,A,3,85,75,76,69,,,,,,,,,1.65,0.79,1.45,2*0F
$GNGSA,A,3,13,21,15,27,03,,,,,,,,1.65,0.79,1.45,3*0C
$GNGSA,A,3,07,37,03,10,14,08,28,27,,,,,1.65,0.79,1.45,4*0B
$GPGSV,3,1,09,01,41,044,41,03,57,100,29,06,23,248,40,08,08,105,20,1*6E
$GPGSV,3,2,09,14,70,222,36,17,56,323,38,19,33,302,45,21,17,057,29,1*61
$GPGSV,3,3,09,28,,,44,1*67
$GPGSV,2,1,05,01,41,044,38,03,57,100,35,06,23,248,41,14,70,222,41,6*65
$GPGSV,2,2,05,17,56,323,33,6*51
$GPGSV,1,1,03,04,00,129,,30,07,213,,50,47,179,,0*55
$GLGSV,2,1,05,69,16,036,29,70,31,100,08,75,39,214,34,76,44,296,46,1*72
$GLGSV,2,2,05,85,49,021,37,1*4A
$GLGSV,1,1,04,69,16,036,17,75,39,214,41,76,44,296,40,85,49,021,33,3*74
$GLGSV,2,1,05,71,11,148,,74,00,178,,77,09,335,,84,04,066,,0*7D
$GLGSV,2,2,05,84,04,066,,0*44
$GAGSV,2,1,05,13,53,271,38,15,60,029,40,18,75,029,39,21,41,306,37,2*7B
$GAGSV,2,2,05,27,62,214,38,2*4E
$GAGSV,2,1,06,03,12,100,27,13,53,271,35,15,60,029,39,18,75,029,43,7*70
$GAGSV,2,2,06,21,41,306,39,27,62,214,44,7*7A
$GAGSV,1,1,03,01,00,327,,05,06,052,,34,14,057,,0*44
$GBGSV,2,1,08,03,43,205,29,07,81,265,36,08,45,220,35,10,69,295,43,1*77
$GBGSV,2,2,08,14,36,089,32,27,26,283,43,28,66,339,48,37,37,247,44,1*7F
$GBGSV,2,1,05,03,43,205,37,07,81,265,37,08,45,220,40,10,69,295,42,3*75
$GBGSV,2,2,05,14,36,089,41,3*45
$GNRMC,030211.00,A,3726.8877223,N,12639.2930140,E,0.010,,210622,,,F,V*17
$GNVTG,,T,,M,0.010,N,0.018,K,D*30
$GNGNS,030211.00,3726.8877223,N,12639.2930140,E,FFFF,24,0.79,15.740,17.840,2.0,4095,V*03
$GNGGA,030211.00,3726.8877223,N,12639.2930140,E,5,12,0.79,15.740,M,17.840,M,2.0,4095*52
$GNGSA,A,3,03,14,21,17,01,06,19,,,,,,1.65,0.79,1.45,1*01
$GNGSA,A,3,85,75,76,69,,,,,,,,,1.65,0.79,1.45,2*0F
$GNGSA,A,3,13,21,15,27,03,,,,,,,,1.65,0.79,1.45,3*0C
$GNGSA,A,3,07,37,03,10,14,08,28,27,,,,,1.65,0.79,1.45,4*0B
$GPGSV,3,1,09,01,41,044,40,03,57,100,31,06,23,248,41,08,08,105,22,1*65
$GPGSV,3,2,09,14,70,222,36,17,56,323,37,19,33,302,44,21,17,057,29,1*6F
$GPGSV,3,3,09,28,,,44,1*67
$GPGSV,1,1,01,08,08,105,15,5*51
$GPGSV,2,1,05,01,41,044,37,03,57,100,34,06,23,248,40,14,70,222,40,6*6B
$GPGSV,2,2,05,17,56,323,33,6*51
$GPGSV,1,1,03,04,00,129,,30,07,213,,50,47,179,,0*55
$GLGSV,2,1,05,69,16,036,27,70,31,100,08,75,39,214,32,76,44,296,46,1*7A
$GLGSV,2,2,05,85,49,021,37,1*4A
$GLGSV,1,1,04,69,16,036,18,75,39,214,40,76,44,296,40,85,49,021,33,3*7A
$GLGSV,2,1,05,71,11,148,,74,00,178,,77,09,335,,84,04,066,,0*7D
$GLGSV,2,2,05,84,04,066,,0*44
$GAGSV,2,1,05,13,53,271,38,15,60,029,40,18,75,029,40,21,41,306,38,2*7A
$GAGSV,2,2,05,27,62,214,39,2*4F
$GAGSV,2,1,06,03,12,100,27,13,53,271,36,15,60,029,39,18,75,029,43,7*73
$GAGSV,2,2,06,21,41,306,40,27,62,214,44,7*74
$GAGSV,1,1,03,01,00,327,,05,06,052,,34,14,057,,0*44
$GBGSV,2,1,08,03,43,205,29,07,81,265,36,08,45,220,36,10,69,295,43,1*74
$GBGSV,2,2,08,14,36,089,33,27,26,283,42,28,66,339,47,37,37,247,44,1*70
$GBGSV,2,1,05,03,43,205,36,07,81,265,36,08,45,220,40,10,69,295,42,3*75
$GBGSV,2,2,05,14,36,089,40,3*44
$GNRMC,030212.00,A,3726.8877207,N,12639.2929897,E,0.019,,210622,,,F,V*10
$GNVTG,,T,,M,0.019,N,0.036,K,D*35
$GNGNS,030212.00,3726.8877207,N,12639.2929897,E,FFFF,24,0.79,15.682,17.840,2.0,4095,V*02
$GNGGA,030212.00,3726.8877207,N,12639.2929897,E,5,12,0.79,15.682,M,17.840,M,2.0,4095*53
$GNGSA,A,3,03,14,21,17,01,06,19,,,,,,1.65,0.79,1.45,1*01
$GNGSA,A,3,85,75,76,69,,,,,,,,,1.65,0.79,1.45,2*0F
$GNGSA,A,3,13,21,15,27,03,,,,,,,,1.65,0.79,1.45,3*0C
$GNGSA,A,3,07,37,03,10,14,08,28,27,,,,,1.65,0.79,1.45,4*0B
$GPGSV,3,2,09,14,70,222,36,17,56,323,37,19,33,302,44,21,17,057,27,1*61
$GPGSV,3,3,09,28,,,44,1*67
$GPGSV,1,1,01,08,08,105,12,5*56
$GPGSV,2,1,05,01,41,044,36,03,57,100,33,06,23,248,39,14,70,222,39,6*6D
$GPGSV,2,2,05,17,56,323,33,6*51
$GPGSV,1,1,03,04,00,129,,30,07,213,,50,47,179,,0*55
$GLGSV,2,1,05,69,16,036,26,70,31,100,07,75,39,214,32,76,44,296,45,1*77
$GLGSV,2,2,05,85,49,021,37,1*4A
$GLGSV,1,1,04,69,16,036,18,75,39,214,40,76,44,296,41,85,49,021,32,3*7A
$GLGSV,2,1,05,71,11,148,,74,00,178,,77,09,335,,84,04,066,,0*7D
$GLGSV,2,2,05,84,04,066,,0*44
$GAGSV,2,1,05,13,53,271,37,15,60,029,40,18,75,029,40,21,41,306,37,2*7A
$GAGSV,2,2,05,27,62,214,39,2*4F
$GAGSV,2,1,06,03,12,100,27,13,53,271,36,15,60,029,39,18,75,029,43,7*73
$GAGSV,2,2,06,21,41,306,40,27,62,214,44,7*74
$GAGSV,1,1,03,01,00,327,,05,06,052,,34,14,057,,0*44
$GBGSV,2,1,08,03,43,205,29,07,81,265,36,08,45,220,36,10,69,295,43,1*74
$GBGSV,2,2,08,14,36,089,33,27,26,283,43,2$GNRMC,030213.00,A,3726.8877160,N,12639.2929662,E,0.015,,210622,,,F,V*1B
$GNVTG,,T,,M,0.015,N,0.027,K,D*39
$GNGNS,030213.00,3726.8877160,N,12639.2929662,E,FFFF,24,0.79,15.659,17.840,1.0,4095,V*00
$GNGGA,030213.00,3726.8877160,N,12639.2929662,E,5,12,0.79,15.659,M,17.840,M,1.0,4095*51
$GNGSA,A,3,03,14,21,17,01,06,19,,,,,,1.65,0.79,1.45,1*01
$GNGSA,A,3,85,75,76,69,,,,,,,,,1.65,0.79,1.45,2*0F
$GNGSA,A,3,13,21,15,27,03,,,,,,,,1.65,0.79,1.45,3*0C
$GNGSA,A,3,07,37,03,10,14,08,28,27,,,,,1.65,0.79,1.45,4*0B
$GPGSV,3,1,09,01,41,044,40,03,57,100,31,06,23,248,39,08,08,105,26,1*6E
$GPGSV,3,2,09,14,70,222,36,17,56,323,36,19,33,302,44,21,17,057,26,1*61
$GPGSV,3,3,09,28,,,44,1*67
$GPGSV,2,1,06,01,41,044,37,03,57,100,32,06,23,248,39,08,08,105,09,6*69
$GPGSV,2,2,06,14,70,222,39,17,56,323,33,6*68
$GPGSV,1,1,03,04,00,129,,30,07,213,,50,47,179,,0*55
$GLGSV,2,1,05,69,16,036,25,70,31,100,09,75,39,214,32,76,44,296,45,1*7A
$GLGSV,2,2,05,85,49,021,37,1*4A
$GLGSV,1,1,04,69,16,036,19,75,39,214,40,76,44,296,41,85,49,021,32,3*7B
$GLGSV,2,1,05,71,11,148,,74,00,178,,77,09,335,,84,04,066,,0*7D
$GLGSV,2,2,05,84,04,066,,0*44
$GAGSV,2,1,05,13,53,271,37,15,60,029,40,18,75,029,41,21,41,306,38,2*74
$GAGSV,2,2,05,27,62,214,39,2*4F
$GAGSV,2,1,06,03,12,100,27,13,53,271,36,15,60,029,39,18,75,029,43,7*73
$GAGSV,2,2,06,21,41,306,41,27,62,214,43,7*72
$GAGSV,1,1,03,01,00,327,,05,06,052,,34,14,057,,0*44
$GBGSV,2,1,08,03,43,205,29,07,81,265,35,08,45,220,36,10,69,295,42,1*76
$GBGSV,2,2,08,14,36,089,33,27,26,283,43,28,66,339,47,37,37,247,45,1*70
$GBGSV,2,1,05,03,43,205,35,07,81,265,35,08,45,220,39,10,69,295,41,3*78
$GBGSV,2,2,05,14,36,089,40,3*44
$GNRMC,030214.00,A,3726.8877057,N,12639.2929478,E,0.008,,210622,,,F,V*1C
$GNVTG,,T,,M,0.008,N,0.015,K,D*34
$GAGSV,2,1,05,13,53,271,37,15,60,029,39,18,75,029,40,21,41,306,37,2*74
$GAGSV,2,2,05,27,62,213,37,2*46
$GAGSV,2,1,07,03,12,100,27,13,53,271,36,15,60,029,39,18,75,029,43,7*72
$GAGSV,2,2,07,21,41,306,40,27,62,213,43,34,14,057,24,7*43
$GAGSV,1,1,02,01,00,327,,05,06,052,,0*75
$GBGSV,2,1,08,03,43,205,28,07,81,265,36,08,45,220,36,10,69,295,42,1*74
$GBGSV,2,2,08,14,36,089,34,27,26,283,43,28,66,339,47,37,37,247,45,1*77
$GBGSV,2,1,05,03,43,205,33,07,81,265,34,08,45,220,37,10,69,295,40,3*70
$GBGSV,2,2,05,14,36,089,38,3*4B
$GNRMC,030215.00,A,3726.8876952,N,12639.2929309,E,0.009,,210622,,,F,V*10
$GNVTG,,T,,M,0.009,N,0.016,K,D*36
$GNGNS,030215.00,3726.8876952,N,12639.2929309,E,FFFF,24,0.79,15.656,17.840,2.0,4095,V*0A
$GNGSA,A,3,03,14,21,17,01,06,19,,,,,,1.65,0.79,1.45,1*01
$GNGSA,A,3,85,75,76,69,,,,,,,,,1.65,0.79,1.45,2*0F
$GNGSA,A,3,13,21,15,27,03,,,,,,,,1.65,0.79,1.45,3*0C
$GNGSA,A,3,07,37,03,10,14,08,28,27,,,,,1.65,0.79,1.45,4*0B
$GPGSV,3,1,09,01,41,044,40,03,57,100,32,06,23,248,39,08,08,105,25,1*6E
$GPGSV,3,2,09,14,70,222,37,17,56,323,37,19,33,302,45,21,17,057,26,1*60
$GPGSV,3,3,09,28,,,43,1*60
$GPGSV,2,1,05,01,41,044,35,03,57,100,32,06,23,248,39,14,70,222,39,6*6F
$GPGSV,2,2,05,17,56,323,33,6*51
$GPGSV,1,1,03,04,00,129,,30,07,213,,50,47,179,,0*55
$GLGSV,2,1,05,69,16,036,25,70,31,100,08,75,39,214,31,76,44,296,43,1*7E
$GLGSV,2,2,05,85,49,021,35,1*48
$GLGSV,1,1,04,69,16,036,18,75,39,214,38,76,44,296,38,85,49,021,29,3*71
$GLGSV,2,1,05,71,11,148,,74,00,178,,77,09,335,,84,04,066,,0*7D
$GLGSV,2,2,05,84,04,066,,0*44
$GAGSV,2,1,05,13,53,271,38,15,60,029,40,18,75,029,40,21,41,306,38,2*7A
$GAGSV,2,2,05,27,62,213,38,2*49
$GAG$GAGSV,2,2,07,21,41,306,40,27,62,213,43,34,14,057,24,7*43
$GAGSV,1,1,02,01,00,327,,05,06,052,,0*75
$GBGSV,2,1,08,03,43,205,29,07,81,265,37,08,45,220,37,10,69,295,43,1*74
$GBGSV,2,2,08,14,36,089,34,27,26,283,43,28,66,339,48,37,37,247,45,1*78
$GBGSV,2,1,05,03,43,205,35,07,81,265,34,08,45,220,39,10,69,295,41,3*79
$GBGSV,2,2,05,14,36,089,40,3*44
$GNRMC,030216.00,A,3726.8876909,N,12639.2929133,E,0.022,,210622,,,F,V*1F
$GNVTG,,T,,M,0.022,N,0.041,K,D*3D
$GNGNS,030216.00,3726.8876909,N,12639.2929133,E,FFFF,24,0.79,15.659,17.840,2.0,4095,V*03
$GNGGA,030216.00,3726.8876909,N,12639.2929133,E,5,12,0.79,15.659,M,17.840,M,2.0,4095*52
$GNGSA,A,3,03,14,21,17,01,06,19,,,,,,1.65,0.79,1.45,1*01
$GNGSA,A,3,85,75,76,69,,,,,,,,,1.65,0.79,1.45,2*0F
$GNGSA,A,3,13,21,15,27,03,,,,,,,,1.65,0.79,1.45,3*0C
$GNGSA,A,3,07,37,03,10,14,08,28,27,,,,,1.65,0.79,1.45,4*0B
$GPGSV,3,1,10,01,41,044,40,03,57,100,32,06,23,248,39,08,08,105,25,1*66
$GPGSV,3,2,10,14,70,222,37,17,56,323,37,19,33,302,45,21,17,057,26,1*68
$GPGSV,3,3,10,28,,,44,41,27,238,27,1*53
$GPGSV,2,1,05,01,41,044,38,03,57,100,35,06,23,248,42,14,70,222,41,6*66
$GPGSV,2,2,05,17,56,323,33,6*51
$GPGSV,1,1,03,04,00,129,,30,07,213,,50,47,179,,0*55
$GLGSV,2,1,05,69,16,036,26,70,31,100,08,75,39,214,33,76,44,296,44,1*78
$GLGSV,2,2,05,85,49,021,36,1*4B
$GLGSV,1,1,04,69,16,036,18,75,39,214,42,76,44,296,42,85,49,021,33,3*7A
$GLGSV,2,1,05,71,11,148,,74,00,178,,77,09,335,,84,04,066,,0*7D
$GLGSV,2,2,05,84,04,066,,0*44
$GAGSV,2,1,05,13,53,271,37,15,60,029,41,18,75,029,41,21,41,306,38,2*75
$GAGSV,2,2,05,27,62,213,40,2*46
$GAGSV,2,1,07,03,12,100,27,13,53,271,35,15,60,029,40,18,75,029,44,7*78
$GAGSV,2,2,07,21,41,306,41,27,62,213,44,34,13,058,23,7*4A
$GAGSV,1,1,02,01,00,327,,05,06,052,,0*75
$GBGSV,2,1,08,03,43,205,30,07,81,265,37,08,45,220,36,10,69,295,43,1*7D
$GBGSV,2,2,08,14,36,089,34,27,26,283,43,28,66,339,48,37,37,247,45,1*78
$GBGSV,2,1,05,03,43,205,38,07,81,265,37,08,45,220,41,10,69,295,43,3*7A
$GBGSV,2,2,05,14,36,089,42,3*46
$GNRMC,030217.00,A,3726.8877005,N,12639.2928914,E,0.021,,210622,,,F,V*15
$GNVTG,,T,,M,0.021,N,0.039,K,D*31
$GNGNS,030217.00,3726.8877005,N,12639.2928914,E,FFFF,24,0.79,15.632,17.840,2.0,4095,V*07
$GNGGA,030217.00,3726.8877005,N,12639.2928914,E,5,12,0.79,15.632,M,17.840,M,2.0,4095*56
$GNGSA,A,3,03,14,21,17,01,06,19,,,,,,1.65,0.79,1.45,1*01
$GNGSA,A,3,85,75,76,69,,,,,,,,,1.65,0.79,1.45,2*0F
$GNGSA,A,3,13,21,15,27,03,,,,,,,,1.65,0.79,1.45,3*0C
$GNGSA,A,3,07,37,03,10,14,08,28,27,,,,,1.65,0.79,1.45,4*0B
$GPGSV,3,1,10,01,41,044,41,03,57,100,33,06,23,248,40,08,08,105,24,1*69
$GPGSV,3,2,10,14,70,222,37,17,56,323,37,19,33,302,46,21,17,057,26,1*6B
$GPGSV,3,3,10,25,,,27,28,,,44,1*6D
$GPGSV,2,1,05,01,41,044,37,03,57,100,35,06,23,248,41,14,70,222,40,6*6B
$GPGSV,2,2,05,17,56,323,33,6*51
$GPGSV,1,1,03,04,00,129,,30,07,213,,50,47,179,,0*55
$GLGSV,1,1,04,69,16,036,27,75,39,214,33,76,44,296,44,85,49,021,37,1*70
$GLGSV,1,1,04,69,16,036,19,75,39,214,41,76,44,296,42,85,49,021,32,3*79
$GLGSV,2,1,06,70,31,100,,71,11,148,,74,00,178,,77,09,335,,0*72
$GLGSV,2,2,06,77,09,335,,84,04,066,,0*7B
$GAGSV,2,1,05,13,53,271,38,15,60,029,39,18,75,029,40,21,41,306,37,2*7B
$GAGSV,2,2,05,27,62,213,38,2*49
$GAGSV,2,1,07,03,12,100,27,13,53,271,35,15,60,029,39,18,75,029,44,7*76
$GAGSV,2,2,07,21,41,306,40,27,62,213,42,34,13,058,23,7*4D
$GAGSV,1,1,02,01,00,327,,05,06,052,,0*75
$GBGSV,2,1,08,03,43,205,28,07,81,265,37,08,45,220,36,10,69,295,43,1*74
$GBGSV,2,2,08,14,36,089,35,27,26,283,43,28,66,339,48,37,37,247,46,1*7A
$GBGSV,2,1,05,03,43,205,37,07,81,265,36,08,45,220,40,10,69,295,43,3*75
$GBGSV,2,2,05,14,36,089,41,3*45
$GNRMC,030218.00,A,3726.8877057,N,12639.2928677,E,0.006,,210622,,,F,V*12
$GNVTG,,T,,M,0.006,N,0.012,K,D*3D
$GNGNS,030218.00,3726.8877057,N,12639.2928677,E,FFFF,24,0.79,15.608,17.840,2.0,4095,V*0C
$GNRMC,030219.00,A,3726.8877106,N,12639.2928464,E,0.005,,210622,,,F,V*15
$GNVTG,,T,,M,0.005,N,0.009,K,D*34
$GNGNS,030219.00,3726.8877106,N,12639.2928464,E,FFFF,24,0.79,15.580,17.840,2.0,4095,V*0B
$GNGGA,030219.00,3726.8877106,N,12639.2928464,E,5,12,0.79,15.580,M,17.840,M,2.0,4095*5A
$GNGSA,A,3,03,14,21,17,01,06,19,,,,,,1.65,0.79,1.45,1*01
$GNGSA,A,3,85,75,76,69,,,,,,,,,1.65,0.79,1.45,2*0F
$GNGSA,A,3,13,21,15,27,03,,,,,,,,1.65,0.79,1.45,3*0C
$GNGSA,A,3,07,37,03,10,14,08,28,27,,,,,1.65,0.79,1.45,4*0B
$GPGSV,3,1,09,01,41,044,41,03,57,100,33,06,23,248,40,08,08,105,22,1*67
$GPGSV,3,2,09,14,70,222,37,17,56,323,37,19,33,302,46,21,17,057,26,1*63
$GPGSV,3,3,09,28,,,44,1*67
$GPGSV,2,1,05,01,41,044,36,03,57,100,34,06,23,248,40,14,70,222,40,6*6A
$GPGSV,2,2,05,17,56,323,33,6*51
$GPGSV,1,1,03,04,00,129,,30,07,213,,50,47,179,,0*55
$GLGSV,2,1,05,69,16,036,29,70,31,100,21,75,39,214,34,76,44,296,43,1*7C
$GLGSV,2,2,05,85,49,021,38,1*45
$GLGSV,1,1,04,69,16,036,20,75,39,214,41,76,44,296,41,85,49,021,32,3*70
$GLGSV,2,1,05,71,11,148,,74,00,178,,77,09,335,,84,04,066,,0*7D
$GLGSV,2,2,05,84,04,066,,0*44
$GAGSV,2,1,05,13,53,271,38,15,60,029,40,18,75,029,40,21,41,306,37,2*75
$GAGSV,2,2,05,27,62,213,40,2*46
$GAGSV,2,1,07,03,12,100,26,13,53,271,36,15,60,029,39,18,75,029,44,7*74
$GAGSV,2,2,07,21,41,306,40,27,62,213,42,34,13,058,25,7*4B
$GAGSV,1,1,02,01,00,327,,05,06,052,,0*75
$GBGSV,2,1,08,03,43,205,28,07,81,264,37,08,45,220,36,10,69,295,43,1*75
$GBGSV,2,2,08,14,36,089,35,27,26,283,43,28,66,339,48,37,37,247,46,1*7A
$GBGSV,2,1,05,03,43,205,36,07,81,264,35,08,45,220,39,10,69,295,42,3*79
$GBGSV,2,2,05,14,36,089,41,3*45
$GNRMC,030220.00,A,3726.8877089,N,12639.2928346,E,0.006,,210622,,,F,V*1D
$GNVTG,,T,,M,0.006,N,0.010,K,D*3F
$GNGNS,030220.00,3726.8877089,N,12639.2928346,E,FFFF,24,0.79,15.558,17.840,2.0,4095,V*05
$GNGGA,030220.00,3726.8877089,N,12639.2928346,E,5,12,0.79,15.558,M,17.840,M,2.0,4095*54
$GNGSA,A,3,03,14,21,17,01,06,19,,,,,,1.65,0.79,1.45,1*01
$GNGSA,A,3,85,75,76,69,,,,,,,,,1.65,0.79,1.45,2*0F
$GNGSA,A,3,13,21,15,27,03,,,,,,,,1.65,0.79,1.45,3*0C
$GNGSA,A,3,07,37,03,10,14,08,28,27,,,,,1.65,0.79,1.45,4*0B
$GPGSV,3,1,09,01,41,044,40,03,57,100,32,06,23,248,40,08,08,105,20,1*65
$GPGSV,3,2,09,14,70,222,37,17,56,323,39,19,33,302,46,21,17,057,25,1*6E
$GPGSV,3,3,09,28,,,44,1*67
$GPGSV,2,1,05,01,41,044,36,03,57,100,34,06,23,248,40,14,70,222,40,6*6A
$GPGSV,2,2,05,17,56,323,33,6*51
$GPGSV,1,1,03,04,00,129,,30,07,213,,50,47,179,,0*55
$GLGSV,2,1,05,69,16,036,29,70,31,100,21,75,39,214,35,76,44,296,43,1*7D
$GLGSV,2,2,05,85,49,021,38,1*45
$GLGSV,1,1,04,69,16,036,20,75,39,214,41,76,44,296,41,85,49,021,32,3*70
$GLGSV,2,1,05,71,11,148,,74,00,178,,77,09,335,,84,04,066,,0*7D
$GLGSV,2,2,05,84,04,066,,0*44
$GAGSV,2,1,05,13,53,271,38,15,60,029,40,18,75,029,40,21,41,306,36,2*74
$GAGSV,2,2,05,27,62,213,39,2*48
$GAGSV,2,1,07,03,12,100,27,13,53,271,36,15,60,029,39,18,75,029,44,7*75
$GAGSV,2,2,07,21,41,306,40,27,62,213,42,34,13,058,25,7*4B
$GAGSV,1,1,02,01,00,327,,05,06,052,,0*75
$GBGSV,2,1,08,03,43,205,27,07,81,264,37,08,45,221,36,10,69,295,43,1*7B
$GBGSV,2,2,08,14,36,089,35,27,26,283,42,28,66,339,48,37,37,247,46,1*7B
$GBGSV,2,1,05,03,43,205,36,07,81,264,35,08,45,221,39,10,69,295,42,3*78
$GBGSV,2,2,05,14,36,089,41,3*45
$GNRMC,030221.00,A,3726.8877143,N,12639.2928254,E,0.023,,210622,,,F,V*1E
$GNVTG,,T,,M,0.023,N,0.044,K,D*39
$GNGNS,030221.00,3726.8877143,N,12639.2928254,E,FFFF,24,0.79,15.542,17.840,2.0,4095,V*0A
$GNGGA,030221.00,3726.8877143,N,12639.2928254,E,5,12,0.79,15.542,M,17.840,M,2.0,4095*5B
$GNGSA,A,3,03,14,21,17,01,06,19,,,,,,1.65,0.79,1.45,1*01
$GNGSA,A,3,85,75,76,69,,,,,,,,,1.65,0.79,1.45,2*0F
$GNGSA,A,3,13,21,15,27,03,,,,,,,,1.65,0.79,1.45,3*0C
$GNGSA,A,3,07,37,03,10,14,08,28,27,,,,,1.65,0.79,1.45,4*0B
$GPGSV,3,1,09,01,41,044,42,03,57,100,30,06,23,248,39,08,08,105,20,1*6B
$GPGSV,3,2,09,14,70,222,36,17,56,323,37,19,33,302,46,21,17,057,25,1*61
$GPGSV,3,3,09,28,,,43,1*60
$GPGSV,2,1,05,01,41,044,36,03,57,100,34,06,23,248,40,14,70,222,40,6*6A
$GPGSV,2,2,05,17,56,323,33,6*51
$GPGSV,1,1,03,04,00,129,,30,07,213,,50,47,179,,0*55
$GLGSV,2,1,05,69,16,036,30,70,31,100,19,75,39,214,35,76,44,296,44,1*79
$GLGSV,2,2,05,85,49,021,33,1*4E
$GLGSV,1,1,04,69,16,036,19,75,39,214,40,76,44,296,41,85,49,021,32,3*7B
$GLGSV,2,1,05,71,11,148,,74,00,178,,77,09,335,,84,04,066,,0*7D
$GLGSV,2,2,05,84,04,066,,0*44
$GAGSV,2,1,05,13,53,271,37,15,60,029,40,18,75,029,40,21,41,306,36,2*7B
$GAGSV,2,2,05,27,62,213,39,2*48
$GAGSV,2,1,07,03,12,100,27,13,53,271,36,15,60,029,39,18,75,029,44,7*75
$GAGSV,2,2,07,21,41,306,40,27,62,213,42,34,13,058,25,7*4B
$GAGSV,1,1,02,01,00,327,,05,06,052,,0*75
$GBGSV,2,1,08,03,43,205,27,07,81,264,37,08,45,221,36,10,69,294,43,1*7A
$GBGSV,2,2,08,14,36,089,34,27,26,283,42,28,66,339,47,37,37,247,46,1*75
$GBGSV,2,1,05,03,43,205,37,07,81,264,35,08,45,221,39,10,69,294,42,3*78
$GBGSV,2,2,05,14,36,089,40,3*44
$GNRMC,030222.00,A,3726.8877179,N,12639.2928191,E,0.016,,210622,,,F,V*18
$GNVTG,,T,,M,0.016,N,0.030,K,D*3C
$GNGNS,030222.00,3726.8877179,N,12639.2928191,E,FFFF,24,0.79,15.508,17.840,2.0,4095,V*04
$GNGGA,030222.00,3726.8877179,N,12639.2928191,E,5,12,0.79,15.508,M,17.840,M,2.0,4095*55
$GNGSA,A,3,03,14,21,17,01,06,19,,,,,,1.65,0.79,1.45,1*01
$GNGSA,A,3,85,75,76,69,,,,,,,,,1.65,0.79,1.45,2*0F
$GNGSA,A,3,13,21,15,27,03,,,,,,,,1.65,0.79,1.45,3*0C
$GNGSA,A,3,07,37,03,10,14,08,28,27,,,,,1.65,0.79,1.45,4*0B
$GPGSV,3,1,09,01,41,044,42,03,57,100,29,06,23,248,39,08,08,105,20,1*63
$GPGSV,3,2,09,14,70,222,36,17,56,323,37,19,33,302,47,21,17,057,25,1*60
$GPGSV,3,3,09,28,,,43,1*60
$GPGSV,2,1,05,01,41,044,36,03,57,100,34,06,23,248,40,14,70,222,40,6*6A
$GPGSV,2,2,05,17,56,323,33,6*51
$GPGSV,1,1,03,04,00,129,,30,07,213,,50,47,179,,0*55
$GLGSV,2,1,05,69,16,036,30,70,31,100,17,75,39,214,35,76,44,296,43,1*70
$GLGSV,2,2,05,85,49,021,35,1*48
$GLGSV,1,1,04,69,16,036,20,75,39,214,40,76,44,296,41,85,49,021,32,3*71
$GLGSV,2,1,05,71,11,148,,74,00,178,,77,09,335,,84,04,066,,0*7D
$GLGSV,2,2,05,84,04,066,,0*44
$GAGSV,2,1,05,13,53,271,37,15,60,029,40,18,75,029,40,21,41,306,37,2*7A
$GAGSV,2,2,05,27,62,213,39,2*48
$GAGSV,2,1,07,03,12,100,27,13,53,271,36,15,60,029,39,18,75,029,44,7*75
$GAGSV,2,2,07,21,41,306,40,27,62,213,42,34,13,058,24,7*4A
$GAGSV,1,1,03,01,00,327,,05,06,052,,08,03,147,,0*4D
$GBGSV,3,1,10,01,,,32,03,43,205,28,04,,,35,07,81,264,37,1*74
$GBGSV,3,2,10,08,45,221,37,10,69,294,43,14,36,088,33,27,26,283,42,1*72
$GBGSV,3,3,10,28,66,339,47,37,37,247,46,1*74
$GBGSV,2,1,05,03,43,205,36,07,81,264,34,08,45,221,39,10,69,294,42,3*78
$GBGSV,2,2,05,14,36,088,38,3*4A
$GNRMC,030223.00,A,3726.8877140,N,12639.2928068,E,0.011,,210622,,,F,V*13
$GNVTG,,T,,M,0.011,N,0.020,K,D*3A
$GNGNS,030223.00,3726.8877140,N,12639.2928068,E,FFFF,24,0.75,15.477,17.840,1.0,4095,V*0E
$GNGGA,030223.00,3726.8877140,N,12639.2928068,E,5,12,0.75,15.477,M,17.840,M,1.0,4095*5F
$GNGSA,A,3,03,14,21,17,01,06,19,,,,,,1.41,0.75,1.19,1*02
$GNGSA,A,3,85,75,76,69,,,,,,,,,1.41,0.75,1.19,2*0C
$GNGSA,A,3,13,21,15,27,03,,,,,,,,1.41,0.75,1.19,3*0F
$GNGSA,A,3,07,37,03,10,14,08,28,27,,,,,1.41,0.75,1.19,4*08
$GPGSV,3,1,09,01,41,044,43,03,57,100,27,06,23,248,39,08,08,105,20,1*6C
$GPGSV,3,2,09,14,70,222,36,17,56,323,37,19,33,302,46,21,17,057,23,1*67
$GPGSV,3,3,09,28,,,44,1*67
$GPGSV,2,1,05,01,41,044,36,03,57,100,35,06,23,248,40,14,70,222,40,6*6B
$GPGSV,2,2,05,17,56,323,33,6*51
$GPGSV,1,1,03,04,00,129,,30,07,213,,50,47,179,,0*55
$GLGSV,2,1,05,69,16,036,32,70,31,100,18,75,39,214,35,76,44,296,43,1*7D
$GLGSV,2,2,05,85,49,021,35,1*48
$GLGSV,1,1,04,69,16,036,20,75,39,214,40,76,44,296,40,85,49,021,32,3*70
$GLGSV,2,1,05,71,11,148,,74,00,178,,77,09,335,,84,04,066,,0*7D
$GLGSV,2,2,05,84,04,066,,0*44
$GAGSV,2,1,05,13,53,271,37,15,60,029,40,18,75,029,39,21,41,306,36,2*75
$GAGSV,2,2,05,27,62,213,39,2*48
$GAGSV,2,1,07,03,12,100,27,13,53,271,35,15,60,029,39,18,75,029,43,7*71
$GAGSV,2,2,07,21,41,306,40,27,62,213,42,34,13,058,24,7*4A
$GAGSV,1,1,04,01,00,327,,05,06,052,,08,03,147,,26,04,249,,0*75
$GBGSV,3,1,10,01,,,30,03,43,205,28,04,,,35,07,81,264,37,1*76
$GBGSV,3,2,10,08,45,221,37,10,69,294,43,14,36,088,37,27,26,284,42,1*71
$GBGSV,3,3,10,28,66,339,47,37,37,247,45,1*77
$GBGSV,2,1,05,03,43,205,36,07,81,264,36,08,45,221,38,10,69,294,42,3*7B
$GBGSV,2,2,05,14,36,088,43,3*46
$GNRMC,030224.00,A,3726.8877176,N,12639.2927943,E,0.008,,210622,,,F,V*16
$GNVTG,,T,,M,0.008,N,0.015,K,D*34
$GNGNS,030224.00,3726.8877176,N,12639.2927943,E,FFFF,24,0.75,15.434,17.840,2.0,4095,V*07
$GNGGA,030224.00,3726.8877176,N,12639.2927943,E,5,12,0.75,15.434,M,17.840,M,2.0,4095*56
$GPGSV,3,2,09,14,70,222,36,17,56,323,37,19,33,302,47,21,17,057,20,1*65
$GPGSV,3,3,09,28,,,44,1*67
$GPGSV,2,1,05,01,41,044,36,03,57,100,35,06,23,248,40,14,70,222,40,6*6B
$GPGSV,2,2,05,17,56,323,33,6*51
$GPGSV,1,1,03,04,00,129,,30,07,213,,50,47,179,,0*55
$GLGSV,2,1,05,69,16,036,31,70,31,100,19,75,39,214,35,76,44,296,43,1*7F
$GLGSV,2,2,05,85,49,021,36,1*4B
$GLGSV,1,1,04,69,16,036,21,75,39,214,40,76,44,296,41,85,49,021,32,3*70
$GLGSV,2,1,05,71,11,148,,74,00,178,,77,09,335,,84,04,066,,0*7D
$GLGSV,2,2,05,84,04,066,,0*44
$GAGSV,2,1,05,13,53,271,37,15,60,029,39,18,75,029,39,21,41,306,37,2*7A
$GAGSV,2,2,05,27,62,213,39,2*48
$GAGSV,2,1,07,03,12,100,26,13,53,271,35,15,60,029,39,18,75,029,43,7*70
$GAGSV,2,2,07,21,41,306,40,27,62,213,41,34,13,058,22,7*4F
$GAGSV,1,1,04,01,00,327,,05,06,052,,08,03,147,,26,04,249,,0*75
$GBGSV,3,1,10,01,,,31,03,43,205,28,04,,,34,07,81,264,37,1*76
$GNRMC,030225.00,A,3726.8877218,N,12639.2927856,E,0.029,,210622,,,F,V*1A
$GNVTG,,T,,M,0.029,N,0.053,K,D*35
$GNGNS,030225.00,3726.8877218,N,12639.2927856,E,FFFF,24,0.75,15.401,17.840,2.0,4095,V*0E
$GNGGA,030225.00,3726.8877218,N,12639.2927856,E,5,12,0.75,15.401,M,17.840,M,2.0,4095*5F
$GNGSA,A,3,03,14,21,17,01,06,19,,,,,,1.41,0.75,1.19,1*02
$GNGSA,A,3,85,75,76,69,,,,,,,,,1.41,0.75,1.19,2*0C
$GNGSA,A,3,13,21,15,27,03,,,,,,,,1.41,0.75,1.19,3*0F
$GNGSA,A,3,07,37,03,10,14,08,28,27,,,,,1.41,0.75,1.19,4*08
$GPGSV,3,1,09,01,41,044,43,03,57,100,27,06,23,248,39,08,08,105,19,1*66
$GPGSV,3,2,09,14,70,222,35,17,56,323,37,19,33,302,46,21,17,057,18,1*6C
$GPGSV,3,3,09,28,,,43,1*60
$GPGSV,2,1,05,01,41,044,36,03,57,100,35,06,23,248,40,14,70,222,40,6*6B
$GPGSV,2,2,05,17,56,323,33,6*51
$GPGSV,1,1,03,04,00,129,,30,07,213,,50,47,179,,0*55
$GLGSV,2,1,05,69,16,036,32,70,31,100,20,75,39,214,35,76,44,296,44,1*71
$GLGSV,2,2,05,85,49,021,33,1*4E
$GLGSV,1,1,04,69,16,036,22,75,39,214,41,76,44,296,41,85,49,021,32,3*72
$GLGSV,2,1,05,71,11,148,,74,00,178,,77,09,335,,84,04,066,,0*7D
$GLGSV,2,2,05,84,04,066,,0*44
$GAGSV,2,1,05,13,53,271,37,15,60,029,40,18,75,029,40,21,41,306,37,2*7A
$GAGSV,2,2,05,27,62,213,39,2*48
$GAGSV,2,1,07,03,12,100,25,13,53,271,35,15,60,029,39,18,75,029,43,7*73
$GAGSV,2,2,07,21,41,306,40,27,62,213,41,34,13,058,20,7*4D
$GAGSV,1,1,04,01,00,327,,05,06,052,,08,03,147,,26,04,249,,0*75
$GBGSV,3,1,09,03,43,205,28,04,,,35,07,81,264,37,08,45,221,37,1*40
$GBGSV,3,2,09,10,69,294,43,14,36,088,38,27,26,284,42,28,66,340,47,1*74
$GBGSV,3,3,09,37,37,247,46,1*4C
$GBGSV,2,1,05,03,43,205,36,07,81,264,36,08,45,221,38,10,69,294,41,3*78
$GBGSV,2,2,05,14,36,088,41,3*44
$GNRMC,030226.00,A,3726.8877280,N,12639.2927953,E,0.005,,210622,,,F,V*12
$GNVTG,,T,,M,0.005,N,0.008,K,D*35
$GNGNS,030226.00,3726.8877280,N,12639.2927953,E,FFFF,24,0.75,15.346,17.840,2.0,4095,V*0C
$GNGGA,030226.00,3726.8877280,N,12639.2927953,E,5,12,0.75,15.346,M,17.840,M,2.0,4095*5D
$GNGSA,A,3,03,14,21,17,01,06,19,,,,,,1.41,0.75,1.19,1*02
$GNGSA,A,3,85,75,76,69,,,,,,,,,1.41,0.75,1.19,2*0C
$GNGSA,A,3,13,21,15,27,03,,,,,,,,1.41,0.75,1.19,3*0F
$GNGSA,A,3,07,37,03,10,14,08,28,27,,,,,1.41,0.75,1.19,4*08
$GPGSV,3,1,09,01,41,044,42,03,57,100,27,06,23,248,39,08,08,105,17,1*69
$GPGSV,3,2,09,14,70,222,34,17,56,323,38,19,33,302,46,21,17,057,18,1*62
$GPGSV,3,3,09,28,,,43,1*60
$GPGSV,2,1,05,01,41,044,35,03,57,100,34,06,23,248,38,14,70,222,39,6*68
$GPGSV,2,2,05,17,56,323,32,6*50
$GPGSV,1,1,03,04,00,129,,30,07,213,,50,47,179,,0*55
$GLGSV,2,1,05,69,16,036,31,70,31,100,21,75,39,214,35,76,44,296,44,1*73
$GLGSV,2,2,05,85,49,021,37,1*4A
$GLGSV,1,1,04,69,16,036,22,75,39,214,40,76,44,296,41,85,49,021,32,3*73
$GLGSV,2,1,05,71,11,148,,74,00,178,,77,09,335,,84,04,066,,0*7D
$GLGSV,2,2,05,84,04,066,,0*44
$GAGSV,2,1,05,13,53,271,38,15,60,029,40,18,75,029,40,21,41,306,36,2*74
$GAGSV,2,2,05,27,62,213,39,2*48
$GAGSV,2,1,07,03,12,100,24,13,53,271,34,15,60,029,39,18,75,029,43,7*73
$GAGSV,2,2,07,21,41,306,40,27,62,213,41,34,13,058,18,7*46
$GAGSV,1,1,04,01,00,327,,05,06,052,,08,03,147,,26,04,249,,0*75
$GBGSV,3,1,10,01,,,41,03,43,205,29,04,,,35,07,81,264,37,1*71
$GBGSV,3,2,10,08,45,221,37,10,69,294,43,14,36,088,37,27,26,284,41,1*72
$GBGSV,3,3,10,28,66,340,47,37,37,247,46,1*7A
$GBGSV,2,1,05,03,43,205,36,07,81,264,35,08,45,221,38,10,69,294,41,3*7B
$GBGSV,2,2,05,14,36,088,41,3*44
$GNRMC,030227.00,A,3726.8877272,N,12639.2928130,E,0.013,,210622,,,F,V*1B
$GNVTG,,T,,M,0.013,N,0.024,K,D*3C
$GNGNS,030227.00,3726.8877272,N,12639.2928130,E,FFFF,24,0.75,15.306,17.840,2.0,4095,V*06
$GNGGA,030227.00,3726.8877272,N,12639.2928130,E,5,12,0.75,15.306,M,17.840,M,2.0,4095*57
$GNGSA,A,3,03,14,21,17,01,06,19,,,,,,1.41,0.75,1.19,1*02
$GNGSA,A,3,85,75,76,69,,,,,,,,,1.41,0.75,1.19,2*0C
$GNGSA,A,3,13,21,15,27,03,,,,,,,,1.41,0.75,1.19,3*0F
$GNGSA,A,3,07,37,03,10,14,08,28,27,,,,,1.41,0.75,1.19,4*08
$GPGSV,3,1,09,01,41,044,42,03,57,100,29,06,23,248,39,08,08,105,18,1*68
$GPGSV,3,2,09,14,70,222,35,17,56,323,38,19,33,302,46,21,17,057,19,1*62
$GPGSV,3,3,09,28,,,43,1*60
$GPGSV,2,1,05,01,41,044,35,03,57,100,34,06,23,248,39,14,70,222,38,6*68
$GPGSV,2,2,05,17,56,323,32,6*50
$GPGSV,1,1,03,04,00,129,,30,07,213,,50,47,179,,0*55
$GLGSV,2,1,06,69,16,036,31,70,31,100,21,71,11,148,21,75,39,214,36,1*77
$GLGSV,2,2,06,76,44,296,44,85,49,021,37,1*75
$GLGSV,1,1,04,69,16,036,22,75,39,214,40,76,44,296,39,85,49,021,31,3*7F
$GLGSV,1,1,04,74,00,178,,77,09,335,,84,04,066,,86,44,304,,0*7D
$GAGSV,2,1,05,13,53,271,38,15,60,029,40,18,75,029,40,21,41,306,36,2*74
$GAGSV,2,2,05,27,62,213,39,2*48
$GAGSV,2,1,07,03,12,100,23,13,53,271,35,15,60,029,39,18,75,029,43,7*75
$GAGSV,2,2,07,21,41,306,40,27,62,213,41,34,13,058,17,7*49
$GAGSV,1,1,04,01,00,327,,05,06,052,,08,03,147,,26,04,249,,0*75
$GBGSV,3,1,10,01,,,41,03,43,205,29,04,,,35,07,81,264,37,1*71
$GBGSV,3,2,10,08,45,221,37,10,69,294,43,14,36,088,37,27,26,284,41,1*72
$GBGSV,3,3,10,28,66,340,47,37,37,247,46,1*7A
$GBGSV,2,1,05,03,43,205,36,07,81,264,35,08,45,221,38,10,69,294,42,3*78
$GBGSV,2,2,05,14,36,088,41,3*44
$GNRMC,030228.00,A,3726.8877340,N,12639.2928156,E,0.016,,210622,,,F,V*11
$GNVTG,,T,,M,0.016,N,0.030,K,D*3C
$GNGNS,030228.00,3726.8877340,N,12639.2928156,E,FFFF,24,0.75,15.278,17.840,2.0,4095,V*01
$GNGGA,030228.00,3726.8877340,N,12639.2928156,E,5,12,0.75,15.278,M,17.840,M,2.0,4095*50
$GNGSA,A,3,03,14,21,17,01,06,19,,,,,,1.41,0.75,1.19,1*02
$GNGSA,A,3,85,75,76,69,,,,,,,,,1.41,0.75,1.19,2*0C
$GNGSA,A,3,13,21,15,27,03,,,,,,,,1.41,0.75,1.19,3*0F
$GNGSA,A,3,07,37,03,10,14,08,28,27,,,,,1.41,0.75,1.19,4*08
$GPGSV,3,1,09,01,41,044,42,03,57,100,29,06,23,248,40,08,08,105,19,1*67
$GPGSV,3,2,09,14,70,222,36,17,56,323,38,19,33,302,47,21,17,057,18,1*61
$GPGSV,3,3,09,28,,,43,1*60
$GPGSV,2,1,05,01,41,044,35,03,57,100,36,06,23,248,39,14,70,222,38,6*6A
$GPGSV,2,2,05,17,56,323,31,6*53
$GPGSV,1,1,03,04,00,129,,30,07,213,,50,47,179,,0*55
$GLGSV,2,1,06,69,16,036,32,70,31,100,22,71,11,148,21,75,39,214,36,1*77
$GLGSV,2,2,06,76,44,296,44,85,49,021,36,1*74
$GLGSV,1,1,04,69,16,036,22,75,39,214,41,76,44,296,39,85,49,021,31,3*7E
$GLGSV,1,1,04,74,00,178,,77,09,335,,84,04,066,,86,44,304,,0*7D
$GAGSV,2,1,05,13,53,271,37,15,60,029,40,18,75,029,39,21,41,306,36,2*75
$GAGSV,2,2,05,27,62,213,39,2*48
$GAGSV,2,1,07,03,12,100,20,13,53,271,34,15,60,029,39,18,75,029,43,7*77
$GAGSV,2,2,07,21,41,306,40,27,62,213,41,34,13,058,15,7*4B
$GAGSV,1,1,04,01,00,327,,05,06,052,,08,03,147,,26,04,249,,0*75
$GBGSV,3,1,10,01,,,41,03,43,205,30,04,,,35,07,81,264,36,1*78
$GBGSV,3,2,10,08,45,221,37,10,69,294,43,14,36,088,38,27,26,284,41,1*7D
$GBGSV,3,3,10,28,66,340,47,37,37,247,46,1*7A
$GBGSV,2,1,05,03,43,205,36,07,81,264,36,08,45,221,39,10,69,294,42,3*7A
$GBGSV,2,2,05,14,36,088,42,3*47
$GNRMC,030229.00,A,3726.8877347,N,12639.2928150,E,0.004,,210622,,,F,V*12
$GNVTG,,T,,M,0.004,N,0.008,K,D*34
$GNGNS,030229.00,3726.8877347,N,12639.2928150,E,FFFF,24,0.75,15.265,17.840,2.0,4095,V*0D
$GNGGA,030229.00,3726.8877347,N,12639.2928150,E,5,12,0.75,15.265,M,17.840,M,2.0,4095*5C
$GNGSA,A,3,03,14,21,17,01,06,19,,,,,,1.41,0.75,1.19,1*02
$GNGSA,A,3,85,75,76,69,,,,,,,,,1.41,0.75,1.19,2*0C
$GNGSA,A,3,13,21,15,27,03,,,,,,,,1.41,0.75,1.19,3*0F
$GNGSA,A,3,07,37,03,10,14,08,28,27,,,,,1.41,0.75,1.19,4*08
$GPGSV,3,1,09,01,41,044,42,03,57,100,30,06,23,248,40,08,08,105,19,1*6F
$GPGSV,3,2,09,14,70,222,36,17,56,323,38,19,33,302,48,21,17,057,19,1*6F
$GPGSV,3,3,09,28,,,43,1*60
$GPGSV,2,1,05,01,41,044,35,03,57,100,36,06,23,248,39,14,70,222,38,6*6A
$GPGSV,2,2,05,17,56,323,31,6*53
$GPGSV,1,1,03,04,00,129,,30,07,213,,50,47,179,,0*55
$GLGSV,2,1,06,69,16,036,31,70,31,100,22,71,11,148,21,75,39,214,37,1*75
$GLGSV,2,2,06,76,44,296,44,85,49,021,35,1*77
$GLGSV,1,1,04,69,16,036,22,75,39,214,41,76,44,296,40,85,49,021,32,3*73
$GLGSV,1,1,04,74,00,178,,77,09,335,,84,04,066,,86,44,304,,0*7D
$GAGSV,2,1,05,13,53,271,38,15,60,029,40,18,75,029,39,21,41,306,37,2*7B
$GAGSV,2,2,05,27,62,213,39,2*48
$GAGSV,2,1,06,03,12,100,18,13,53,271,35,15,60,029,38,18,75,029,44,7*7A
$GAGSV,2,2,06,21,41,306,40,27,62,213,41,7*76
$GAGSV,2,1,05,01,00,327,,05,06,052,,08,03,147,,26,04,249,,0*77
$GAGSV,2,2,05,26,04,249,,0*4E
$GBGSV,3,1,10,01,,,42,03,43,205,30,04,,,35,07,81,264,36,1*7B
$GNRMC,030230.00,A,3726.8877366,N,12639.2927995,E,0.017,,210622,,,F,V*15
$GNVTG,,T,,M,0.017,N,0.032,K,D*3F
$GNGNS,030230.00,3726.8877366,N,12639.2927995,E,FFFF,24,0.75,15.269,17.840,2.0,4095,V*04
$GNGGA,030230.00,3726.8877366,N,12639.2927995,E,5,12,0.75,15.269,M,17.840,M,2.0,4095*55
$GNGSA,A,3,03,14,21,17,01,06,19,,,,,,1.41,0.75,1.19,1*02
$GNGSA,A,3,85,75,76,69,,,,,,,,,1.41,0.75,1.19,2*0C
$GNGSA,A,3,13,21,15,27,03,,,,,,,,1.41,0.75,1.19,3*0F
$GNGSA,A,3,07,37,03,10,14,08,28,27,,,,,1.41,0.75,1.19,4*08
$GPGSV,3,1,09,01,41,044,43,03,57,100,29,06,23,248,38,08,08,105,17,1*67
$GPGSV,3,2,09,14,70,222,38,17,56,323,39,19,33,302,47,21,17,057,21,1*64
$GPGSV,3,3,09,28,,,43,1*60
$GPGSV,2,1,05,01,41,044,35,03,57,100,36,06,23,248,39,14,70,222,38,6*6A
$GPGSV,2,2,05,17,56,323,31,6*53
$GPGSV,1,1,03,04,00,129,,30,07,213,,50,47,179,,0*55
$GLGSV,2,1,06,69,16,036,30,70,31,100,22,71,11,148,22,75,39,214,37,1*77
$GLGSV,2,2,06,76,44,296,45,85,49,021,35,1*76
$GLGSV,1,1,04,69,16,036,23,75,39,214,40,76,44,296,40,85,49,021,32,3*73
$GLGSV,1,1,04,74,00,178,,77,09,335,,84,04,066,,86,44,304,,0*7D
$GAGSV,2,1,05,13,53,271,38,15,60,029,40,18,75,029,40,21,41,306,37,2*75
$GAGSV,2,2,05,27,62,213,39,2*48
$GAGSV,2,1,06,03,12,100,18,13,53,271,33,15,60,029,38,18,75,029,44,7*7C
$GAGSV,2,2,06,21,41,306,40,27,62,213,41,7*76
$GAGSV,2,1,05,01,00,327,,05,06,052,,08,03,147,,26,04,249,,0*77
$GAGSV,2,2,05,26,04,249,,0*4E
$GBGSV,3,1,10,01,,,40,03,43,205,31,04,,,34,07,81,264,36,1*79
$GBGSV,3,2,10,08,45,221,38,10,69,294,43,14,36,088,38,27,26,284,42,1*71
$GBGSV,3,3,10,28,66,340,47,37,37,247,46,1*7A
$GBGSV,2,1,05,03,43,205,37,07,81,264,35,08,45,221,38,10,69,294,42,3*79
$GBGSV,2,2,05,14,36,088,40,3*45
$GNRMC,030231.00,A,3726.8877550,N,12639.2927835,E,0.002,,210622,,,F,V*18
$GNVTG,,T,,M,0.002,N,0.003,K,D*39
$GNGNS,030231.00,3726.8877550,N,12639.2927835,E,FFFF,24,0.75,15.261,17.840,2.0,4095,V*05
$GNGGA,030231.00,3726.8877550,N,12639.2927835,E,5,12,0.75,15.261,M,17.840,M,2.0,4095*54
$GNGSA,A,3,03,14,21,17,01,06,19,,,,,,1.41,0.75,1.19,1*02
$GNGSA,A,3,85,75,76,69,,,,,,,,,1.41,0.75,1.19,2*0C
$GNGSA,A,3,13,21,15,27,03,,,,,,,,1.41,0.75,1.19,3*0F
$GNGSA,A,3,07,37,03,10,14,08,28,27,,,,,1.41,0.75,1.19,4*08
$GPGSV,3,1,09,01,41,044,43,03,57,100,31,06,23,248,39,08,08,105,16,1*6E
$GPGSV,3,2,09,14,70,222,37,17,56,323,39,19,33,302,47,21,17,057,22,1*68
$GPGSV,3,3,09,28,,,42,1*61
$GPGSV,2,1,05,01,41,044,36,03,57,100,36,06,23,248,38,14,70,222,38,6*68
$GPGSV,2,2,05,17,56,323,31,6*53
$GPGSV,1,1,03,04,00,129,,30,07,213,,50,47,179,,0*55
$GLGSV,2,1,06,69,16,036,30,70,31,100,23,71,11,148,22,75,39,214,37,1*76
$GLGSV,2,2,06,76,44,296,44,85,49,021,36,1*74
$GLGSV,1,1,04,69,16,036,24,75,39,214,41,76,44,296,40,85,49,021,33,3*74
$GLGSV,1,1,04,74,00,178,,77,09,335,,84,04,066,,86,44,304,,0*7D
$GAGSV,2,1,05,13,53,271,38,15,60,029,40,18,75,029,41,21,41,306,37,2*74
$GAGSV,2,2,05,27,62,213,37,2*46
$GAGSV,2,1,06,03,12,100,18,13,53,271,32,15,60,029,38,18,75,029,43,7*7A
$GAGSV,2,2,06,21,41,306,41,27,62,213,41,7*77
$GAGSV,2,1,05,01,00,327,,05,06,052,,08,03,147,,26,04,249,,0*77
$GAGSV,2,2,05,26,04,249,,0*4E
$GBGSV,3,1,10,01,,,41,03,43,205,31,04,,,34,07,81,264,36,1*78
$GBGSV,3,2,10,08,45,221,38,10,69,294,44,14,36,088,38,27,26,284,42,1*76
$GBGSV,3,3,10,28,66,340,47,37,37,247,46,1*7A
$GNRMC,030232.00,A,3726.8877823,N,12639.2927744,E,0.007,,210622,,,F,V*1E
$GNVTG,,T,,M,0.007,N,0.012,K,D*3C
$GNGNS,030232.00,3726.8877823,N,12639.2927744,E,FFFF,24,0.75,15.237,17.840,2.0,4095,V*05
$GNGGA,030232.00,3726.8877823,N,12639.2927744,E,5,12,0.75,15.237,M,17.840,M,2.0,4095*54
$GNGSA,A,3,03,14,21,17,01,06,19,,,,,,1.41,0.75,1.19,1*02
$GNGSA,A,3,85,75,76,69,,,,,,,,,1.41,0.75,1.19,2*0C
$GNGSA,A,3,13,21,15,27,03,,,,,,,,1.41,0.75,1.19,3*0F
$GNGSA,A,3,07,37,03,10,14,08,28,27,,,,,1.41,0.75,1.19,4*08
$GPGSV,3,1,09,01,41,044,43,03,57,100,32,06,23,248,39,08,08,105,17,1*6C
$GPGSV,3,2,09,14,70,222,36,17,56,323,39,19,33,302,46,21,17,057,25,1*6F
$GPGSV,3,3,09,28,,,43,1*60
$GPGSV,2,1,05,01,41,044,36,03,57,100,36,06,23,248,39,14,70,222,38,6*69
$GPGSV,2,2,05,17,56,323,32,6*50
$GPGSV,1,1,03,04,00,129,,30,07,213,,50,47,179,,0*55
$GLGSV,2,1,06,69,16,036,29,70,31,100,23,71,11,148,22,75,39,214,36,1*7F
$GLGSV,2,2,06,76,44,296,44,85,49,021,36,1*74
$GLGSV,1,1,04,69,16,036,25,75,39,214,41,76,44,296,41,85,49,021,33,3*74
$GLGSV,1,1,04,74,00,178,,77,09,335,,84,04,066,,86,44,304,,0*7D
$GAGSV,2,1,05,13,53,271,37,15,60,029,40,18,75,029,40,21,41,306,37,2*7A
$GAGSV,2,2,05,27,62,213,37,2*46
$GAGSV,2,1,07,03,12,100,15,13,53,271,31,15,60,029,39,18,75,029,43,7*74
$GAGSV,2,2,07,21,41,306,41,27,62,213,41,34,13,058,18,7*47
$GAGSV,1,1,04,01,00,327,,05,06,052,,08,03,147,,26,04,249,,0*75
$GBGSV,3,1,10,01,,,41,03,43,205,33,04,,,34,07,81,264,36,1*7A
$GBGSV,3,2,10,08,45,221,37,10,69,294,44,14,36,088,39,27,26,284,43,1*79
$GBGSV,3,3,10,28,66,340,47,37,37,247,46,1*7A
$GBGSV,2,1,05,03,43,205,36,07,81,264,36,08,45,221,39,10,69,294,42,3*7A
$GBGSV,2,2,05,14,36,088,41,3*44
$GNRMC,030233.00,A,3726.8878103,N,12639.2927641,E,0.004,,210622,,,F,V*1C
$GNVTG,,T,,M,0.004,N,0.007,K,D*3B
$GNGNS,030233.00,3726.8878103,N,12639.2927641,E,FFFF,24,0.75,15.231,17.840,1.0,4095,V*01
$GNGGA,030233.00,3726.8878103,N,12639.2927641,E,5,12,0.75,15.231,M,17.840,M,1.0,4095*50
$GNGSA,A,3,03,14,21,17,01,06,19,,,,,,1.41,0.75,1.19,1*02
$GNGSA,A,3,85,75,76,69,,,,,,,,,1.41,0.75,1.19,2*0C
$GNGSA,A,3,13,21,15,27,03,,,,,,,,1.41,0.75,1.19,3*0F
$GNGSA,A,3,07,37,03,10,14,08,28,27,,,,,1.41,0.75,1.19,4*08
$GPGSV,3,1,09,01,41,044,43,03,57,100,31,06,23,248,38,08,08,105,17,1*6E
$GPGSV,3,2,09,14,70,222,35,17,56,323,38,19,33,302,47,21,17,057,25,1*6C
$GPGSV,3,3,09,28,,,44,1*67
$GPGSV,2,1,05,01,41,044,36,03,57,100,36,06,23,248,39,14,70,222,38,6*69
$GPGSV,2,2,05,17,56,323,31,6*53
$GPGSV,1,1,03,04,00,129,,30,07,213,,50,47,179,,0*55
$GLGSV,2,1,06,69,16,036,29,70,31,100,22,71,11,148,21,75,39,214,36,1*7D
$GLGSV,2,2,06,76,44,296,43,85,49,021,35,1*70
$GLGSV,1,1,04,69,16,036,25,75,39,214,41,76,44,296,40,85,49,021,32,3*74
$GLGSV,1,1,04,74,00,178,,77,09,335,,84,04,066,,86,44,304,,0*7D
$GAGSV,2,1,05,13,53,271,37,15,60,029,40,18,75,029,40,21,41,306,36,2*7B
$GAGSV,2,2,05,27,62,213,37,2*46
$GAGSV,2,1,07,03,12,100,13,13,53,271,30,15,60,029,39,18,75,029,43,7*73
$GAGSV,2,2,07,21,41,306,41,27,62,213,41,34,13,058,17,7*48
$GAGSV,1,1,04,01,00,327,,05,06,052,,08,03,147,,26,04,249,,0*75
$GBGSV,3,1,10,01,,,41,03,43,205,33,04,,,34,07,81,264,36,1*7A
$GBGSV,3,2,10,08,45,221,37,10,69,294,44,14,36,088,39,27,26,284,42,1*78
$GBGSV,3,3,10,28,66,340,47,37,37,247,46,1*7A
$GBGSV,2,1,05,03,43,205,36,07,81,264,36,08,45,221,39,10,69,294,42,3*7A
$GBGSV,2,2,05,14,36,088,41,3*44
$GNRMC,030234.00,A,3726.8878375,N,12639.2927369,E,0.019,,210622,,,F,V*1B
$GNVTG,,T,,M,0.019,N,0.036,K,D*35
$GNGNS,030234.00,3726.8878375,N,12639.2927369,E,FFFF,24,0.79,15.239,17.840,2.0,4095,V*0D
$GNGGA,030234.00,3726.8878375,N,12639.2927369,E,5,12,0.79,15.239,M,17.840,M,2.0,4095*5C
$GNGSA,A,3,03,14,21,17,01,06,19,,,,,,1.66,0.79,1.45,1*02
$GNGSA,A,3,85,75,76,69,,,,,,,,,1.66,0.79,1.45,2*0C
$GNGSA,A,3,13,21,15,27,03,,,,,,,,1.66,0.79,1.45,3*0F
$GNGSA,A,3,07,37,03,10,14,08,28,27,,,,,1.66,0.79,1.45,4*08
$GPGSV,3,1,09,01,41,044,43,03,57,100,31,06,23,248,38,08,08,105,16,1*6F
$GPGSV,3,2,09,14,70,222,35,17,56,323,38,19,33,302,47,21,17,057,27,1*6E
$GPGSV,3,3,09,28,,,43,1*60
$GPGSV,2,1,05,01,41,044,36,03,57,100,35,06,23,248,39,14,70,222,39,6*6B
$GPGSV,2,2,05,17,56,323,31,6*53
$GPGSV,1,1,03,04,00,129,,30,07,213,,50,47,179,,0*55
$GNRMC,030235.00,A,3726.8878583,N,12639.2927152,E,0.006,,210622,,,F,V*11
$GNVTG,,T,,M,0.006,N,0.011,K,D*3E
$GNGNS,030235.00,3726.8878583,N,12639.2927152,E,FFFF,24,0.79,15.244,17.840,2.0,4095,V*03
$GNGGA,030235.00,3726.8878583,N,12639.2927152,E,5,12,0.79,15.244,M,17.840,M,2.0,4095*52
$GNGSA,A,3,03,14,21,17,01,06,19,,,,,,1.66,0.79,1.45,1*02
$GNGSA,A,3,85,75,76,69,,,,,,,,,1.66,0.79,1.45,2*0C
$GNGSA,A,3,13,21,15,27,03,,,,,,,,1.66,0.79,1.45,3*0F
$GNGSA,A,3,07,37,03,10,14,08,28,27,,,,,1.66,0.79,1.45,4*08
$GPGSV,2,1,08,01,41,044,43,03,57,100,32,06,23,248,38,14,70,222,34,1*68
$GPGSV,2,2,08,17,56,323,38,19,33,302,47,21,17,057,26,28,,,43,1*54
$GPGSV,2,1,05,01,41,044,35,03,57,100,35,06,23,248,39,14,70,222,39,6*68
$GPGSV,2,2,05,17,56,323,31,6*53
$GPGSV,1,1,04,04,00,129,,08,08,105,,30,07,213,,50,47,179,,0*66
$GLGSV,2,1,06,69,16,035,31,70,32,099,22,71,11,148,19,75,39,214,37,1*7F
$GLGSV,2,2,06,76,44,296,42,85,49,021,34,1*70
$GLGSV,1,1,04,69,16,035,26,75,39,214,42,76,44,296,41,85,49,021,33,3*77
$GLGSV,1,1,04,74,00,178,,77,09,335,,84,04,066,,86,44,304,,0*7D
$GAGSV,2,1,05,13,53,271,38,15,60,029,40,18,75,029,40,21,41,306,37,2*75
$GAGSV,2,2,05,27,62,213,38,2*49
$GAGSV,2,1,07,03,12,100,14,13,53,271,30,15,60,029,39,18,75,029,44,7*73
$GAGSV,2,2,07,21,41,306,41,27,62,213,41,34,13,058,16,7*49
$GAGSV,1,1,04,01,00,327,,05,06,052,,08,03,147,,26,04,249,,0*75
$GBGSV,3,1,10,01,,,41,03,43,205,34,04,,,36,07,81,264,37,1*7E
$GBGSV,3,2,10,08,45,221,37,10,69,294,44,14,36,088,39,27,26,284,41,1*7B
$GBGSV,3,3,10,28,66,340,47,37,37,247,45,1*79
$GBGSV,2,1,05,03,43,205,36,07,81,264,36,08,45,221,39,10,69,294,42,3*7A
$GBGSV,2,2,05,14,36,088,41,3*44
$GNRMC,030236.00,A,3726.8878782,N,12639.2927022,E,0.005,,210622,,,F,V*14
$GNVTG,,T,,M,0.005,N,0.009,K,D*34
$GNGNS,030236.00,3726.8878782,N,12639.2927022,E,FFFF,24,0.79,15.254,17.840,2.0,4095,V*04
$GNGGA,030236.00,3726.8878782,N,12639.2927022,E,5,12,0.79,15.254,M,17.840,M,2.0,4095*55
$GNGSA,A,3,03,14,21,17,01,06,19,,,,,,1.66,0.79,1.45,1*02
$GNGSA,A,3,85,75,76,69,,,,,,,,,1.66,0.79,1.45,2*0C
$GNGSA,A,3,13,21,15,27,03,,,,,,,,1.66,0.79,1.45,3*0F
$GNGSA,A,3,07,37,03,10,14,08,28,27,,,,,1.66,0.79,1.45,4*08
$GPGSV,2,1,08,01,41,044,43,03,57,100,31,06,23,248,38,14,70,222,33,1*6C
$GPGSV,2,2,08,17,56,323,38,19,33,302,47,21,17,057,27,28,,,44,1*52
$GPGSV,2,1,05,01,41,044,35,03,57,100,36,06,23,248,39,14,70,222,38,6*6A
$GPGSV,2,2,05,17,56,323,31,6*53
$GPGSV,1,1,04,04,00,129,,08,08,105,,30,07,213,,50,47,179,,0*66
$GLGSV,2,1,06,69,16,035,31,70,32,099,23,71,12,148,20,75,39,214,37,1*77
$GLGSV,2,2,06,76,44,296,42,85,49,021,34,1*70
$GLGSV,1,1,04,69,16,035,27,75,39,214,41,76,44,296,41,85,49,021,33,3*75
$GLGSV,1,1,04,74,00,178,,77,09,335,,84,04,066,,86,44,304,,0*7D
$GAGSV,2,1,06,03,12,100,24,13,53,271,38,15,60,029,40,18,75,029,40,2*76
$GNRMC,030237.00,A,3726.8879073,N,12639.2926938,E,0.005,,210622,,,F,V*1E
$GNGNS,030237.00,3726.8879073,N,12639.2926938,E,FFFF,24,0.79,15.274,17.840,2.0,4095,V*0C
$GNGGA,030237.00,3726.8879073,N,12639.2926938,E,5,12,0.79,15.274,M,17.840,M,2.0,4095*5D
$GNGSA,A,3,03,14,21,17,01,06,19,,,,,,1.66,0.79,1.45,1*02
$GNGSA,A,3,85,75,76,69,,,,,,,,,1.66,0.79,1.45,2*0C
$GNGSA,A,3,13,21,15,27,03,,,,,,,,1.66,0.79,1.45,3*0F
$GNGSA,A,3,07,37,03,10,14,08,28,27,,,,,1.66,0.79,1.45,4*08
$GPGSV,2,1,08,01,41,044,43,03,57,100,30,06,23,248,38,14,70,222,32,1*6C
$GPGSV,2,2,08,17,56,323,37,19,33,302,47,21,17,057,27,28,,,44,1*5D
$GPGSV,2,1,05,01,41,044,36,03,57,100,35,06,23,248,39,14,70,222,39,6*6B
$GPGSV,2,2,05,17,56,323,31,6*53
$GPGSV,1,1,04,04,00,129,,08,08,105,,30,07,213,,50,47,179,,0*66
$GLGSV,2,1,06,69,16,035,32,70,32,099,23,71,12,148,20,75,39,214,37,1*74
$GLGSV,2,2,06,76,44,296,42,85,49,021,35,1*71
$GLGSV,1,1,04,69,16,035,27,75,39,214,41,76,44,296,41,85,49,021,33,3*75
$GLGSV,1,1,04,74,00,178,,77,09,335,,84,04,066,,86,44,304,,0*7D
$GAGSV,2,1,06,03,12,100,$GAGSV,2,2,06,21,41,306,37,27,62,213,38,2*7D
$GAGSV,2,1,07,03,12,100,11,13,53,271,28,15,60,029,39,18,75,029,44,7*7F
$GAGSV,2,2,07,21,41,306,42,27,62,213,40,34,13,058,20,7*4E
$GAGSV,1,1,04,01,00,327,,05,06,052,,08,03,147,,26,04,249,,0*75
$GBGSV,3,1,10,01,,,40,03,43,205,34,04,,,35,07,81,264,35,1*7E
$GBGSV,3,2,10,08,45,221,37,10,69,294,43,14,36,088,39,27,26,284,41,1*7C
$GBGSV,3,3,10,28,66,340,47,37,37,247,46,1*7A
$GBGSV,2,1,05,03,43,205,36,07,81,264,36,08,45,221,39,10,69,294,43,3*7B
$GBGSV,2,2,05,14,36,088,41,3*44
$GNRMC,030238.00,A,3726.8879314,N,12639.2926812,E,0.007,,210622,,,F,V*18
$GNVTG,,T,,M,0.007,N,0.014,K,D*3A
$GNGNS,030238.00,3726.8879314,N,12639.2926812,E,FFFF,24,0.75,15.293,17.840,2.0,4095,V*0D
$GNGGA,030238.00,3726.8879314,N,12639.2926812,E,5,12,0.75,15.293,M,17.840,M,2.0,4095*5C
$GNGSA,A,3,03,14,21,17,01,06,19,,,,,,1.41,0.75,1.19,1*02
$GNGSA,A,3,85,75,76,69,,,,,,,,,1.41,0.75,1.19,2*0C
$GNGSA,A,3,13,21,15,27,03,,,,,,,,1.41,0.75,1.19,3*0F
$GNGSA,A,3,07,37,03,10,14,08,28,27,,,,,1.41,0.75,1.19,4*08
$GPGSV,2,1,08,01,41,044,43,03,57,100,30,06,23,248,38,14,70,222,32,1*6C
$GPGSV,2,2,08,17,56,323,37,19,33,302,47,21,17,057,27,28,,,44,1*5D
$GPGSV,2,1,05,01,41,044,36,03,57,100,35,06,23,248,39,14,70,222,39,6*6B
$GPGSV,2,2,05,17,56,323,31,6*53
$GPGSV,1,1,04,04,00,129,,08,08,105,,30,07,213,,50,47,179,,0*66
$GLGSV,2,1,06,69,16,035,31,70,32,099,22,71,12,148,19,75,39,214,37,1*7C
$GLGSV,2,2,06,76,44,296,42,85,49,021,36,1*72
$GLGSV,1,1,04,69,16,035,26,75,39,214,39,76,44,296,40,85,49,021,32,3*7B
$GLGSV,1,1,04,74,00,178,,77,09,335,,84,04,066,,86,44,304,,0*7D
$GAGSV,2,1,06,03,12,100,24,13,53,271,38,15,60,029,40,18,75,029,40,2*76
$GAGSV,2,2,06,21,41,306,37,27,62,213,38,2*7D
$GAGSV,2,1,07,03,12,100,15,13,53,271,28,15,60,029,39,18,75,029,44,7*7B
$GAGSV,2,2,07,21,41,306,42,27,62,213,40,34,13,058,21,7*4F
$GAGSV,1,1,04,01,00,327,,05,06,052,,08,03,147,,26,04,249,,0*75
$GBGSV,3,1,10,01,,,40,03,43,205,35,04,,,36,07,81,264,36,1*7F
$GBGSV,3,2,10,08,45,221,37,10,69,294,43,14,36,088,39,27,26,284,41,1*7C
$GBGSV,3,3,10,28,66,340,47,37,37,247,46,1*7A
$GBGSV,2,1,05,03,43,205,36,07,81,264,35,08,45,221,38,10,69,294,42,3*78
$GBGSV,2,2,05,14,36,088,41,3*44
$GNRMC,030239.00,A,3726.8879516,N,12639.2926574,E,0.013,,210622,,,F,V*15
$GNVTG,,T,,M,0.013,N,0.025,K,D*3D
$GNGNS,030239.00,3726.8879516,N,12639.2926574,E,FFFF,24,0.75,15.315,17.840,2.0,4095,V*0A
$GNGGA,030239.00,3726.8879516,N,12639.2926574,E,5,12,0.75,15.315,M,17.840,M,2.0,4095*5B
$GNGSA,A,3,03,14,21,17,01,06,19,,,,,,1.41,0.75,1.19,1*02
$GNGSA,A,3,85,75,76,69,,,,,,,,,1.41,0.75,1.19,2*0C
$GNGSA,A,3,13,21,15,27,03,,,,,,,,1.41,0.75,1.19,3*0F
$GNGSA,A,3,07,37,03,10,14,08,28,27,,,,,1.41,0.75,1.19,4*08
$GPGSV,2,1,08,01,41,044,44,03,57,100,30,06,23,248,37,14,70,222,32,1*64
$GPGSV,2,2,08,17,56,323,38,19,33,302,48,21,17,057,27,28,,,44,1*5D
$GPGSV,2,1,05,01,41,044,35,03,57,100,36,06,23,248,38,14,70,222,39,6*6A
$GPGSV,2,2,05,17,56,323,31,6*53
$GPGSV,1,1,04,04,00,129,,08,08,105,,30,07,213,,50,47,179,,0*66
$GLGSV,2,1,06,69,16,035,31,70,32,099,22,71,12,148,20,75,39,214,38,1*79
$GLGSV,2,2,06,76,44,296,42,85,49,021,36,1*72
$GLGSV,1,1,04,69,16,035,26,75,39,214,39,76,44,296,39,85,49,021,31,3*76
$GLGSV,1,1,03,77,09,335,,84,04,066,,86,44,304,,0*47
$GAGSV,2,1,06,03,12,100,24,13,53,271,37,15,60,029,40,18,75,029,40,2*79
$GAGSV,2,2,06,21,41,306,37,27,62,213,38,2*7D
$GAGSV,2,1,06,13,53,271,28,15,60,029,38,18,75,029,44,21,41,306,42,7*7B
$GAGSV,2,2,06,27,62,213,40,34,13,058,22,7*78
$GAGSV,1,1,04,01,00,327,,05,06,052,,08,03,147,,26,04,249,,0*75
$GBGSV,3,1,10,01,,,41,03,43,205,34,04,,,35,07,81,264,36,1*7C
$GBGSV,3,2,10,08,45,221,37,10,69,294,43,14,36,088,39,27,26,284,41,1*7C
$GBGSV,3,3,10,28,66,340,47,37,37,247,46,1*7A
$GBGSV,2,1,05,03,43,205,36,07,81,264,35,08,45,221,38,10,69,294,43,3*79
$GBGSV,2,2,05,14,36,088,41,3*44
$GNRMC,030240.00,A,3726.8884235,N,12639.2929211,E,0.004,,210622,,,R,V*06
$GNVTG,,T,,M,0.004,N,0.008,K,D*34
$GNGGA,030240.00,3726.8884235,N,12639.2929211,E,4,12,0.75,15.732,M,17.840,M,2.0,4095*5A
$GNGSA,A,3,03,14,21,17,01,06,19,,,,,,1.41,0.75,1.19,1*02
$GNGSA,A,3,85,75,76,69,,,,,,,,,1.41,0.75,1.19,2*0C
$GNGSA,A,3,13,21,15,27,03,,,,,,,,1.41,0.75,1.19,3*0F
$GNGSA,A,3,07,37,03,10,14,08,28,27,,,,,1.41,0.75,1.19,4*08
$GPGSV,2,1,08,01,41,044,43,03,57,100,31,06,23,248,37,14,70,222,32,1*62
$GPGSV,2,2,08,17,56,323,37,19,33,302,47,21,17,057,27,28,,,44,1*5D
$GPGSV,2,1,05,01,41,044,35,03,57,100,35,06,23,248,38,14,70,222,39,6*69
$GPGSV,2,2,05,17,56,323,31,6*53
$GPGSV,1,1,04,04,00,129,,08,08,105,,30,07,213,,50,47,179,,0*66
$GLGSV,2,1,06,69,16,035,30,70,32,099,22,71,12,148,19,75,38,213,37,1*7B
$GLGSV,2,2,06,76,44,296,43,85,49,021,36,1*73
$GLGSV,1,1,04,69,16,035,26,75,38,213,39,76,44,296,39,85,49,021,31,3*70
$GLGSV,1,1,03,77,09,335,,84,04,066,,86,44,304,,0*47
$GAGSV,2,1,06,03,12,100,24,13,53,271,37,15,60,029,40,18,75,029,41,2*78$GAGSV,2,2,06,21,41,306,37,27,62,213,38,2*7D
$GAGSV,2,1,06,13,53,271,28,15,60,029,38,18,75,029,44,21,41,306,42,7*7B
$GAGSV,2,2,06,27,62,213,39,34,13,058,23,7*77
$GAGSV,1,1,04,01,00,327,,05,06,052,,08,03,147,,26,04,249,,0*75
$GBGSV,3,1,10,01,,,41,03,43,205,34,04,,,36,07,81,264,36,1*7F
$GBGSV,3,2,10,08,45,221,37,10,69,294,43,14,36,088,39,27,26,284,41,1*7C
$GBGSV,3,3,10,28,66,340,47,37,37,247,46,1*7A
$GBGSV,2,1,05,03,43,205,36,07,81,264,35,08,45,221,38,10,69,294,43,3*79
$GBGSV,2,2,05,14,36,088,42,3*47
$GNRMC,030241.00,A,3726.8884246,N,12639.2929184,E,0.009,,210622,,,R,V*01
$GNVTG,,T,,M,0.009,N,0.017,K,D*37
$GNGNS,030241.00,3726.8884246,N,12639.2929184,E,RRRR,23,0.75,15.736,17.840,2.0,4095,V*03
$GNGGA,030241.00,3726.8884246,N,12639.2929184,E,4,12,0.75,15.736,M,17.840,M,2.0,4095*54
$GNGSA,A,3,03,14,21,17,01,06,19,,,,,,1.41,0.75,1.19,1*02
$GNGSA,A,3,85,75,76,69,,,,,,,,,1.41,0.75,1.19,2*0C
$GNGSA,A,3,13,21,15,27,03,,,,,,,,1.41,0.75,1.19,3*0F
$GNGSA,A,3,07,37,03,10,14,08,28,27,,,,,1.41,0.75,1.19,4*08
$GPGSV,2,1,08,01,41,044,43,03,57,100,32,06,23,248,37,14,70,222,32,1*61
$GPGSV,2,2,08,17,56,323,37,19,33,302,48,21,17,057,27,28,,,43,1*55
$GPGSV,2,1,05,01,41,044,35,03,57,100,35,06,23,248,36,14,70,222,38,6*66
$GPGSV,2,2,05,17,56,323,31,6*53
$GPGSV,1,1,04,04,00,129,,08,08,105,,30,07,213,,50,47,179,,0*66
$GLGSV,2,1,06,69,16,035,28,70,32,099,22,71,12,148,20,75,38,213,37,1*78
$GLGSV,2,2,06,76,44,295,42,85,49,021,36,1*71
$GLGSV,1,1,04,69,16,035,26,75,38,213,38,76,44,295,37,85,49,021,31,3*7C
$GLGSV,1,1,03,77,09,335,,84,04,066,,86,44,304,,0*47
$GAGSV,2,1,06,03,12,100,24,13,53,271,38,15,60,029,39,18,75,029,40,2*78
$GAGSV,2,2,06,21,41,306,38,27,62,213,39,2*73
$GAGSV,2,1,07,03,12,100,17,13,53,271,29,15,60,029,38,18,75,029,44,7*79
$GAGSV,2,2,07,21,41,306,42,27,62,213,40,34,13,058,22,7*4C
$GAGSV,1,1,04,01,00,327,,05,06,052,,08,03,147,,26,04,249,,0*75
$GBGSV,3,1,10,01,,,41,03,43,205,35,04,,,35,07,81,264,36,1*7D
$GBGSV,3,2,10,08,45,221,37,10,69,294,43,14,36,088,39,27,26,284,40,1*7D
$GBGSV,3,3,10,28,66,340,47,37,37,247,46,1*7A
$GBGSV,2,1,05,03,43,205,33,07,81,264,35,08,45,221,38,10,69,294,40,3*7F
$GBGSV,2,2,05,14,36,088,40,3*45
$GNRMC,030242.00,A,3726.8884234,N,12639.2929207,E,0.011,,210622,,,R,V*06
$GNVTG,,T,,M,0.011,N,0.020,K,D*3A
$GNGNS,030242.00,3726.8884234,N,12639.2929207,E,RRRR,23,0.75,15.734,17.840,2.0,4095,V*0F
$GNGGA,030242.00,3726.8884234,N,12639.2929207,E,4,12,0.75,15.734,M,17.840,M,2.0,4095*58
$GNRMC,030243.00,A,3726.8884251,N,12639.2929201,E,0.019,,210622,,,R,V*0A
$GNVTG,,T,,M,0.019,N,0.035,K,D*36
$GNGNS,030243.00,3726.8884251,N,12639.2929201,E,RRRR,23,0.75,15.739,17.840,1.0,4095,V*05
$GNGGA,030243.00,3726.8884251,N,12639.2929201,E,4,12,0.75,15.739,M,17.840,M,1.0,4095*52
$GNGSA,A,3,03,14,21,17,01,06,19,,,,,,1.41,0.75,1.19,1*02
$GNGSA,A,3,85,75,76,69,,,,,,,,,1.41,0.75,1.19,2*0C
$GNGSA,A,3,13,21,15,27,03,,,,,,,,1.41,0.75,1.19,3*0F
$GNGSA,A,3,07,37,03,10,14,08,28,27,,,,,1.41,0.75,1.19,4*08
$GPGSV,2,1,08,01,41,045,43,03,57,100,34,06,23,248,37,14,70,222,31,1*65
$GPGSV,2,2,08,17,56,323,36,19,33,302,47,21,17,057,28,28,,,43,1*54
$GPGSV,2,1,05,01,41,045,37,03,57,100,35,06,23,248,38,14,70,222,37,6*64
$GPGSV,2,2,05,17,56,323,30,6*52
$GPGSV,1,1,04,04,00,129,,08,08,105,,30,07,213,,50,47,179,,0*66
$GLGSV,2,1,06,69,16,035,27,70,32,099,22,71,12,148,20,75,38,213,38,1*78
$GLGSV,2,2,06,76,44,295,43,85,49,021,35,1*73
$GLGSV,1,1,04,69,16,035,26,75,38,213,40,76,44,295,39,85,49,021,31,3*7D
$GLGSV,1,1,03,77,10,334,,84,04,066,,86,44,304,,0*4E
$GAGSV,2,1,06,03,12,100,23,13,53,271,36,15,60,029,38,18,75,029,38,2*7F
$GAGSV,2,2,06,21,41,306,32,27,62,213,37,2*77
$GAGSV,2,1,07,03,12,100,16,13,53,271,30,15,60,029,38,18,75,029,44,7*70
$GAGSV,2,2,07,21,41,306,41,27,62,213,39,34,13,058,21,7*42
$GAGSV,1,1,04,01,00,327,,05,06,052,,08,03,147,,26,04,249,,0*75
$GBGSV,3,1,10,01,,,41,03,43,205,35,04,,,35,07,81,264,36,1*7D
$GBGSV,3,2,10,08,45,221,37,10,69,294,42,14,36,088,39,27,26,284,41,1*7D
$GBGSV,3,3,10,28,66,340,47,37,37,247,46,1*7A
$GBGSV,2,1,05,03,43,205,35,07,81,264,33,08,45,221,37,10,69,294,39,3*7E
$GBGSV,2,2,05,14,36,088,39,3*4B
$GNRMC,030244.00,A,3726.8884266,N,12639.2929166,E,0.022,,210622,,,R,V*03
$GNVTG,,T,,M,0.022,N,0.041,K,D*3D
$GNGNS,030244.00,3726.8884266,N,12639.2929166,E,RRRR,24,0.75,15.740,17.840,2.0,4095,V*0E
$GNGGA,030244.00,3726.8884266,N,12639.2929166,E,4,12,0.75,15.740,M,17.840,M,2.0,4095*5E
$GNGSA,A,3,03,14,21,17,01,06,19,,,,,,1.41,0.75,1.19,1*02
$GNGSA,A,3,85,75,76,69,,,,,,,,,1.41,0.75,1.19,2*0C
$GNGSA,A,3,13,21,15,27,03,,,,,,,,1.41,0.75,1.19,3*0F
$GNGSA,A,3,07,37,03,10,14,08,28,27,,,,,1.41,0.75,1.19,4*08
$GPGSV,2,1,08,01,41,045,43,03,57,100,34,06,23,248,37,14,70,222,35,1*61
$GPGSV,2,2,08,17,56,323,34,19,33,302,47,21,17,057,27,28,,,43,1*59
$GPGSV,2,1,05,01,41,045,35,03,57,100,35,06,23,248,38,14,70,222,40,6*66
$GPGSV,2,2,05,17,56,323,31,6*53
$GPGSV,1,1,04,04,00,129,,08,08,105,,30,07,213,,50,47,179,,0*66
$GLGSV,2,1,06,69,16,035,26,70,32,099,21,71,12,148,20,75,38,213,38,1*7A
$GLGSV,2,2,06,76,44,295,42,85,49,021,36,1*71
$GLGSV,2,1,05,69,16,035,26,71,12,148,18,75,38,213,40,76,44,295,39,3*7F
$GLGSV,2,2,05,85,49,021,30,3*4F
$GLGSV,1,1,03,77,10,334,,84,04,066,,86,44,304,,0*4E
$GAGSV,2,1,06,03,12,100,24,13,53,271,37,15,60,029,39,18,75,029,40,2*77
$GAGSV,2,2,06,21,41,306,35,27,62,213,37,2*70
$GAGSV,2,1,07,03,12,100,16,13,53,271,30,15,60,029,38,18,75,029,43,7*77
$GAGSV,2,2,07,21,41,306,41,27,62,213,39,34,13,058,21,7*42
$GAGSV,1,1,04,01,00,327,,05,06,052,,08,03,147,,26,04,249,,0*75
$GBGSV,3,1,10,01,,,40,03,43,205,35,04,,,35,07,81,264,37,1*7D
$GBGSV,3,2,10,08,45,221,37,10,69,294,43,14,36,088,39,27,26,284,41,1*7C
$GBGSV,3,3,10,28,66,340,47,37,37,247,46,1*7A
$GBGSV,2,1,05,03,43,205,34,07,81,264,34,08,45,221,36,10,69,294,42,3*75
$GBGSV,2,2,05,14,36,088,40,3*45
$GNRMC,030245.00,A,3726.8884228,N,12639.2929161,E,0.021,,210622,,,R,V*0C
$GNVTG,,T,,M,0.021,N,0.039,K,D*31
$GNGNS,030245.00,3726.8884228,N,12639.2929161,E,RRRR,24,0.75,15.735,17.840,2.0,4095,V*00
$GNGGA,030245.00,3726.8884228,N,12639.2929161,E,4,12,0.75,15.735,M,17.840,M,2.0,4095*50
$GNGSA,A,3,03,14,21,17,01,06,19,,,,,,1.41,0.75,1.19,1*02
$GNGSA,A,3,85,75,76,69,,,,,,,,,1.41,0.75,1.19,2*0C
$GNGSA,A,3,13,21,15,27,03,,,,,,,,1.41,0.75,1.19,3*0F
$GNGSA,A,3,07,37,03,10,14,08,28,27,,,,,1.41,0.75,1.19,4*08
$GPGSV,2,1,08,01,41,045,43,03,57,100,33,06,23,248,37,14,70,222,34,1*67
$GPGSV,2,2,08,17,56,323,35,19,33,302,47,21,17,057,26,28,,,43,1*59
$GPGSV,2,1,05,01,41,045,35,03,57,100,35,06,23,248,38,14,70,222,39,6*68
$GPGSV,2,2,05,17,56,323,31,6*53
$GPGSV,1,1,04,04,00,129,,08,08,105,,30,07,213,,50,47,179,,0*66
$GLGSV,2,1,06,69,16,035,25,70,32,099,21,71,12,148,20,75,38,213,38,1*79
$GLGSV,2,2,06,76,44,295,43,85,49,021,36,1*70
$GLGSV,2,1,05,69,16,035,26,71,12,148,16,75,38,213,40,76,44,295,39,3*71
$GLGSV,2,2,05,85,49,021,31,3*4E
$GLGSV,1,1,03,77,10,334,,84,04,066,,86,44,304,,0*4E
$GAGSV,2,1,06,03,12,100,23,13,53,271,37,15,60,029,39,18,75,029,40,2*70
$GAGSV,2,2,06,21,41,306,37,27,62,213,36,2*73
$GAGSV,2,1,07,03,12,100,14,13,53,271,29,15,60,029,37,18,75,029,44,7*75
$GAGSV,2,2,07,21,41,306,41,27,62,213,39,34,13,058,22,7*41
$GAGSV,1,1,04,01,00,327,,05,06,052,,08,03,147,,26,04,249,,0*75
$GBGSV,3,1,10,01,,,41,03,43,205,36,04,,,36,07,81,264,36,1*7D
$GBGSV,3,2,10,08,45,221,37,10,69,294,43,14,36,088,39,27,26,284,40,1*7D
$GBGSV,3,3,10,28,66,340,47,37,37,247,45,1*79
$GBGSV,2,1,05,03,43,205,34,07,81,264,34,08,45,221,36,10,69,294,41,3*76
$GBGSV,2,2,05,14,36,088,40,3*45
$GNRMC,030246.00,A,3726.8884242,N,12639.2929198,E,0.008,,210622,,,R,V*0E
$GNVTG,,T,,M,0.008,N,0.015,K,D*34
$GNGNS,030246.00,3726.8884242,N,12639.2929198,E,RRRR,24,0.75,15.728,17.840,2.0,4095,V*05
$GNGGA,030246.00,3726.8884242,N,12639.2929198,E,4,12,0.75,15.728,M,17.840,M,2.0,4095*55
$GNGSA,A,3,03,14,21,17,01,06,19,,,,,,1.41,0.75,1.19,1*02
$GNGSA,A,3,85,75,76,69,,,,,,,,,1.41,0.75,1.19,2*0C
$GNGSA,A,3,13,21,15,27,03,,,,,,,,1.41,0.75,1.19,3*0F
$GNGSA,A,3,07,37,03,10,14,08,28,27,,,,,1.41,0.75,1.19,4*08
$GPGSV,2,1,08,01,41,045,43,03,57,100,34,06,23,248,37,14,70,222,33,1*67
$GPGSV,2,2,08,17,56,323,37,19,33,302,48,21,17,057,27,28,,,43,1*55
$GPGSV,2,1,05,01,41,045,35,03,57,100,35,06,23,248,39,14,70,222,39,6*69
$GPGSV,2,2,05,17,56,323,31,6*53
$GPGSV,1,1,04,04,00,129,,08,08,105,,30,07,213,,50,47,179,,0*66
$GLGSV,2,1,06,69,16,035,24,70,32,099,21,71,12,148,21,75,38,213,39,1*78
$GLGSV,2,2,06,76,44,295,43,85,49,021,37,1*71
$GLGSV,2,1,05,69,16,035,26,71,12,148,13,75,38,213,41,76,44,295,39,3*75
$GLGSV,2,2,05,85,49,021,32,3*4D
$GLGSV,1,1,03,77,10,334,,84,04,066,,86,44,304,,0*4E
$GAGSV,2,1,06,03,12,100,22,13,53,271,37,15,60,029,39,18,75,029,42,2*73
$GAGSV,2,2,06,21,41,306,38,27,62,213,39,2*73
$GAGSV,2,1,07,03,12,100,12,13,53,271,28,15,60,029,38,18,75,029,43,7*7A
$GAGSV,2,2,07,21,41,306,41,27,62,213,39,34,13,058,21,7*42
$GAGSV,1,1,04,01,00,327,,05,06,052,,08,03,147,,26,04,249,,0*75
$GBGSV,3,1,10,01,,,41,03,43,205,36,04,,,35,07,81,264,35,1*7D
$GBGSV,3,2,10,08,45,221,36,10,69,294,42,14,36,088,39,27,26,284,41,1*7C
$GBGSV,3,3,10,28,66,340,48,37,37,247,46,1*75
$GBGSV,2,1,05,03,43,205,35,07,81,264,35,08,45,221,37,10,69,294,43,3*75
$GBGSV,2,2,05,14,36,088,42,3*47
$GNRMC,030247.00,A,3726.8884266,N,12639.2929177,E,0.002,,210622,,,R,V*02
$GNVTG,,T,,M,0.002,N,0.005,K,D*3F
$GNGGA,030247.00,3726.8884266,N,12639.2929177,E,4,12,0.75,15.740,M,17.840,M,2.0,4095*5D
