$GNRMC,043027.00,A,3727.0494500,N,12639.4338964,E,0.011,,220622,,,R,V*06
$GNVTG,,T,,M,0.011,N,0.020,K,D*3A
$GNGNS,043027.00,3727.0494500,N,12639.4338964,E,RRRR,25,0.69,28.870,17.843,,4095,V*29
$GNGGA,043027.00,3727.0494500,N,12639.4338964,E,4,12,0.69,28.870,M,17.843,M,,4095*78
$GNGSA,A,3,12,17,09,19,03,06,04,,,,,,1.35,0.69,1.16,1*0A
$GNGSA,A,3,71,65,72,88,87,78,,,,,,,1.35,0.69,1.16,2*0C
$GNGSA,A,3,34,09,36,30,05,,,,,,,,1.35,0.69,1.16,3*00
$GNGSA,A,3,28,08,14,34,11,13,10,07,,,,,1.35,0.69,1.16,4*0E
$GPGSV,2,1,08,01,09,070,34,03,34,046,33,04,23,094,50,06,52,293,45,1*64
$GPGSV,2,2,08,09,22,130,22,12,11,322,39,17,76,076,43,19,69,338,44,1*63
$GPGSV,2,1,08,01,09,070,34,03,34,046,33,04,23,094,43,06,52,293,34,6*67
$GPGSV,2,2,08,09,22,130,17,12,11,322,34,14,28,188,17,17,76,076,39,6*65
$GPGSV,2,1,06,02,13,272,,11,17,266,,20,06,222,,40,06,259,,0*69
$GPGSV,2,2,06,40,06,259,,41,27,238,,0*66
$GLGSV,2,1,06,65,27,166,18,71,29,040,40,72,53,103,42,78,26,295,19,1*74
$GLGSV,2,2,06,87,54,008,31,88,30,309,39,1*79
$GLGSV,2,1,05,65,27,166,09,71,29,040,34,72,53,103,37,78,26,295,25,3*7B
$GLGSV,2,2,05,88,30,309,36,3*43
$GLGSV,1,1,03,77,21,235,,79,04,341,,86,21,080,,0*44
$GAGSV,2,1,06,05,22,147,17,09,31,091,39,18,49,307,50,30,40,283,23,2*71
$GAGSV,2,2,06,34,52,301,36,36,54,044,40,2*77
$GAGSV,2,1,05,05,22,147,10,09,31,091,42,18,49,307,45,34,52,301,47,7*76
$GAGSV,2,2,05,36,54,044,37,7*46
$GAGSV,2,1,06,02,36,213,,04,10,041,,11,12,075,,15,08,271,,0*7F
$GAGSV,2,2,06,15,08,271,,25,05,175,,0*7B
$GBGSV,2,1,07,07,66,218,12,10,66,252,31,11,40,087,42,13,43,252,15,1*72
$GBGSV,2,2,07,14,57,126,47,28,44,310,48,34,21,100,47,1*42
$GNRMC,043028.00,A,3727.0494536,N,12639.4338988,E,0.033,,220622,,,R,V*0E
$GNVTG,,T,,M,0.033,N,0.061,K,D*3F
$GNGNS,043028.00,3727.0494536,N,12639.4338988,E,RRRR,25,0.69,28.878,17.843,,4095,V*29
$GNGGA,043028.00,3727.0494536,N,12639.4338988,E,4,12,0.69,28.878,M,17.843,M,,4095*78
$GNGSA,A,3,12,17,09,19,03,06,04,,,,,,1.35,0.69,1.16,1*0A
$GNGSA,A,3,71,65,72,88,87,78,,,,,,,1.35,0.69,1.16,2*0C
$GNGSA,A,3,34,09,36,30,05,,,,,,,,1.35,0.69,1.16,3*00
$GNGSA,A,3,28,08,14,34,11,13,10,07,,,,,1.35,0.69,1.16,4*0E
$GPGSV,2,1,08,01,09,070,33,03,34,046,27,04,23,094,50,06,52,293,46,1*65
$GPGSV,2,2,08,09,22,130,22,12,11,322,38,17,76,076,43,19,69,338,46,1*60
$GPGSV,2,1,08,01,09,070,35,03,34,046,32,04,23,094,43,06,52,293,34,6*67
$GPGSV,2,2,08,09,22,130,17,12,11,322,34,14,28,188,15,17,76,076,39,6*67
$GPGSV,2,1,06,02,13,272,,11,17,266,,20,06,222,,40,06,259,,0*69
$GPGSV,2,2,06,40,06,259,,41,27,238,,0*66
$GLGSV,2,1,06,65,27,166,21,71,29,040,40,72,53,103,42,78,26,295,22,1*76
$GLGSV,2,2,06,87,54,008,31,88,30,309,39,1*79
$GLGSV,2,1,05,65,27,166,09,71,29,040,34,72,53,103,38,78,26,295,23,3*72
$GLGSV,2,2,05,88,30,309,36,3*43
$GLGSV,1,1,03,77,21,235,,79,04,341,,86,21,080,,0*44
$GAGSV,2,1,06,05,22,147,17,09,31,091,39,18,49,307,50,30,40,283,23,2*71
$GAGSV,2,2,06,34,52,301,38,36,54,044,40,2*79
$GAGSV,2,1,05,05,22,147,13,09,31,091,40,18,49,307,45,34,52,301,47,7*77
$GAGSV,2,2,05,36,54,044,37,7*46
$GAGSV,2,1,06,02,36,213,,04,10,041,,11,12,075,,15,08,271,,0*7F
$GAGSV,2,2,06,15,08,271,,25,05,175,,0*7B
$GBGSV,2,1,07,07,66,218,09,10,66,252,31,11,40,087,42,13,43,252,14,1*79
$GBGSV,2,2,07,14,57,126,47,28,44,310,48,34,21,100,47,1*42
$GBGSV,2,1,05,07,66,218,25,08,53,257,25,10,66,252,27,11,40,087,43,3*7D
$GBGSV,2,2,05,14,57,126,45,3*42
$GBGSV,2,1,08,01,43,152,,02,28,236,,03,44,206,,04,35,132,,0*76
$GBGSV,2,2,08,04,35,132,,05,08,256,,21,13,038,,23,12,225,,0*7C
$GNRMC,043029.00,A,3727.0494492,N,12639.4338983,E,0.009,,220622,,,R,V*02
$GNGNS,043029.00,3727.0494492,N,12639.4338983,E,RRRR,26,0.76,28.890,17.843,,4095,V*27
$GNGGA,043029.00,3727.0494492,N,12639.4338983,E,4,12,0.76,28.890,M,17.843,M,,4095*75
$GNGSA,A,3,12,17,09,19,03,06,04,14,,,,,1.41,0.76,1.19,1*0D
$GNGSA,A,3,71,65,72,88,87,78,,,,,,,1.41,0.76,1.19,2*0E
$GNGSA,A,3,34,09,36,30,05,,,,,,,,1.41,0.76,1.19,3*02
$GNGSA,A,3,28,08,14,34,11,13,10,07,,,,,1.41,0.76,1.19,4*0C
$GPGSV,2,1,08,01,09,070,30,03,34,046,27,04,23,094,50,06,52,293,46,1*66
$GPGSV,2,2,08,09,22,130,20,12,11,322,38,17,76,076,43,19,69,338,45,1*61
$GPGSV,2,1,08,01,09,070,35,03,34,046,27,04,23,094,43,06,52,293,35,6*62
$GPGSV,2,2,08,09,22,130,16,12,11,322,34,14,28,188,15,17,76,076,39,6*66
$GPGSV,2,1,06,02,13,272,,11,17,266,,20,06,222,,40,06,259,,0*69
$GPGSV,2,2,06,40,06,259,,41,27,238,,0*66
$GLGSV,2,1,06,65,27,166,22,71,29,040,38,72,53,103,42,78,26,295,22,1*7A
$GLGSV,2,2,06,87,54,008,31,88,30,309,41,1*76
$GLGSV,2,1,05,65,27,166,07,71,29,040,34,72,53,103,38,78,26,295,22,3*7D
$G$GLGSV,1,1,03,77,21,235,,79,04,341,,86,21,080,,0*44
$GAGSV,2,1,06,05,22,147,16,09,31,091,41,18,49,307,50,30,40,283,23,2*7F
$GAGSV,2,2,06,34,52,301,39,36,54,044,41,2*79
$GAGSV,2,1,05,05,22,147,17,09,31,091,40,18,49,307,45,34,52,301,47,7*73
$GAGSV,2,2,05,36,54,044,36,7*47
$GAGSV,2,1,06,02,36,213,,04,10,041,,11,12,075,,15,08,271,,0*7F
$GAGSV,2,2,06,15,08,271,,25,05,175,,0*7B
$GBGSV,2,1,06,10,66,252,31,11,40,087,41,13,43,252,14,14,57,126,47,1*7F
$GBGSV,2,2,06,28,44,310,48,34,21,100,46,1*73
$GBGSV,2,1,05,07,66,218,26,08,53,257,25,10,66,252,27,11,40,087,43,3*7E
$GBGSV,2,2,05,14,57,126,45,3*42
$GBGSV,2,1,08,01,43,152,,02,28,236,,03,44,206,,04,35,132,,0*76
$GBGSV,2,2,08,04,35,132,,05,08,256,,21,13,038,,23,12,225,,0*7C
$GNRMC,043030.00,A,3727.0494552,N,12639.4339029,E,0.020,,220622,,,R,V*04
$GNVTG,,T,,M,0.020,N,0.036,K,D*3F
$GNGNS,043030.00,3727.0494552,N,12639.4339029,E,RRRR,25,0.69,28.895,17.843,,4095,V*22
$GNGGA,043030.00,3727.0494552,N,12639.4339029,E,4,12,0.69,28.895,M,17.843,M,,4095*73
$GNGSA,A,3,12,17,09,19,03,06,04,14,,,,,1.35,0.69,1.16,1*0F
$GNGSA,A,3,71,65,72,88,87,78,,,,,,,1.35,0.69,1.16,2*0C
$GNGSA,A,3,34,09,36,30,05,,,,,,,,1.35,0.69,1.16,3*00
$GNGSA,A,3,28,08,14,34,11,13,10,07,,,,,1.35,0.69,1.16,4*0E
$GPGSV,2,1,08,01,09,070,30,03,34,046,27,04,23,094,49,06,52,293,46,1*6E
$GPGSV,2,2,08,09,22,130,18,12,11,322,38,17,76,076,43,19,69,338,46,1*69
$GPGSV,2,1,08,01,09,070,34,03,34,046,27,04,23,094,43,06,52,293,35,6*63
$GPGSV,2,2,08,09,22,130,17,12,11,322,34,14,28,188,14,17,76,076,39,6*66
$GPGSV,2,1,06,02,13,272,,11,17,266,,20,06,222,,40,06,259,,0*69
$GPGSV,2,2,06,40,06,259,,41,27,238,,0*66
$GLGSV,2,1,06,65,27,166,22,71,29,040,39,72,53,103,42,78,26,295,23,1*7A
$GLGSV,2,2,06,87,54,008,31,88,30,309,42,1*75
$GLGSV,2,1,05,65,27,166,09,71,29,040,33,72,53,103,38,78,26,295,21,3*77
$GLGSV,2,2,05,88,30,309,37,3*42
$GLGSV,1,1,03,77,21,235,,79,04,341,,86,21,080,,0*44
$GAGSV,2,1,06,05,22,147,15,09,31,091,40,18,49,307,50,30,40,283,24,2*7A
$GAGSV,2,2,06,34,52,301,39,36,54,044,41,2*79
$GAGSV,2,1,06,05,22,147,17,09,31,091,40,18,49,307,45,30,40,283,24,7*79
$GAGSV,2,2,06,34,52,301,47,36,54,044,36,7*75
$GAGSV,2,1,06,02,36,213,,04,10,041,,11,12,075,,15,08,271,,0*7F
$GAGSV,2,2,06,15,08,271,,25,05,175,,0*7B
$GBGSV,2,1,06,10,66,252,30,11,40,087,42,13,43,252,12,14,57,126,47,1*7B
$GBGSV,2,2,06,28,44,310,48,34,21,100,47,1*72
$GBGSV,2,1,05,07,66,218,27,08,53,257,24,10,66,252,28,11,40,087,42,3*70
$GBGSV,2,2,05,14,57,126,46,3*41
$GNRMC,043031.00,A,3727.0494557,N,12639.4339042,E,0.029,,220622,,,R,V*04
$GNVTG,,T,,M,0.029,N,0.054,K,D*32
$GNGNS,043031.00,3727.0494557,N,12639.4339042,E,RRRR,26,0.69,28.903,17.843,,4095,V*26
$GNGGA,043031.00,3727.0494557,N,12639.4339042,E,4,12,0.69,28.903,M,17.843,M,,4095*74
$GNGSA,A,3,12,17,09,19,03,06,04,14,,,,,1.35,0.69,1.16,1*0F
$GNGSA,A,3,71,65,72,88,87,78,,,,,,,1.35,0.69,1.16,2*0C
$GNGSA,A,3,34,09,36,30,05,,,,,,,,1.35,0.69,1.16,3*00
$GNGSA,A,3,28,08,14,34,11,13,10,07,,,,,1.35,0.69,1.16,4*0E
$GPGSV,2,1,08,01,09,070,29,03,34,046,28,04,23,094,49,06,52,293,46,1*69
$GPGSV,2,2,08,09,22,130,17,12,11,322,39,17,76,076,43,19,69,338,45,1*64
$GPGSV,2,1,08,01,09,070,34,03,34,046,26,04,23,094,43,06,52,293,35,6*62
$GPGSV,2,2,08,09,22,130,17,12,11,322,34,14,28,188,12,17,76,076,39,6*60
$GPGSV,2,1,06,02,13,272,,11,17,266,,20,06,222,,40,06,259,,0*69
$GPGSV,2,2,06,40,06,259,,41,27,238,,0*66
$GLGSV,2,1,06,65,27,166,22,71,29,040,37,72,53,103,41,78,26,295,24,1*70
$GLGSV,2,2,06,87,54,008,31,88,30,309,40,1*77
$GLGSV,2,1,05,65,27,166,10,71,29,040,34,72,53,103,38,78,26,295,20,3*79
$GLGSV,2,2,05,88,30,309,38,3*4D
$GLGSV,1,1,03,77,21,235,,79,04,341,,86,21,080,,0*44
$GAGSV,2,1,06,05,22,147,15,09,31,091,40,18,49,307,50,30,40,283,23,2*7D
$GAGSV,2,2,06,34,52,301,38,36,54,044,41,2*78
$GAGSV,2,1,05,05,22,147,13,09,31,091,39,18,49,307,45,34,52,301,47,7*79
$GAGSV,2,2,05,36,54,044,36,7*47
$GAGSV,2,1,06,02,36,213,,04,10,041,,11,12,075,,15,08,271,,0*7F
$GAGSV,2,2,06,15,08,271,,25,05,175,,0*7B
$GBGSV,2,1,06,10,66,252,31,11,40,087,42,13,43,252,14,14,57,126,48,1*73
$GBGSV,2,2,06,28,44,310,47,34,21,100,47,1*7D
$GBGSV,2,1,05,07,66,218,27,08,53,257,22,10,66,252,27,11,40,087,42,3*79
$GBGSV,2,2,05,14,57,126,46,3*41
$GBGSV,2,1,08,01,43,152,,02,28,236,,03,44,206,,04,35,132,,0*76
$GBGSV,2,2,08,04,35,132,,05,08,256,,21,13,038,,23,12,225,,0*7C
$GNRMC,043032.00,A,3727.0494553,N,12639.4339033,E,0.048,,220622,,,R,V*02
$GNVTG,,T,,M,0.048,N,0.088,K,D*34
$GNGNS,043032.00,3727.0494553,N,12639.4339033,E,RRRR,26,0.81,28.900,17.843,,4095,V*22
$GNGGA,043032.00,3727.0494553,N,12639.4339033,E,4,12,0.81,28.900,M,17.843,M,,4095*70
$GNGSA,A,3,12,17,09,19,03,06,04,14,,,,,1.44,0.81,1.19,1*00
$GNGSA,A,3,71,65,72,88,87,78,,,,,,,1.44,0.81,1.19,2*03
$GNGSA,A,3,34,09,36,30,05,,,,,,,,1.44,0.81,1.19,3*0F
$GNGSA,A,3,28,08,14,34,11,13,10,07,,,,,1.44,0.81,1.19,4*01
$GPGSV,2,1,08,01,09,070,28,03,34,046,32,04,23,094,49,06,52,293,46,1*63
$GPGSV,2,2,08,09,22,130,17,12,11,322,39,17,76,076,44,19,69,338,46,1*60
$GPGSV,2,1,08,01,09,070,35,03,34,046,26,04,23,094,43,06,52,293,35,6*63
$GPGSV,2,2,08,09,22,130,16,12,11,322,34,14,28,188,12,17,76,076,39,6*61
$GPGSV,2,1,06,02,13,272,,11,17,266,,20,06,222,,40,06,259,,0*69
$GPGSV,2,2,06,40,06,259,,41,27,238,,0*66
$GLGSV,2,1,06,65,27,166,23,71,29,040,37,72,53,103,44,78,26,295,25,1*75
$GLGSV,2,2,06,87,54,008,32,88,30,309,43,1*77
$GLGSV,2,1,05,65,27,166,07,71,29,040,35,72,53,103,38,78,26,295,20,3*7E
$GLGSV,2,2,05,88,30,309,38,3*4D
$GLGSV,1,1,03,77,21,235,,79,04,341,,86,21,080,,0*44
$GAGSV,2,1,06,05,22,147,16,09,31,091,39,18,49,307,51,30,40,283,23,2*71
$GAGSV,2,2,06,34,52,301,39,36,54,044,41,2*79
$GAGSV,2,1,06,05,22,147,16,09,31,091,39,18,49,307,46,30,40,283,26,7*77
$GAGSV,2,2,06,34,52,301,47,36,54,044,35,7*76
$GAGSV,2,1,06,02,36,213,,04,10,041,,11,12,075,,15,08,271,,0*7F
$GAGSV,2,2,06,15,08,271,,25,05,175,,0*7B
$GBGSV,2,1,06,10,66,252,30,11,40,087,43,13,43,252,16,14,57,126,47,1*7E
$GBGSV,2,2,06,28,44,310,49,34,21,100,47,1*73
$GBGSV,2,1,05,07,66,218,26,08,53,257,21,10,66,252,27,11,40,087,42,3*7B
$GBGSV,2,2,05,14,57,126,46,3*41
$GBGSV,2,1,08,01,43,152,,02,28,236,,03,44,206,,04,35,132,,0*76
$GBGSV,2,2,08,04,35,132,,05,08,256,,21,13,038,,23,12,225,,0*7C
$GNRMC,043033.00,A,3727.0494478,N,12639.4339054,E,0.033,,220622,,,R,V*06
$GNVTG,,T,,M,0.033,N,0.062,K,D*3C
$GNGNS,043033.00,3727.0494478,N,12639.4339054,E,RRRR,25,0.69,28.886,17.843,,4095,V*20
$GNGGA,043033.00,3727.0494478,N,12639.4339054,E,4,12,0.69,28.886,M,17.843,M,,4095*71
$GNGSA,A,3,12,17,09,19,03,06,04,14,,,,,1.35,0.69,1.16,1*0F
$GNGSA,A,3,71,65,72,88,87,78,,,,,,,1.35,0.69,1.16,2*0C
$GNGSA,A,3,34,09,36,30,05,,,,,,,,1.35,0.69,1.16,3*00
$GNGSA,A,3,28,08,14,34,11,13,10,07,,,,,1.35,0.69,1.16,4*0E
$GPGSV,2,1,08,01,09,070,28,03,34,046,28,04,23,094,49,06,52,293,46,1*68
$GPGSV,2,2,08,09,22,130,17,12,11,322,38,17,76,076,45,19,69,338,46,1*60
$GPGSV,2,1,08,01,09,070,36,03,34,046,26,04,23,094,43,06,52,293,35,6*60
$GPGSV,2,2,08,09,22,130,16,12,11,322,34,14,28,188,11,17,76,076,39,6*62
$GPGSV,2,1,06,02,13,272,,11,17,266,,20,06,222,,40,06,259,,0*69
$GPGSV,2,2,06,40,06,259,,41,27,238,,0*66
$GLGSV,2,1,06,65,27,166,23,71,29,040,38,72,53,103,44,78,26,295,25,1*7A
$GLGSV,2,2,06,87,54,008,38,88,30,309,43,1*7D
$GLGSV,2,1,05,65,27,166,08,71,29,040,36,72,53,103,38,78,26,295,19,3*78
$GLGSV,2,2,05,88,30,309,38,3*4D
$GLGSV,1,1,03,77,21,235,,79,04,341,,86,21,080,,0*44
$GAGSV,2,1,06,05,22,147,16,09,31,091,37,18,49,307,51,30,40,283,22,2*7E
$GAGSV,2,2,06,34,52,301,39,36,54,044,41,2*79
$GAGSV,2,1,06,05,22,147,17,09,31,091,39,18,49,307,46,30,40,283,26,7*76
$GAGSV,2,2,06,34,52,301,47,36,54,044,35,7*76
$GAGSV,2,1,06,02,36,213,,04,10,041,,11,12,075,,15,08,271,,0*7F
$GAGSV,2,2,06,15,08,271,,25,05,175,,0*7B
$GBGSV,2,1,06,10,66,252,30,11,40,087,43,13,43,252,16,14,57,126,47,1*7E
$GBGSV,2,2,06,28,44,310,48,34,21,100,48,1*7D
$GBGSV,2,1,05,07,66,218,26,08,53,257,20,10,66,252,27,11,40,087,40,3*78
$GBGSV,2,2,05,14,57,126,47,3*40
$GBGSV,2,1,08,01,43,152,,02,28,236,,03,44,206,,04,35,132,,0*76
$GBGSV,2,2,08,04,35,132,,05,08,256,,21,13,038,,23,12,225,,0*7C
$GNRMC,043034.00,A,3727.0494472,N,12639.4339076,E,0.007,,220622,,,R,V*0C
$GNVTG,,T,,M,0.007,N,0.013,K,D*3D
$GNGNS,043034.00,3727.0494472,N,12639.4339076,E,RRRR,26,0.83,28.902,17.843,,4095,V*27
$GNGGA,043034.00,3727.0494472,N,12639.4339076,E,4,12,0.83,28.902,M,17.843,M,,4095*75
$GNGSA,A,3,12,17,09,19,03,06,04,14,,,,,1.46,0.83,1.21,1*0B
$GNGSA,A,3,71,65,72,88,87,78,,,,,,,1.46,0.83,1.21,2*08
$GNGSA,A,3,34,09,36,30,05,,,,,,,,1.46,0.83,1.21,3*04
$GNGSA,A,3,28,08,14,34,11,13,10,07,,,,,1.46,0.83,1.21,4*0A
$GPGSV,2,1,08,01,09,070,29,03,34,046,33,04,23,094,49,06,52,293,45,1*60
$GPGSV,2,2,08,09,22,130,15,12,11,322,40,17,76,076,46,19,69,338,47,1*6F
$GPGSV,2,1,08,01,09,070,35,03,34,046,28,04,23,094,43,06,52,293,36,6*6E
$GPGSV,2,2,08,09,22,130,14,12,11,322,35,14,28,188,14,17,76,076,39,6*64
$GPGSV,2,1,06,02,13,272,,11,17,266,,20,06,222,,40,06,259,,0*69
$GPGSV,2,2,06,40,06,259,,41,27,238,,0*66
$GLGSV,2,1,06,65,27,166,23,71,29,040,40,72,53,103,46,78,26,295,27,1*75
$GLGSV,2,2,06,87,54,008,40,88,30,309,47,1*76
$GLGSV,2,1,05,65,27,166,08,71,29,040,36,72,53,103,38,78,26,295,18,3*79
$GLGSV,2,2,05,88,30,309,38,3*4D
$GLGSV,1,1,03,77,21,235,,79,04,341,,86,21,080,,0*44
$GAGSV,2,1,06,05,22,147,16,09,31,091,36,18,49,307,51,30,40,283,21,2*7C
$GAGSV,2,2,06,34,52,301,40,36,54,044,40,2*76
$GAGSV,2,1,06,05,22,147,17,09,31,091,39,18,49,307,46,30,40,283,27,7*77
$GAGSV,2,2,06,34,52,301,46,36,54,044,34,7*76
$GAGSV,2,1,06,02,36,213,,04,10,041,,11,12,075,,15,08,271,,0*7F
$GAGSV,2,2,06,15,08,271,,25,05,175,,0*7B
$GBGSV,2,1,06,10,66,252,30,11,40,087,42,13,43,252,15,14,57,126,47,1*7C
$GBGSV,2,2,06,28,44,310,48,34,21,100,48,1*7D
$GBGSV,2,1,05,07,66,218,26,08,53,257,19,10,66,252,28,11,40,087,38,3*72
$GBGSV,2,2,05,14,57,126,47,3*40
$GBGSV,2,1,08,01,43,152,,02,28,236,,03,44,206,,04,35,132,,0*76
$GBGSV,2,2,08,04,35,132,,05,08,256,,21,13,038,,23,12,225,,0*7C
$GNRMC,043035.00,A,3727.0494356,N,12639.4339008,E,0.030,,220622,,,R,V*01
$GNVTG,,T,,M,0.030,N,0.056,K,D*38
$GNGNS,043035.00,3727.0494356,N,12639.4339008,E,RRRR,26,0.75,28.884,17.843,,4095,V*28
$GNGSA,A,3,12,17,09,19,03,06,04,14,,,,,1.40,0.75,1.19,1*0F
$GNGSA,A,3,71,65,72,88,87,78,,,,,,,1.40,0.75,1.19,2*0C
$GNGSA,A,3,34,09,36,30,05,,,,,,,,1.40,0.75,1.19,3*00
$GNGSA,A,3,28,08,14,34,11,13,10,07,,,,,1.40,0.75,1.19,4*0E
$GPGSV,2,1,08,01,09,070,28,03,34,046,35,04,23,094,49,06,52,293,45,1*67
$GPGSV,2,2,08,09,22,130,14,12,11,322,39,17,76,076,46,19,69,338,47,1*60
$GPGSV,2,1,08,01,09,070,36,03,34,046,33,04,23,094,43,06,52,293,36,6*67
$GPGSV,2,2,08,09,22,130,15,12,11,322,35,14,28,188,15,17,76,076,40,6*6A
$GPGSV,2,1,06,02,13,272,,11,17,266,,20,06,222,,40,06,259,,0*69
$GPGSV,2,2,06,40,06,259,,41,27,238,,0*66
$GLGSV,2,1,06,65,27,166,22,71,29,040,40,72,53,103,47,78,26,295,27,1*75
$GLGSV,2,2,06,87,54,008,39,88,30,309,46,1*79
$GLGSV,2,1,05,65,27,166,11,71,29,040,35,72,53,103,38,78,26,295,17,3*7D
$GLGSV,2,2,05,88,30,309,38,3*4D
$GLGSV,1,1,03,77,21,235,,79,04,341,,86,21,080,,0*44
$GAGSV,2,1,06,05,22,147,16,09,31,091,3$GAGSV,2,2,06,34,52,301,40,36,54,044,41,2*77
$GAGSV,2,1,06,05,22,147,16,09,31,091,40,18,49,307,46,30,40,283,27,7*78
$GAGSV,2,2,06,34,52,301,46,36,54,044,34,7*76
$GAGSV,2,1,06,02,36,213,,04,10,041,,11,12,075,,15,08,271,,0*7F
$GAGSV,2,2,06,15,08,271,,25,05,175,,0*7B
$GBGSV,2,1,07,07,66,218,19,10,66,252,30,11,40,087,43,13,43,252,15,1*79
$GBGSV,2,2,07,14,57,126,47,28,44,310,48,34,21,100,48,1*4D
$GBGSV,2,1,05,07,66,218,25,08,53,257,19,10,66,252,28,11,40,087,41,3*7F
$GBGSV,2,2,05,14,57,126,47,3*40
$GBGSV,2,1,08,01,43,152,,02,28,236,,03,44,206,,04,35,132,,0*76
$GBGSV,2,2,08,04,35,132,,05,08,256,,21,13,038,,23,12,225,,0*7C
$GNRMC,043036.00,A,3727.0494337,N,12639.4339002,E,0.018,,220622,,,R,V*05
$GNVTG,,T,,M,0.018,N,0.033,K,D*31
$GNGNS,043036.00,3727.0494337,N,12639.4339002,E,RRRR,25,0.75,28.882,17.843,,4095,V*23
$GNGGA,043036.00,3727.0494337,N,12639.4339002,E,4,12,0.75,28.882,M,17.843,M,,4095*72
$GNGSA,A,3,12,17,09,19,03,06,04,14,,,,,1.40,0.75,1.19,1*0F
$GNGSA,A,3,71,65,72,88,87,78,,,,,,,1.40,0.75,1.19,2*0C
$GNGSA,A,3,34,09,36,30,05,,,,,,,,1.40,0.75,1.19,3*00
$GNGSA,A,3,28,08,14,34,11,13,10,07,,,,,1.40,0.75,1.19,4*0E
$GPGSV,2,1,08,01,09,070,28,03,34,046,33,04,23,094,49,06,52,293,44,1*60
$GPGSV,2,2,08,09,22,130,15,12,11,322,38,17,76,076,47,19,69,338,47,1*61
$GPGSV,2,1,08,01,09,070,36,03,34,046,34,04,23,094,43,06,52,293,36,6*60
$GPGSV,2,2,08,09,22,130,15,12,11,322,35,14,28,188,14,17,76,076,40,6*6B
$GPGSV,2,1,06,02,13,272,,11,17,266,,20,06,222,,40,06,259,,0*69
$GPGSV,2,2,06,40,06,259,,41,27,238,,0*66
$GLGSV,2,1,06,65,27,166,22,71,29,040,39,72,53,103,46,78,26,295,26,1*7B
$GLGSV,2,2,06,87,54,008,42,88,30,309,46,1*75
$GLGSV,2,1,05,65,27,166,08,71,29,040,35,72,53,103,38,78,26,295,19,3*7B
$GLGSV,2,2,05,88,30,309,38,3*4D
$GNRMC,043037.00,A,3727.0494393,N,12639.4338968,E,0.019,,220622,,,R,V*0F
$GNVTG,,T,,M,0.019,N,0.035,K,D*36
$GNGNS,043037.00,3727.0494393,N,12639.4338968,E,RRRR,25,0.83,28.871,17.843,,4095,V*2D
$GNGGA,043037.00,3727.0494393,N,12639.4338968,E,4,12,0.83,28.871,M,17.843,M,,4095*7C
$GNGSA,A,3,12,17,09,19,03,06,04,14,,,,,1.46,0.83,1.21,1*0B
$GNGSA,A,3,71,65,72,88,87,78,,,,,,,1.46,0.83,1.21,2*08
$GNGSA,A,3,34,09,36,30,05,,,,,,,,1.46,0.83,1.21,3*04
$GNGSA,A,3,28,08,14,34,11,13,10,07,,,,,1.46,0.83,1.21,4*0A
$GPGSV,2,1,08,01,09,070,28,03,34,046,35,04,23,094,49,06,52,293,44,1*66
$GPGSV,2,2,08,09,22,130,13,12,11,322,39,17,76,076,47,19,69,338,47,1*66
$GPGSV,2,1,08,01,09,070,36,03,34,046,34,04,23,094,43,06,52,293,36,6*60
$GPGSV,2,2,08,09,22,130,16,12,11,322,35,14,28,188,13,17,76,076,39,6*61
$GPGSV,2,1,06,02,13,272,,11,17,266,,20,06,222,,40,06,259,,0*69
$GPGSV,2,2,06,40,06,259,,41,27,238,,0*66
$GLGSV,2,1,06,65,27,166,22,71,29,040,39,72,53,103,46,78,26,295,27,1*7A
$GLGSV,2,2,06,87,54,008,41,88,30,309,46,1*76
$GLGSV,2,1,05,65,27,166,10,71,29,040,35,72,53,103,38,78,26,295,20,3*78
$GLGSV,2,2,05,88,30,309,38,3*4D
$GLGSV,1,1,03,77,21,235,,79,04,341,,86,21,080,,0*44
$GAGSV,2,1,06,05,22,147,16,09,31,091,36,18,49,307,51,30,40,283,22,2*7F
$GAGSV,2,2,06,34,52,301,40,36,54,044,40,2*76
$GAGSV,2,1,06,05,22,147,18,09,31,091,40,18,49,307,46,30,40,283,27,7*76
$GAGSV,2,2,06,34,52,301,46,36,54,044,34,7*76
$GAGSV,2,1,06,02,36,213,,04,10,041,,11,12,075,,15,08,271,,0*7F
$GAGSV,2,2,06,15,08,271,,25,05,175,,0*7B
$GBGSV,2,1,07,07,66,218,19,10,66,252,30,11,40,087,42,13,43,252,14,1*79
$GBGSV,2,2,07,14,57,126,47,28,44,310,48,34,21,100,48,1*4D
$GBGSV,2,1,05,07,66,218,25,08,53,257,18,10,66,252,28,11,40,087,38,3*70
$GBGSV,2,2,05,14,57,126,47,3*40
$GBGSV,2,1,08,01,43,152,,02,28,236,,03,44,206,,04,35,132,,0*76
$GBGSV,2,2,08,04,35,132,,05,08,256,,21,13,038,,23,12,225,,0*7C
$GNRMC,043038.00,A,3727.0494400,N,12639.4338968,E,0.011,,220622,,,R,V*05
$GNVTG,,T,,M,0.011,N,0.020,K,D*3A
$GNGNS,043038.00,3727.0494400,N,12639.4338968,E,RRRR,27,0.69,28.857,17.843,,4095,V*2D
$GNGGA,043038.00,3727.0494400,N,12639.4338968,E,4,12,0.69,28.857,M,17.843,M,,4095*7E
$GNGSA,A,3,12,17,09,19,03,06,04,14,,,,,1.35,0.69,1.16,1*0F
$GNGSA,A,3,71,65,72,88,87,78,,,,,,,1.35,0.69,1.16,2*0C
$GNGSA,A,3,28,08,14,34,11,13,10,07,,,,,1.35,0.69,1.16,4*0E
$GPGSV,2,1,08,01,09,070,28,03,34,046,35,04,23,094,49,06,52,293,44,1*66
$GPGSV,2,2,08,09,22,130,14,12,11,322,38,17,76,076,47,19,69,338,47,1*60
$GPGSV,2,1,08,01,09,070,36,03,34,046,35,04,23,094,44,06,52,293,37,6*67
$GPGSV,2,2,08,09,22,130,16,12,11,322,35,14,28,188,13,17,76,076,40,6*6F
$GPGSV,2,1,06,02,13,272,,11,17,266,,20,06,222,,40,06,259,,0*69
$GPGSV,2,2,06,40,06,259,,41,27,238,,0*66
$GLGSV,2,1,06,65,27,166,20,71,29,040,38,72,53,103,47,78,26,295,26,1*79
$GLGSV,2,2,06,87,54,008,40,88,30,309,46,1*77
$GLGSV,2,1,05,65,27,166,11,71,29,040,35,72,53,103,39,78,26,295,19,3*72
$GLGSV,2,2,05,88,30,309,38,3*4D
$GLGSV,1,1,03,77,21,235,,79,04,341,,86,21,080,,0*44
$GAGSV,2,1,06,05,22,147,17,09,31,091,36,18,49,307,51,30,40,283,21,2*7D
$GAGSV,2,2,06,34,52,301,40,36,54,044,40,2*76
$GAGSV,2,1,06,05,22,147,19,09,31,091,40,18,49,307,46,30,40,283,28,7*78
$GAGSV,2,2,06,34,52,301,46,36,54,044,34,7*76
$GAG$GAGSV,2,2,06,15,08,271,,25,05,175,,0*7B
$GBGSV,2,1,07,07,66,218,19,10,66,252,30,11,40,087,42,13,43,252,13,1*7E
$GBGSV,2,2,07,14,57,126,46,28,44,310,48,34,21,100,48,1*4C
$GBGSV,2,1,05,07,66,218,25,08,53,257,18,10,66,252,28,11,40,087,39,3*71
$GBGSV,2,2,05,14,57,126,47,3*40
$GBGSV,2,1,08,01,43,152,,02,28,236,,03,44,206,,04,35,132,,0*76
$GBGSV,2,2,08,04,35,132,,05,08,256,,21,13,038,,23,12,225,,0*7C
$GNRMC,043039.00,A,3727.0494335,N,12639.4338933,E,0.008,,220622,,,R,V*03
$GNVTG,,T,,M,0.008,N,0.014,K,D*35
$GNGNS,043039.00,3727.0494335,N,12639.4338933,E,RRRR,25,0.69,28.862,17.843,,4095,V*27
$GNGGA,043039.00,3727.0494335,N,12639.4338933,E,4,12,0.69,28.862,M,17.843,M,,4095*76
$GNGSA,A,3,12,17,09,19,03,06,04,14,,,,,1.35,0.69,1.16,1*0F
$GNGSA,A,3,71,65,72,88,87,78,,,,,,,1.35,0.69,1.16,2*0C
$GNGSA,A,3,34,09,36,30,05,,,,,,,,1.35,0.69,1.16,3*00
$GNGSA,A,3,28,08,14,34,11,10,07,,,,,,1.35,0.69,1.16,4*0C
$GPGSV,2,1,08,01,09,070,29,03,34,046,35,04,23,094,49,06,52,293,44,1*67
$GPGSV,2,2,08,09,22,130,13,12,11,322,34,17,76,076,47,19,69,338,47,1*6B
$GPGSV,2,1,08,01,09,070,36,03,34,046,37,04,23,094,44,06,52,293,37,6*65
$GPGSV,2,2,08,09,22,130,16,12,11,322,35,14,28,188,14,17,76,076,40,6*68
$GPGSV,2,1,06,02,13,272,,11,17,266,,20,06,222,,40,06,259,,0*69
$GPGSV,2,2,06,40,06,259,,41,27,238,,0*66
$GLGSV,2,1,06,65,27,166,19,71,29,040,39,72,53,103,48,78,26,295,27,1*7C
$GLGSV,2,2,06,87,54,008,40,88,30,309,46,1*77
$GLGSV,2,1,05,65,27,166,12,71,29,040,33,72,53,103,39,78,26,295,20,3*7D
$GLGSV,2,2,05,88,30,309,38,3*4D
$GLGSV,1,1,03,77,21,235,,79,04,341,,86,21,080,,0*44
$GAGSV,2,1,06,05,22,147,17,09,31,091,36,18,49,307,51,30,40,283,21,2*7D
$GAGSV,2,2,06,34,52,301,40,36,54,044,41,2*77
$GAGSV,2,1,06,05,22,147,20,09,31,091,41,18,49,307,45,30,40,283,29,7*71
$GAGSV,2,2,06,34,52,301,46,36,54,044,31,7*73
$GAGSV,2,1,06,02,36,213,,04,10,041,,11,12,075,,15,08,271,,0*7F
$GAGSV,2,2,06,15,08,271,,25,05,175,,0*7B
$GBGSV,2,1,07,07,66,218,18,10,66,252,30,11,40,087,42,13,43,252,11,1*7D
$GBGSV,2,2,07,14,57,126,46,28,44,310,48,34,21,100,47,1*43
$GBGSV,2,1,05,07,66,218,25,08,53,257,16,10,66,252,28,11,40,087,37,3*71
$GBGSV,2,2,05,14,57,126,47,3*40
$GBGSV,2,1,08,01,43,152,,02,28,236,,03,44,206,,04,35,132,,0*76
$GBGSV,2,2,08,04,35,132,,05,08,256,,21,13,038,,23,12,225,,0*7C
$GNRMC,043040.00,A,3727.0494439,N,12639.4339033,E,0.029,,220622,,,R,V*0D
$GNVTG,,T,,M,0.029,N,0.053,K,D*35
$GNGNS,043040.00,3727.0494439,N,12639.4339033,E,RRRR,25,0.80,28.886,17.843,,4095,V*27
$GNGGA,043040.00,3727.0494439,N,12639.4339033,E,4,12,0.80,28.886,M,17.843,M,,4095*76
$GNGSA,A,3,12,17,09,19,03,06,04,14,,,,,1.49,0.80,1.26,1*00
$GNGSA,A,3,71,65,72,88,87,78,,,,,,,1.49,0.80,1.26,2*03
$GNGSA,A,3,34,09,36,30,05,,,,,,,,1.49,0.80,1.26,3*0F
$GNGSA,A,3,28,08,14,34,11,10,07,,,,,,1.49,0.80,1.26,4*03
$GPGSV,2,1,08,01,09,070,33,03,34,046,36,04,23,094,48,06,52,293,45,1*6F
$GPGSV,2,2,08,09,22,130,16,12,11,322,36,17,76,076,47,19,69,338,47,1*6C
$GPGSV,2,1,08,01,09,070,36,03,34,046,37,04,23,094,44,06,52,293,37,6*65
$GPGSV,2,2,08,09,22,130,16,12,11,322,34,14,28,188,12,17,76,076,40,6*6F
$GPGSV,2,1,06,02,13,272,,11,17,266,,20,06,222,,40,06,259,,0*69
$GPGSV,2,2,06,40,06,259,,41,27,238,,0*66
$GLGSV,2,1,06,65,27,166,18,71,29,040,39,72,53,103,48,78,26,295,27,1*7D
$GLGSV,2,2,06,87,54,008,42,88,30,309,46,1*75
$GLGSV,2,1,05,65,27,166,09,71,29,040,34,72,53,103,39,78,26,295,20,3*70
$GLGSV,2,2,05,88,30,309,38,3*4D
$GLGSV,1,1,03,77,21,235,,79,04,341,,86,21,080,,0*44
$GAGSV,2,1,06,05,22,147,17,09,31,091,35,18,49,307,51,30,40,283,21,2*7E
$GAGSV,2,2,06,34,52,301,41,36,54,044,41,2*76
$GAGSV,2,1,06,05,22,147,21,09,31,091,41,18,49,307,45,30,40,283,29,7*70
$GAGSV,2,2,06,34,52,301,47,36,54,044,33,7*70
$GAGSV,2,1,06,02,36,213,,04,10,041,,11,12,075,,15,08,271,,0*7F
$GAGSV,2,2,06,15,08,271,,25,05,175,,0*7B
$GBGSV,2,1,07,07,66,218,18,10,66,252,30,11,40,087,42,13,43,252,12,1*7E
$GBGSV,2,2,07,14,57,126,46,28,44,310,48,34,21,100,48,1*4C
$GBGSV,2,1,05,07,66,218,26,08,53,257,15,10,66,252,28,11,40,087,39,3*7F
$GBGSV,2,2,05,14,57,126,47,3*40
$GBGSV,2,1,08,01,43,152,,02,28,236,,03,44,206,,04,35,132,,0*76
$GBGSV,2,2,08,04,35,132,,05,08,256,,21,13,038,,23,12,225,,0*7C
$GNRMC,043041.00,A,3727.0494453,N,12639.4339051,E,0.029,,220622,,,R,V*04
$GNVTG,,T,,M,0.029,N,0.054,K,D*32
$GNGNS,043041.00,3727.0494453,N,12639.4339051,E,RRRR,26,0.69,28.884,17.843,,4095,V*28
$GNGGA,043041.00,3727.0494453,N,12639.4339051,E,4,12,0.69,28.884,M,17.843,M,,4095*7A
$GNGSA,A,3,12,17,09,19,03,06,04,14,,,,,1.35,0.69,1.16,1*0F
$GNGSA,A,3,71,65,72,88,87,78,,,,,,,1.35,0.69,1.16,2*0C
$GNGSA,A,3,34,09,36,30,05,,,,,,,,1.35,0.69,1.16,3*00
$GNGSA,A,3,28,08,14,34,11,10,07,,,,,,1.35,0.69,1.16,4*0C
$GPGSV,2,1,08,01,09,070,34,03,34,046,38,04,23,094,48,06,52,293,45,1*66
$GPGSV,2,2,08,09,22,130,09,12,11,322,38,17,76,076,47,19,69,338,47,1*6C
$GPGSV,2,1,08,01,09,070,33,03,34,046,36,04,23,094,44,06,52,293,37,6*61
$GPGSV,2,2,08,09,22,130,15,12,11,322,36,14,28,188,12,17,76,076,40,6*6E
$GPGSV,2,1,06,02,13,272,,11,17,266,,20,06,222,,40,06,259,,0*69
$GPGSV,2,2,06,40,06,259,,41,27,238,,0*66
$GLGSV,2,1,06,65,27,166,18,71,29,040,39,72,53,103,48,78,26,295,27,1*7D
$GLGSV,2,2,06,87,54,008,41,88,30,309,46,1*76
$GLGSV,2,1,05,65,27,166,09,71,29,040,34,72,53,103,40,78,26,295,20,3*7E
$GLGSV,2,2,05,88,30,309,41,3*43
$GLGSV,1,1,03,77,21,235,,79,04,341,,86,21,080,,0*44
$GAGSV,2,1,06,05,22,147,16,09,31,091,35,18,49,307,51,30,40,283,21,2*7F
$GAGSV,2,2,06,34,52,301,41,36,54,044,40,2*77
$GAGSV,2,1,06,05,22,147,21,09,31,091,41,18,49,307,43,30,40,283,30,7*7E
$GAGSV,2,2,06,34,52,301,47,36,54,044,34,7*77
$GAGSV,2,1,06,02,36,213,,04,10,041,,11,12,075,,15,08,271,,0*7F
$GAGSV,2,2,06,15,08,271,,25,05,175,,0*7B
$GBGSV,2,1,07,07,66,218,18,10,66,252,30,11,40,087,42,13,43,252,14,1*78
$GBGSV,2,2,07,14,57,126,46,28,44,310,48,34,21,100,47,1*43
$GBGSV,2,1,05,07,66,218,27,08,53,257,14,10,66,252,28,11,40,087,39,3*7F
$GBGSV,2,2,05,14,57,126,47,3*40
$GBGSV,2,1,08,01,43,152,,02,28,236,,03,44,206,,04,35,132,,0*76
$GBGSV,2,2,08,04,35,132,,05,08,256,,21,13,038,,23,12,225,,0*7C
$GNRMC,043042.00,A,3727.0494438,N,12639.4339065,E,0.036,,220622,,,R,V*03
$GNVTG,,T,,M,0.036,N,0.067,K,D*3C
$GNGNS,043042.00,3727.0494438,N,12639.4339065,E,RRRR,25,0.69,28.883,17.843,,4095,V*25
$GNGGA,043042.00,3727.0494438,N,12639.4339065,E,4,12,0.69,28.883,M,17.843,M,,4095*74
$GNGSA,A,3,12,17,09,19,03,06,04,14,,,,,1.35,0.69,1.16,1*0F
$GNGSA,A,3,71,65,72,88,87,78,,,,,,,1.35,0.69,1.16,2*0C
$GNGSA,A,3,34,09,36,30,05,,,,,,,,1.35,0.69,1.16,3*00
$GNGSA,A,3,28,08,14,34,11,10,07,,,,,,1.35,0.69,1.16,4*0C
$GPGSV,2,1,08,01,09,070,34,03,34,046,38,04,23,094,47,06,52,293,44,1*68
$GPGSV,2,2,08,09,22,130,16,12,11,322,38,17,76,076,47,19,69,338,47,1*62
$GPGSV,2,1,08,01,09,070,36,03,34,046,36,04,23,094,44,06,52,293,36,6*65
$GPGSV,2,2,08,09,22,130,15,12,11,322,35,14,28,188,11,17,76,076,40,6*6E
$GPGSV,2,1,06,02,13,272,,11,17,266,,20,06,222,,40,06,259,,0*69
$GPGSV,2,2,06,40,06,259,,41,27,238,,0*66
$GLGSV,2,1,06,65,27,166,19,71,29,040,38,72,53,103,48,78,26,295,26,1*7C
$GLGSV,2,2,06,87,54,008,41,88,30,309,46,1*76
$GLGSV,2,1,05,65,27,166,11,71,29,040,34,72,53,103,40,78,26,295,20,3*77
$GLGSV,2,2,05,88,30,309,40,3*42
$GLGSV,1,1,03,77,21,235,,79,04,341,,86,21,080,,0*44
$GAGSV,2,1,06,05,22,147,16,09,31,091,36,18,49,307,50,30,40,283,20,2*7C
$GAGSV,2,2,06,34,52,301,40,36,54,044,41,2*77
$GNRMC,043043.00,A,3727.0494417,N,12639.4339027,E,0.033,,220622,,,R,V*0C
$GNVTG,,T,,M,0.033,N,0.060,K,D*3E
$GNGNS,043043.00,3727.0494417,N,12639.4339027,E,RRRR,25,0.76,28.883,17.843,,4095,V*21
$GNGGA,043043.00,3727.0494417,N,12639.4339027,E,4,12,0.76,28.883,M,17.843,M,,4095*70
$GNGSA,A,3,12,17,09,19,03,06,04,14,,,,,1.41,0.76,1.19,1*0D
$GNGSA,A,3,71,65,72,88,87,78,,,,,,,1.41,0.76,1.19,2*0E
$GNGSA,A,3,34,09,36,30,05,,,,,,,,1.41,0.76,1.19,3*02
$GNGSA,A,3,28,08,14,34,11,10,07,,,,,,1.41,0.76,1.19,4*0E
$GPGSV,2,1,08,01,09,070,33,03,34,046,38,04,23,094,48,06,52,293,44,1*60
$GPGSV,2,2,08,09,22,130,17,12,11,322,38,17,76,076,47,19,69,338,47,1*63
$GPGSV,2,1,08,01,09,070,35,03,34,046,36,04,23,094,44,06,52,293,36,6*66
$GPGSV,2,2,08,09,22,130,16,12,11,322,36,14,28,188,11,17,76,076,40,6*6E
$GPGSV,2,1,06,02,13,272,,11,17,266,,20,06,222,,40,06,259,,0*69
$GPGSV,2,2,06,40,06,259,,41,27,238,,0*66
$GLGSV,2,1,06,65,27,166,19,71,29,040,38,72,53,103,48,78,26,295,26,1*7C
$GLGSV,2,2,06,87,54,008,42,88,30,309,46,1*75
$GLGSV,2,1,05,65,27,166,11,71,29,040,34,72,53,103,40,78,26,295,21,3*76
$GLGSV,2,2,05,88,30,309,40,3*42
$GLGSV,1,1,03,77,21,235,,79,04,341,,86,21,080,,0*44
$GAGSV,2,1,06,05,22,147,16,09,31,091,36,18,49,307,51,30,40,283,19,2*77
$GAGSV,2,2,06,34,52,301,40,36,54,044,40,2*76
$GAGSV,2,1,06,05,22,147,21,09,31,091,41,18,49,307,45,30,40,283,31,7*79
$GAGSV,2,2,06,34,52,301,46,36,54,044,35,7*77
$GAGSV,2,1,06,02,36,213,,04,10,041,,11,12,075,,15,08,271,,0*7F
$GAGSV,2,2,06,15,08,271,,25,05,175,,0*7B
$GBGSV,2,1,07,07,66,218,19,10,66,252,30,11,40,087,42,13,43,252,13,1*7E
$GBGSV,2,2,07,14,57,126,46,28,44,310,48,34,21,100,48,1*4C
$GBGSV,2,1,05,07,66,218,26,08,53,257,12,10,66,252,27,11,40,087,38,3*76
$GBGSV,2,2,05,14,57,126,47,3*40
$GBGSV,2,1,08,01,43,152,,02,28,236,,03,44,206,,04,35,132,,0*76
$GBGSV,2,2,08,04,35,132,,05,08,256,,21,13,038,,23,12,225,,0*7C
$GNRMC,043044.00,A,3727.0494380,N,12639.4338992,E,0.036,,220622,,,R,V*01
$GNVTG,,T,,M,0.036,N,0.066,K,D*3D
$GNGNS,043044.00,3727.0494380,N,12639.4338992,E,RRRR,26,0.73,28.876,17.843,,4095,V*25
$GNGGA,043044.00,3727.0494380,N,12639.4338992,E,4,12,0.73,28.876,M,17.843,M,,4095*77
$GNGSA,A,3,12,17,09,19,03,06,04,14,,,,,1.42,0.73,1.21,1*00
$GNGSA,A,3,71,65,72,88,87,78,,,,,,,1.42,0.73,1.21,2*03
$GNGSA,A,3,28,08,14,34,11,10,07,,,,,,1.42,0.73,1.21,4*03
$GPGSV,2,1,08,01,09,070,33,03,34,046,39,04,23,094,47,06,52,293,44,1*6E
$GPGSV,2,2,08,09,22,130,19,12,11,322,39,17,76,076,47,19,69,338,47,1*6C
$GPGSV,2,1,08,01,09,070,35,03,34,046,36,04,23,094,44,06,52,293,37,6*67
$GPGSV,2,2,08,09,22,130,16,12,11,322,37,14,28,188,11,17,76,076,40,6*6F
$GPGSV,2,1,06,02,13,272,,11,17,266,,20,06,222,,40,06,259,,0*69
$GPGSV,2,2,06,40,06,259,,41,27,238,,0*66
$GLGSV,2,1,06,65,27,166,18,71,29,040,37,72,53,103,48,78,26,295,25,1*71
$GLGSV,2,2,06,87,54,008,40,88,30,309,44,1*75
$GLGSV,2,1,05,65,27,166,11,71,29,040,33,72,53,103,39,78,26,295,22,3*7C
$GLGSV,2,2,0$GLGSV,1,1,03,77,21,235,,79,04,341,,86,21,080,,0*44
$GAGSV,2,1,06,05,22,147,16,09,31,091,37,18,49,307,51,30,40,283,19,2*76
$GAGSV,2,2,06,34,52,301,40,36,54,044,41,2*77
$GAGSV,2,1,06,05,22,147,21,09,31,091,41,18,49,307,45,30,40,283,31,7*79
$GAGSV,2,2,06,34,52,301,46,36,54,044,34,7*76
$GAGSV,2,1,06,02,36,213,,04,10,041,,11,12,075,,15,08,271,,0*7F
$GAGSV,2,2,06,15,08,271,,25,05,175,,0*7B
$GBGSV,2,1,07,07,66,218,20,10,66,252,30,11,40,087,43,13,43,252,12,1*74
$GBGSV,2,2,07,14,57,126,46,28,44,310,48,34,21,100,47,1*43
$GBGSV,2,1,05,07,66,218,26,08,53,257,10,10,66,252,28,11,40,087,39,3*7A
$GBGSV,2,2,05,14,57,126,47,3*40
$GBGSV,2,1,08,01,43,152,,02,28,236,,03,44,206,,04,35,132,,0*76
$GBGSV,2,2,08,04,35,132,,05,08,256,,21,13,038,,23,12,225,,0*7C
$GNRMC,043045.00,A,3727.0494450,N,12639.4339013,E,0.011,,220622,,,R,V*0E
$GNVTG,,T,,M,0.011,N,0.020,K,D*3A
$GNGNS,043045.00,3727.0494450,N,12639.4339013,E,RRRR,25,0.73,28.886,17.843,,4095,V*23
$GNGGA,043045.00,3727.0494450,N,12639.4339013,E,4,12,0.73,28.886,M,17.843,M,,4095*72
$GNGSA,A,3,12,17,09,19,03,06,04,14,,,,,1.42,0.73,1.21,1*00
$GNGSA,A,3,71,65,72,88,87,78,,,,,,,1.42,0.73,1.21,2*03
$GNGSA,A,3,34,09,36,30,05,,,,,,,,1.42,0.73,1.21,3*0F
$GNGSA,A,3,28,14,34,11,10,07,,,,,,,1.42,0.73,1.21,4*0B
$GPGSV,2,1,08,01,09,070,34,03,34,046,39,04,23,094,47,06,52,293,44,1*69
$GPGSV,2,2,08,09,22,130,20,12,11,322,40,17,76,076,47,19,69,338,47,1*68
$GPGSV,2,1,08,01,09,070,35,03,34,046,37,04,23,094,44,06,52,293,36,6*67
$GPGSV,2,2,08,09,22,130,16,12,11,322,37,14,28,188,13,17,76,076,41,6*6C
$GPGSV,2,1,06,02,13,272,,11,17,266,,20,06,222,,40,06,259,,0*69
$GPGSV,2,2,06,40,06,259,,41,27,238,,0*66
$GLGSV,2,1,06,65,27,166,17,71,29,040,37,72,53,103,47,78,26,295,24,1*70
$GLGSV,2,2,06,87,54,008,40,88,30,309,43,1*72
$GLGSV,2,1,05,65,27,166,11,71,29,040,33,72,53,103,40,78,26,295,21,3*71
$GLGSV,2,2,05,88,30,309,40,3*42
$GLGSV,1,1,03,77,21,235,,79,04,341,,86,21,080,,0*44
$GAGSV,2,1,06,05,22,147,16,09,31,091,37,18,49,307,51,30,40,283,19,2*76
$GAGSV,2,2,06,34,52,301,40,36,54,044,41,2*77
$GAGSV,2,1,06,05,22,147,21,09,31,091,41,18,49,307,45,30,40,283,31,7*79
$GAGSV,2,2,06,34,52,301,47,36,54,044,29,7*7B
$GAGSV,2,1,06,02,36,213,,04,10,040,,11,12,075,,15,08,271,,0*7E
$GAGSV,2,2,06,15,08,271,,25,05,175,,0*7B
$GBGSV,2,1,06,07,66,218,19,10,66,252,30,11,40,087,43,14,57,126,46,1*7C
$GBGSV,2,2,06,28,44,310,48,34,21,100,47,1*72
$GBGSV,2,1,05,07,66,218,26,08,53,257,09,10,66,252,27,11,40,087,39,3*7D
$GBGSV,2,2,05,14,57,126,47,3*40
$GBGSV,3,1,09,01,43,152,,02,28,236,,03,44,206,,04,35,132,,0*76
$GBGSV,3,2,09,04,35,132,,05,08,256,,13,43,252,,21,13,038,,0*7B
$GBGSV,3,3,09,21,13,038,,0*44
$GNRMC,043046.00,A,3727.0494428,N,12639.4339002,E,0.012,,220622,,,R,V*01
$GNVTG,,T,,M,0.012,N,0.023,K,D*3A
$GNGNS,043046.00,3727.0494428,N,12639.4339002,E,RRRR,25,0.86,28.874,17.843,,4095,V*28
$GNGGA,043046.00,3727.0494428,N,12639.4339002,E,4,12,0.86,28.874,M,17.843,M,,4095*79
$GNGSA,A,3,12,17,09,19,03,06,04,14,,,,,1.55,0.86,1.28,1*05
$GNGSA,A,3,71,65,72,88,87,78,,,,,,,1.55,0.86,1.28,2*06
$GNGSA,A,3,34,09,36,30,05,,,,,,,,1.55,0.86,1.28,3*0A
$GNGSA,A,3,28,14,34,11,10,07,,,,,,,1.55,0.86,1.28,4*0E
$GPGSV,3,1,09,01,09,070,35,03,34,046,40,04,23,094,46,06,52,293,44,1*67
$GPGSV,3,2,09,09,22,130,21,12,11,322,40,14,28,188,20,17,76,076,47,1*69
$GPGSV,3,3,09,19,69,338,47,1*51
$GPGSV,2,1,08,01,09,070,35,03,34,046,36,04,23,094,44,06,52,293,36,6*66
$GPGSV,2,2,08,09,22,130,16,12,11,322,37,14,28,188,15,17,76,076,40,6*6B
$GPGSV,2,1,06,02,13,272,,11,17,266,,20,06,222,,40,06,259,,0*69
$GPGSV,2,2,06,40,06,259,,41,27,238,,0*66
$GLGSV,2,1,06,65,27,166,16,71,29,040,37,72,53,103,49,78,26,295,23,1*78
$GLGSV,2,2,06,87,54,008,41,88,30,309,45,1*75
$GLGSV,2,1,05,65,27,166,11,71,29,040,33,72,53,103,40,78,26,295,21,3*71
$GLGSV,2,2,05,88,30,309,39,3*4C
$GLGSV,1,1,03,77,21,235,,79,04,341,,86,21,080,,0*44
$GAGSV,2,1,06,05,22,146,17,09,31,091,37,18,49,307,51,30,40,283,19,2*76
$GAGSV,2,2,06,34,52,301,40,36,54,044,41,2*77
$GAGSV,2,1,06,05,22,146,22,09,31,091,42,18,49,307,45,30,40,283,31,7*78
$GAGSV,2,2,06,34,52,301,47,36,54,044,34,7*77
$GAGSV,2,1,06,02,36,213,,04,10,040,,11,12,075,,15,08,271,,0*7E
$GAGSV,2,2,06,15,08,271,,25,05,175,,0*7B
$GBGSV,2,1,06,07,66,218,18,10,66,252,30,11,40,087,43,14,57,126,47,1*7C
$GBGSV,2,2,06,28,44,310,48,34,21,100,47,1*72
$GBGSV,2,1,05,07,66,218,26,08,53,257,09,10,66,252,27,11,40,087,39,3*7D
$GBGSV,2,2,05,14,57,126,46,3*41
$GBGSV,3,1,09,01,43,152,,02,28,236,,03,44,206,,04,35,132,,0*76
$GBGSV,3,2,09,04,35,132,,05,08,256,,13,43,252,,21,13,038,,0*7B
$GBGSV,3,3,09,21,13,038,,0*44
$GNRMC,043047.00,A,3727.0494453,N,12639.4339009,E,0.043,,220622,,,R,V*03
$GNVTG,,T,,M,0.043,N,0.079,K,D*31
$GNGGA,043047.00,3727.0494453,N,12639.4339009,E,4,12,0.73,28.882,M,17.843,M,,4095*7C
$GNGSA,A,3,12,17,09,19,03,06,04,14,,,,,1.42,0.73,1.21,1*00
$GNGSA,A,3,71,65,72,88,87,78,,,,,,,1.42,0.73,1.21,2*03
$GNGSA,A,3,34,09,36,30,05,,,,,,,,1.42,0.73,1.21,3*0F
$GNGSA,A,3,28,14,34,11,10,07,,,,,,,1.42,0.73,1.21,4*0B
$GPGSV,3,1,09,01,09,070,36,03,34,046,41,04,23,094,46,06,52,293,44,1*65
$GPGSV,3,2,09,09,22,130,21,12,11,322,40,14,28,188,20,17,76,076,47,1*69
$GPGSV,3,3,09,19,69,338,47,1*51
$GPGSV,2,1,08,01,09,070,35,03,34,046,36,04,23,094,44,06,52,293,36,6*66
$GPGSV,2,2,08,09,22,130,16,12,11,322,36,14,28,188,15,17,76,076,40,6*6A
$GPGSV,2,1,06,02,13,272,,11,17,266,,20,06,222,,40,06,259,,0*69
$GPGSV,2,2,06,40,06,259,,41,27,238,,0*66
$GLGSV,2,1,06,65,27,166,17,71,29,040,35,72,53,103,48,78,26,295,24,1*7D
$GLGSV,2,2,06,87,54,008,40,88,30,309,45,1*74
$GLGSV,2,1,05,65,27,166,09,71,29,040,34,72,53,103,40,78,26,295,22,3*7C
$GLGSV,2$GLGSV,1,1,03,77,21,235,,79,04,341,,86,21,080,,0*44
$GAGSV,2,1,06,05,22,146,17,09,31,091,38,18,49,307,51,30,40,283,18,2*78
$GAGSV,2,2,06,34,52,301,40,36,54,044,41,2*77
$GAGSV,2,1,06,05,22,146,22,09,31,091,41,18,49,307,45,30,40,283,31,7*7B
$GAGSV,2,2,06,34,52,301,47,36,54,044,34,7*77
$GAGSV,2,1,06,02,36,213,,04,10,040,,11,12,075,,15,08,271,,0*7E
$GAGSV,2,2,06,15,08,271,,25,05,175,,0*7B
$GBGSV,2,1,06,07,66,218,19,10,66,252,30,11,40,087,44,14,57,126,47,1*7A
$GBGSV,2,2,06,28,44,310,48,34,21,100,47,1*72
$GBGSV,2,1,05,07,66,218,26,08,53,257,08,10,66,252,27,11,40,087,40,3*72
$GBGSV,2,2,05,14,57,126,46,3*41
$GBGSV,3,1,09,01,43,152,,02,28,236,,03,44,206,,04,35,132,,0*76
$GBGSV,3,2,09,04,35,132,,05,08,256,,13,43,252,,21,13,038,,0*7B
$GBGSV,3,3,09,21,13,038,,0*44
$GNRMC,043048.00,A,3727.0494434,N,12639.4338985,E,0.009,,220622,,,R,V*0F
$GNVTG,,T,,M,0.009,N,0.016,K,D*36
$GNGNS,043048.00,3727.0494434,N,12639.4338985,E,RRRR,25,0.79,28.874,17.843,,4095,V*2C
$GNGGA,043048.00,3727.0494434,N,12639.4338985,E,4,12,0.79,28.874,M,17.843,M,,4095*7D
$GNGSA,A,3,12,17,09,19,03,06,04,14,,,,,1.47,0.79,1.24,1*0A
$GNGSA,A,3,71,65,72,88,87,78,,,,,,,1.47,0.79,1.24,2*09
$GNGSA,A,3,34,09,36,30,05,,,,,,,,1.47,0.79,1.24,3*05
$GNGSA,A,3,28,14,34,11,10,07,,,,,,,1.47,0.79,1.24,4*01
$GPGSV,3,1,09,01,09,070,36,03,34,046,41,04,23,094,46,06,52,293,44,1*65
$GPGSV,3,2,09,09,22,130,22,12,11,322,41,14,28,188,20,17,76,076,47,1*6B
$GPGSV,3,3,09,19,69,338,47,1*51
$GPGSV,2,1,08,01,09,070,34,03,34,046,36,04,23,094,44,06,52,293,36,6*67
$GPGSV,2,2,08,09,22,130,16,12,11,322,36,14,28,188,15,17,76,076,40,6*6A
$GPGSV,2,1,06,02,13,272,,11,17,266,,20,06,222,,40,06,259,,0*69
$GPGSV,2,2,06,40,06,259,,41,27,238,,0*66
$GLGSV,2,1,06,65,27,166,17,71,29,040,35,72,53,103,49,78,26,295,24,1*7C
$GLGSV,2,2,06,87,54,008,41,88,30,309,46,1*76
$GLGSV,2,1,05,65,27,166,09,71,29,040,34,72,53,103,40,78,26,295,21,3*7F
$GLGSV,2,2,05,88,30,309,39,3*4C
$GLGSV,1,1,03,77,21,235,,79,04,341,,86,21,080,,0*44
$GAGSV,2,1,06,05,22,146,17,09,31,091,38,18,49,307,50,30,40,283,19,2*78
$GAGSV,2,2,06,34,52,301,39,36,54,044,41,2*79
$GAGSV,2,1,06,05,22,146,23,09,31,091,41,18,49,307,45,30,40,283,31,7*7A
$GAGSV,2,2,06,34,52,301,47,36,54,044,35,7*76
$GAGSV,2,1,06,02,36,213,,04,10,040,,11,12,075,,15,08,271,,0*7E
$GAGSV,2,2,06,15,08,271,,25,05,175,,0*7B
$GBGSV,2,1,06,07,66,218,20,10,66,252,30,11,40,087,44,14,57,126,47,1*70
$GBGSV,2,2,06,28,44,310,48,34,21,100,47,1*72
$GBGSV,2,1,05,07,66,218,26,08,53,257,08,10,66,252,27,11,40,087,39,3*7C
$GBGSV,2,2,05,14,57,126,45,3*42
$GBGSV,3,1,09,01,43,152,,02,28,236,,03,44,206,,04,35,132,,0*76
$GBGSV,3,2,09,04,35,132,,05,08,256,,13,43,252,,21,13,038,,0*7B
$GBGSV,3,3,09,21,13,038,,0*44
$GNRMC,043049.00,A,3727.0494479,N,12639.4339013,E,0.009,,220622,,,R,V*00
$GNVTG,,T,,M,0.009,N,0.016,K,D*36
$GNGNS,043049.00,3727.0494479,N,12639.4339013,E,RRRR,25,1.03,28.881,17.843,,4095,V*25
$GNGGA,043049.00,3727.0494479,N,12639.4339013,E,4,12,1.03,28.881,M,17.843,M,,4095*74
$GNGSA,A,3,12,17,09,19,03,06,04,14,,,,,1.82,1.03,1.51,1*0D
$GNGSA,A,3,71,65,72,88,87,78,,,,,,,1.82,1.03,1.51,2*0E
$GNGSA,A,3,34,09,36,30,05,,,,,,,,1.82,1.03,1.51,3*02
$GNGSA,A,3,28,14,34,11,10,07,,,,,,,1.82,1.03,1.51,4*06
$GPGSV,3,1,09,01,09,070,36,03,34,046,41,04,23,094,45,06,52,293,44,1*66
$GPGSV,3,2,09,09,22,130,22,12,11,322,41,14,28,188,19,17,76,076,47,1*61
$GPGSV,3,3,09,19,69,338,47,1*51
$GPGSV,2,1,08,01,09,070,34,03,34,046,37,04,23,094,44,06,52,293,36,6*66
$GPGSV,2,2,08,09,22,130,16,12,11,322,36,14,28,188,15,17,76,076,40,6*6A
$GPGSV,2,1,06,02,13,272,,11,17,266,,20,06,222,,40,06,259,,0*69
$GPGSV,2,2,06,40,06,259,,41,27,238,,0*66
$GLGSV,2,1,06,65,27,166,16,71,29,040,35,72,53,103,49,78,26,295,25,1*7C
$GLGSV,2,2,06,87,54,008,42,88,30,309,45,1*76
$GLGSV,2,1,05,65,27,166,07,71,29,040,32,72,53,103,38,78,26,295,21,3*78
$GLGSV,2,2,05,88,30,309,37,3*42
$GLGSV,1,1,03,77,21,235,,79,04,341,,86,21,080,,0*44
$GAGSV,2,1,06,05,22,146,18,09,31,090,38,18,49,307,51,30,40,283,18,2*76
$GAGSV,2,2,06,34,52,301,39,36,54,044,41,2*79
$GAGSV,2,1,06,05,22,146,23,09,31,090,41,18,49,307,45,30,40,283,31,7*7B
$GAGSV,2,2,06,34,52,301,47,36,54,044,34,7*77
$GAGSV,2,1,06,02,36,213,,04,10,040,,11,12,075,,15,08,271,,0*7E
$GAGSV,2,2,06,15,08,271,,25,05,175,,0*7B
$GBGSV,2,1,06,07,66,218,20,10,66,252,30,11,40,087,44,14,57,126,47,1*70
$GBGSV,2,2,06,28,44,310,48,34,21,100,47,1*72
$GBGSV,2,1,05,07,66,218,26,08,53,257,08,10,66,252,27,11,40,087,39,3*7C
$GBGSV,2,2,05,14,57,126,46,3*41
$GBGSV,3,1,09,01,43,152,,02,28,236,,03,44,206,,04,35,132,,0*76
$GBGSV,3,2,09,04,35,132,,05,08,256,,13,43,252,,21,13,038,,0*7B
$GBGSV,3,3,09,21,13,038,,0*44
$GNRMC,043050.00,A,3727.0494454,N,12639.4339030,E,0.046,,220622,,,R,V*0D
$GNVTG,,T,,M,0.046,N,0.085,K,D*37
$GNGNS,043050.00,3727.0494454,N,12639.4339030,E,RRRR,25,0.77,28.893,17.843,,4095,V*22
$GNGGA,043050.00,3727.0494454,N,12639.4339030,E,4,12,0.77,28.893,M,17.843,M,,4095*73
$GNGSA,A,3,12,17,09,19,03,06,04,14,,,,,1.51,0.77,1.30,1*06
$GNGSA,A,3,71,65,72,88,87,78,,,,,,,1.51,0.77,1.30,2*05
$GNGSA,A,3,34,09,36,30,05,,,,,,,,1.51,0.77,1.30,3*09
$GPGSV,3,1,09,01,09,070,37,03,34,046,41,04,23,094,44,06,52,293,44,1*66
$GPGSV,3,2,09,09,22,130,23,12,11,322,40,14,28,188,19,17,76,076,47,1*61
$GPGSV,3,3,09,19,69,338,47,1*51
$GPGSV,2,1,08,01,09,070,34,03,34,046,37,04,23,094,44,06,52,293,37,6*67
$GPGSV,2,2,08,09,22,130,17,12,11,322,36,14,28,188,15,17,76,076,41,6*6A
$GPGSV,2,1,06,02,13,272,,11,17,266,,20,06,222,,40,06,259,,0*69
$GPGSV,2,2,06,40,06,259,,41,27,238,,0*66
$GLGSV,2,1,06,65,27,166,16,71,29,040,32,72,53,103,47,78,26,295,23,1*73
$GLGSV,2,2,06,87,54,008,41,88,30,309,43,1*73
$GLGSV,2,1,05,65,27,166,09,71,29,040,31,72,53,103,38,78,26,295,21,3*75
$GLGSV,2,2,05,88,30,309,37,3*42
$GLGSV,1,1,03,77,21,235,,79,04,341,,86,21,080,,0*44
$GAGSV,2,1,06,05,22,146,18,09,31,090,38,18,51,308,50,30,40,283,17,2*7E
$GAGSV,2,2,06,34,52,301,40,36,54,044,40,2*76
$GAGSV,2,1,06,05,22,146,23,09,31,090,40,18,51,308,44,30,40,283,31,7*7D
$GAGSV,2,2,06,34,52,301,47,36,54,044,34,7*77
$GAGSV,2,1,06,02,36,213,,04,1$GAGSV,2,2,06,15,08,271,,25,05,175,,0*7B
$GBGSV,2,1,06,07,66,218,20,10,66,252,30,11,40,087,44,14,57,126,47,1*70
$GBGSV,2,2,06,28,44,310,48,34,21,100,47,1*72
$GBGSV,1,1,04,07,66,218,26,10,66,252,27,11,40,087,39,14,57,126,46,3*78
$GBGSV,3,1,10,01,43,152,,02,28,236,,03,44,206,,04,35,132,,0*7E
$GBGSV,3,2,10,04,35,132,,05,08,256,,08,53,257,,13,43,252,,0*77
$GBGSV,3,3,10,13,43,252,,21,13,038,,0*7C
$GNRMC,043051.00,A,3727.0494437,N,12639.4339024,E,0.031,,220622,,,R,V*0C
$GNVTG,,T,,M,0.031,N,0.058,K,D*37
$GNGNS,043051.00,3727.0494437,N,12639.4339024,E,RRRR,25,1.03,28.891,17.843,,4095,V*23
$GNGGA,043051.00,3727.0494437,N,12639.4339024,E,4,12,1.03,28.891,M,17.843,M,,4095*72
$GNGSA,A,3,12,17,09,19,03,06,04,14,,,,,1.82,1.03,1.51,1*0D
$GNGSA,A,3,71,65,72,88,87,78,,,,,,,1.82,1.03,1.51,2*0E
$GNGSA,A,3,34,09,36,30,05,,,,,,,,1.82,1.03,1.51,3*02
$GNGSA,A,3,28,14,34,11,10,07,,,,,,,1.82,1.03,1.51,4*06
$GPGSV,3,1,09,01,09,070,37,03,34,046,43,04,23,094,46,06,52,293,45,1*67
$GPGSV,3,2,09,09,22,130,22,12,11,322,41,14,28,188,20,17,76,076,48,1*64
$GPGSV,3,3,09,19,69,338,48,1*5E
$GPGSV,2,1,08,01,09,070,32,03,34,046,37,04,23,094,44,06,52,293,37,6*61
$GPGSV,2,2,08,09,22,130,17,12,11,322,36,14,28,188,14,17,76,076,40,6*6A
$GPGSV,2,1,06,02,13,272,,11,17,266,,20,06,222,,40,06,259,,0*69
$GPGSV,2,2,06,40,06,259,,41,27,238,,0*66
$GLGSV,2,1,06,65,27,166,18,71,29,040,33,72,53,103,48,78,26,295,24,1*74
$GLGSV,2,2,06,87,54,008,40,88,30,309,45,1*74
$GLGSV,2,1,05,65,27,166,05,71,29,040,32,72,53,103,39,78,26,295,21,3*7B
$GLGSV,2,2,05,88,30,309,37,3*42
$GLGSV,1,1,03,77,21,235,,79,04,341,,86,21,080,,0*44
$GAGSV,2,1,06,05,22,146,17,09,31,090,38,18,51,308,51,30,40,283,17,2*70
$GAGSV,2,2,06,34,52,301,40,36,54,044,40,2*76
$GAGSV,2,1,06,05,22,146,22,09,31,090,42,18,51,308,45,30,40,283,31,7*7F
$GAGSV,2,2,06,34,52,301,47,36,54,044,36,7*75
$GAGSV,2,1,06,02,36,213,,04,10,040,,11,11,075,,15,08,271,,0*7D
$GAGSV,2,2,06,15,08,271,,25,05,175,,0*7B
$GBGSV,2,1,06,07,66,218,20,10,66,252,29,11,40,087,44,14,57,126,47,1*78
$GBGSV,2,2,06,28,44,310,48,34,21,100,46,1*73
$GBGSV,2,1,05,07,66,218,26,08,53,257,16,10,66,252,27,11,40,087,40,3*7D
$GBGSV,2,2,05,14,57,126,46,3*41
$GBGSV,3,1,09,01,43,152,,02,28,236,,03,44,206,,04,35,132,,0*76
$GBGSV,3,2,09,04,35,132,,05,08,256,,13,43,252,,21,13,038,,0*7B
$GBGSV,3,3,09,21,13,038,,0*44
$GNRMC,043052.00,A,3727.0494447,N,12639.4339046,E,0.009,,220622,,,R,V*07
$GNVTG,,T,,M,0.009,N,0.017,K,D*37
$GNGNS,043052.00,3727.0494447,N,12639.4339046,E,RRRR,25,1.03,28.894,17.843,,4095,V*26
$GNGGA,043052.00,3727.0494447,N,12639.4339046,E,4,12,1.03,28.894,M,17.843,M,,4095*77
$GNGSA,A,3,12,17,09,19,03,06,04,14,,,,,1.82,1.03,1.51,1*0D
$GNGSA,A,3,71,65,72,88,87,78,,,,,,,1.82,1.03,1.51,2*0E
$GNGSA,A,3,34,09,36,30,05,,,,,,,,1.82,1.03,1.51,3*02
$GNGSA,A,3,28,14,34,11,10,07,,,,,,,1.82,1.03,1.51,4*06
$GPGSV,3,1,09,01,09,070,37,03,34,046,40,04,23,094,42,06,52,293,42,1*67
$GPGSV,3,2,09,09,22,130,23,12,11,322,40,14,28,188,20,17,76,076,46,1*6A
$GPGSV,3,3,09,19,69,338,45,1*53
$GPGSV,2,1,08,01,09,070,32,03,34,046,37,04,23,094,44,06,52,293,37,6*61
$GPGSV,2,2,08,09,22,130,17,12,11,322,36,14,28,188,15,17,76,076,41,6*6A
$GPGSV,2,1,06,02,13,272,,11,17,266,,20,06,222,,40,06,259,,0*69
$GPGSV,2,2,06,40,06,259,,41,27,238,,0*66
$GLGSV,2,1,06,65,27,166,16,71,29,040,33,72,53,103,44,78,26,295,23,1*71
$GLGSV,2,2,06,87,54,008,38,88,30,309,40,1*7E
$GLGSV,2,1,05,65,27,166,11,71,29,040,32,72,53,103,38,78,26,295,21,3*7F
$GLGSV,2,2,05,88,30,309,38,3*4D
$GLGSV,1,1,03,77,21,235,,79,04,341,,86,21,080,,0*44
$GAGSV,2,1,06,05,22,146,16,09,31,090,38,18,51,308,50,30,40,283,17,2*70
$GAGSV,2,2,06,34,52,301,40,36,54,044,41,2*77
$GAGSV,2,1,06,05,22,146,22,09,31,090,40,18,51,308,41,30,40,283,31,7*79
$GAGSV,2,2,06,34,52,301,44,36,54,044,33,7*73
$GAGSV,2,1,06,02,36,213,,04,10,040,,11,11,075,,15,08,271,,0*7D
$GAGSV,2,2,06,15,08,271,,25,05,175,,0*7B
$GBGSV,2,1,06,07,66,218,20,10,66,252,30,11,40,087,42,14,57,126,45,1*74
$GBGSV,2,2,06,28,44,310,46,34,21,100,45,1*7E
$GBGSV,2,1,05,07,66,218,27,08,53,257,14,10,66,252,27,11,40,087,39,3*70
$GBGSV,2,2,05,14,57,126,46,3*41
$GBGSV,3,1,09,01,43,152,,02,28,236,,03,44,206,,04,35,132,,0*76
$GBGSV,3,2,09,04,35,132,,05,08,256,,13,43,252,,21,13,038,,0*7B
$GBGSV,3,3,09,21,13,038,,0*44
$GNRMC,043053.00,A,3727.0494423,N,12639.4339019,E,0.032,,220622,,,R,V*06
$GNVTG,,T,,M,0.032,N,0.059,K,D*35
$GNGNS,043053.00,3727.0494423,N,12639.4339019,E,RRRR,25,0.77,28.890,17.843,,4095,V*29
$GNGGA,043053.00,3727.0494423,N,12639.4339019,E,4,12,0.77,28.890,M,17.843,M,,4095*78
$GNGSA,A,3,12,17,09,19,03,06,04,14,,,,,1.51,0.77,1.30,1*06
$GNGSA,A,3,71,65,72,88,87,78,,,,,,,1.51,0.77,1.30,2*05
$GNGSA,A,3,34,09,36,30,05,,,,,,,,1.51,0.77,1.30,3*09
$GNGSA,A,3,28,14,34,11,10,07,,,,,,,1.51,0.77,1.30,4*0D
$GPGSV,3,1,09,01,09,070,36,03,34,046,43,04,23,094,44,06,52,293,44,1*65
$GPGSV,3,2,09,09,22,130,25,12,11,322,42,14,28,188,20,17,76,076,48,1*60
$GPGSV,3,3,09,19,69,338,47,1*51
$GPGSV,2,1,08,01,09,070,34,03,34,046,37,04,23,094,44,06,52,293,38,6*68
$GPGSV,2,2,08,09,22,130,17,12,11,322,36,14,28,188,16,17,76,076,41,6*69
$GPGSV,2,1,06,02,13,272,,11,17,266,,20,06,222,,40,06,259,,0*69
$GPGSV,2,2,06,40,06,259,,41,27,238,,0*66
$GLGSV,2,1,06,65,27,166,17,71,29,040,31,72,53,103,46,78,26,295,22,1*71
$GLGSV,2,2,06,87,54,008,40,88,30,309,43,1*72
$GLGSV,2,1,05,65,27,166,09,71,29,040,32,72,53,103,39,78,26,295,22,3*74
$GLGSV,2,2,05,88,30,309,38,3*4D
$GLGSV,1,1,03,77,21,235,,79,04,341,,86,21,080,,0*44
$GAGSV,2,1,06,05,22,146,17,09,31,090,38,18,51,308,50,30,40,283,19,2*7F
$GAGSV,2,2,06,34,52,301,40,36,54,044,41,2*77
$GAGSV,2,1,06,05,22,146,24,09,31,090,42,18,51,308,44,30,40,283,32,7*7B
$GAGSV,2,2,06,34,52,301,48,36,54,044,35,7*79
$GAGSV,2,1,06,02,36,213,,04,10,040,,11,11,075,,15,08,271,,0*7D
$GAGSV,2,2,06,15,08,271,,25,05,175,,0*7B
$GBGSV,2,1,06,07,66,218,22,10,66,252,31,11,40,087,45,14,57,126,48,1*7D
$GBGSV,2,2,06,28,44,310,50,34,21,100,48,1*74
$GBGSV,2,1,05,07,66,218,26,08,53,257,15,10,66,252,27,11,40,087,40,3*7E
$GBGSV,2,2,05,14,57,126,46,3*41
$GBGSV,3,1,09,01,43,152,,02,28,236,,03,44,206,,04,35,132,,0*76
$GBGSV,3,2,09,04,35,132,,05,08,256,,13,43,252,,21,13,038,,0*7B
$GBGSV,3,3,09,21,13,038,,0*44
$GNRMC,043054.00,A,3727.0494468,N,12639.4339002,E,0.011,,220622,,,R,V*05
$GNVTG,,T,,M,0.011,N,0.021,K,D*3B
$GNGNS,043054.00,3727.0494468,N,12639.4339002,E,RRRR,25,0.77,28.887,17.843,,4095,V*2D
$GNGGA,043054.00,3727.0494468,N,12639.4339002,E,4,12,0.77,28.887,M,17.843,M,,4095*7C
$GNGSA,A,3,12,17,09,19,03,06,04,14,,,,,1.51,0.77,1.30,1*06
$GNGSA,A,3,71,65,72,88,87,78,,,,,,,1.51,0.77,1.30,2*05
$GNGSA,A,3,34,09,36,30,05,,,,,,,,1.51,0.77,1.30,3*09
$GNGSA,A,3,28,14,34,11,10,07,,,,,,,1.51,0.77,1.30,4*0D
$GPGSV,3,1,09,01,09,070,36,03,34,046,43,04,23,094,44,06,52,293,44,1*65
$GPGSV,3,2,09,09,22,130,24,12,11,322,43,14,28,188,18,17,76,076,48,1*6B
$GPGSV,3,3,09,19,69,338,48,1*5E
$GPGSV,2,1,08,01,09,070,31,03,34,046,37,04,23,094,44,06,52,293,38,6*6D
$GPGSV,2,2,08,09,22,130,14,12,11,322,37,14,28,188,17,17,76,076,41,6*6A
$GPGSV,2,1,06,02,13,272,,11,17,266,,20,06,222,,40,06,259,,0*69
$GPGSV,2,2,06,40,06,259,,41,27,238,,0*66
$GLGSV,2,1,06,65,27,166,16,71,29,040,33,72,53,103,47,78,26,295,22,1*73
$GLGSV,2,2,06,87,54,008,41,88,30,309,43,1*73
$GLGSV,2,1,05,65,27,166,08,71,29,040,32,72,53,103,39,78,26,295,22,3*75
$GLGSV,2,2,05,88,30,309,38,3*4D
$GLGSV,1,1,03,77,21,235,,79,04,341,,86,21,080,,0*44
$GAGSV,2,1,06,05,22,146,16,09,31,090,39,18,51,308,51,30,40,283,19,2*7E
$GAGSV,2,2,06,34,52,301,40,36,54,044,40,2*76
$GAGSV,2,1,06,05,22,146,22,09,31,090,42,18,51,308,44,30,40,283,31,7*7E
$GAGSV,2,2,06,34,52,301,48,36,54,044,34,7*78
$GAGSV,2,1,06,02,36,213,,04,10,040,,11,11,075,,15,08,272,,0*7E
$GAGSV,2,2,06,15,08,272,,25,05,175,,0*78
$GBGSV,2,1,06,07,66,218,22,10,66,252,30,11,40,087,44,14,57,126,48,1*7D
$GBGSV,2,2,06,28,44,310,48,34,21,100,46,1*73
$GNRMC,043055.00,A,3727.0494462,N,12639.4339009,E,0.005,,220622,,,R,V*00
$GNVTG,,T,,M,0.005,N,0.009,K,D*34
$GNGNS,043055.00,3727.0494462,N,12639.4339009,E,RRRR,25,0.77,28.881,17.843,,4095,V*2B
$GNGGA,043055.00,3727.0494462,N,12639.4339009,E,4,12,0.77,28.881,M,17.843,M,,4095*7A
$GNGSA,A,3,12,17,09,19,03,06,04,14,,,,,1.51,0.77,1.30,1*06
$GNGSA,A,3,71,65,72,88,87,78,,,,,,,1.51,0.77,1.30,2*05
$GNGSA,A,3,34,09,36,30,05,,,,,,,,1.51,0.77,1.30,3*09
$GNGSA,A,3,28,08,14,34,11,10,07,,,,,,1.51,0.77,1.30,4*05
$GPGSV,3,1,09,01,09,070,36,03,34,046,44,04,23,094,44,06,52,293,44,1*62
$GPGSV,3,2,09,09,22,130,25,12,11,322,43,14,28,188,18,17,76,076,49,1*6B
$GPGSV,3,3,09,19,69,338,48,1*5E
$GPGSV,2,1,08,01,09,070,32,03,34,046,38,04,23,094,44,06,52,293,38,6*61
$GPGSV,2,2,08,09,22,130,13,12,11,322,37,14,28,188,17,17,76,076,41,6*6D
$GPGSV,2,1,06,02,13,272,,11,17,266,,20,06,222,,40,06,259,,0*69
$GPGSV,2,2,06,40,06,259,,41,27,238,,0*66
$GLGSV,2,1,06,65,27,166,17,71,29,040,36,72,53,103,47,78,26,295,22,1*77
$GLGSV,2,2,06,87,54,008,41,88,30,309,43,1*73
$GLGSV,2,1,05,65,27,166,09,71,29,040,33,72,53,103,41,78,26,295,23,3*7B
$GLGSV,2,2,05,88,30,309,39,3*4C
$GLGSV,1,1,03,77,21,235,,79,04,341,,86,21,080,,0*44
$GAGSV,2,1,06,05,22,146,17,09,31,090,39,18,51,308,50,30,40,283,19,2*7E
$GAGSV,2,2,06,34,52,301,39,36,54,044,40,2*78
$GAGSV,2,1,06,05,22,146,22,09,31,090,43,18,51,308,43,30,40,283,31,7*78
$GAGSV,2,2,06,34,52,301,47,36,54,044,36,7*75
$GAGSV,2,1,06,02,36,213,,04,10,040,,11,11,075,,15,08,272,,0*7E
$GAGSV,2,2,06,15,08,272,,25,05,175,,0*78
$GBGSV,2,1,06,07,66,218,21,10,66,252,30,11,40,087,44,14,57,126,48,1*7E
$GBGSV,2,2,06,28,44,310,48,34,21,100,46,1*73
$GBGSV,2,1,05,07,66,218,26,08,53,257,14,10,66,252,27,11,40,087,40,3*7F
$GBGSV,2,2,05,14,57,126,46,3*41
$GBGSV,3,1,09,01,43,152,,02,28,236,,03,44,206,,04,35,132,,0*76
$GBGSV,3,2,09,04,35,132,,05,08,256,,13,43,252,,21,13,038,,0*7B
$GBGSV,3,3,09,21,13,038,,0*44
$GNRMC,043056.00,A,3727.0494418,N,12639.4338997,E,0.007,,220622,,,R,V*03
$GNVTG,,T,,M,0.007,N,0.014,K,D*3A
$GNGNS,043056.00,3727.0494418,N,12639.4338997,E,RRRR,25,0.73,28.879,17.843,,4095,V*29
$GNGGA,043056.00,3727.0494418,N,12639.4338997,E,4,12,0.73,28.879,M,17.843,M,,4095*78
$GNGSA,A,3,12,17,09,19,03,06,04,14,,,,,1.42,0.73,1.21,1*00
$GNGSA,A,3,71,65,72,88,87,78,,,,,,,1.42,0.73,1.21,2*03
$GNGSA,A,3,34,09,36,30,05,,,,,,,,1.42,0.73,1.21,3*0F
$GNGSA,A,3,28,08,14,34,11,10,07,,,,,,1.42,0.73,1.21,4*03
$GPGSV,3,1,09,01,09,070,36,03,34,046,44,04,23,094,42,06,52,293,44,1*64
$GPGSV,3,2,09,09,22,130,25,12,11,322,43,14,28,188,18,17,76,076,48,1*6A
$GPGSV,3,3,09,19,69,338,47,1*51
$GPGSV,2,1,08,01,09,070,32,03,34,046,38,04,23,094,44,06,52,293,38,6*61
$GPGSV,2,2,08,09,22,130,15,12,11,322,37,14,28,188,17,17,76,076,41,6*6B
$GPGSV,2,1,06,02,13,272,,11,17,266,,20,06,222,,40,06,259,,0*69
$GPGSV,2,2,06,40,06,259,,41,27,238,,0*66
$GLGSV,2,1,06,65,27,166,18,71,29,040,35,72,53,103,47,78,26,295,23,1*7A
$GLGSV,2,2,06,87,54,008,40,88,30,309,42,1*73
$GLGSV,2,1,05,65,27,166,09,71,29,040,34,72,53,103,41,78,26,295,23,3*7C
$GLGSV,2,2,05,88,30,309,40,3*42
$GLGSV,1,1,03,77,21,235,,79,04,341,,86,21,080,,0*44
$GAGSV,2,1,06,05,22,146,17,09,31,090,39,18,51,308,50,30,40,283,19,2*7E
$GAGSV,2,2,06,34,52,301,40,36,54,044,40,2*76
$GAGSV,2,1,06,05,22,146,21,09,31,090,42,18,51,308,44,30,40,283,31,7*7D
$GAGSV,2,2,06,34,52,301,47,36,54,044,36,7*75
$GAGSV,2,1,06,02,36,213,,04,10,040,,11,11,075,,15,08,272,,0*7E
$GAGSV,2,2,06,15,08,272,,25,05,175,,0*78
$GBGSV,2,1,07,07,66,218,21,10,66,252,30,11,40,087,43,13,43,252,16,1*71
$GBGSV,2,2,07,14,57,126,47,28,44,310,47,34,21,100,46,1*4C
$GBGSV,2,1,05,07,66,218,26,08,53,257,15,10,66,252,27,11,40,087,40,3*7E
$GBGSV,2,2,05,14,57,126,45,3*42
$GBGSV,2,1,08,01,43,152,,02,28,236,,03,44,206,,04,35,132,,0*76
$GNRMC,043057.00,A,3727.0494448,N,12639.4339006,E,0.011,,220622,,,R,V*00
$GNVTG,,T,,M,0.011,N,0.020,K,D*3A
$GNGNS,043057.00,3727.0494448,N,12639.4339006,E,RRRR,26,0.73,28.901,17.843,,4095,V*20
$GNGGA,043057.00,3727.0494448,N,12639.4339006,E,4,12,0.73,28.901,M,17.843,M,,4095*72
$GNGSA,A,3,12,17,09,19,03,06,04,14,,,,,1.42,0.73,1.21,1*00
$GNGSA,A,3,71,65,72,88,87,78,,,,,,,1.42,0.73,1.21,2*03
$GNGSA,A,3,34,09,36,30,05,,,,,,,,1.42,0.73,1.21,3*0F
$GNGSA,A,3,28,08,14,34,11,10,07,,,,,,1.42,0.73,1.21,4*03
$GPGSV,3,1,09,01,09,070,35,03,34,046,43,04,23,094,40,06,52,293,42,1*64
$GPGSV,3,2,09,09,22,130,25,12,11,322,39,14,28,188,17,17,76,076,46,1*66
$GPGSV,3,3,09,19,69,338,45,1*53
$GPGSV,2,1,08,01,09,070,32,03,34,046,38,04,23,094,44,06,52,293,37,6*6E
$GPGSV,2,2,08,09,22,130,15,12,11,322,33,14,28,188,16,17,76,076,41,6*6E
$GPGSV,2,1,06,02,13,272,,11,17,266,,20,06,222,,40,06,259,,0*69
$GPGSV,2,2,06,40,06,259,,41,27,238,,0*66
$GLGSV,2,1,06,65,27,166,19,71,29,040,32,72,53,103,44,78,26,295,23,1*7F
$GLGSV,2,2,06,87,54,008,37,88,30,309,40,1*71
$GLGSV,2,1,05,65,27,166,12,71,29,040,33,72,53,103,40,78,26,295,24,3*77
$GLGSV,2,2,05,88,30,309,39,3*4C
$GLGSV,1,1,03,77,21,235,,79,04,341,,86,21,080,,0*44
$GAGSV,2,1,06,05,22,146,17,09,31,090,39,18,51,308,50,30,40,283,20,2*74
$GAGSV,2,2,06,34,52,301,40,36,54,044,40,2*76
$GAGSV,2,1,06,05,22,146,21,09,31,090,41,18,51,308,43,30,40,283,31,7*79
$GAGSV,2,2,06,34,52,301,46,36,54,044,36,7*74
$GAGSV,2,1,06,02,36,213,,04,10,040,,11,11,075,,15,08,272,,0*7E
$GAGSV,2,2,06,15,08,272,,25,05,175,,0*78
$GBGSV,2,1,07,07,66,218,20,10,66,252,29,11,40,087,42,13,43,252,17,1*78
$GBGSV,2,2,07,14,57,126,46,28,44,310,46,34,21,100,44,1*4E
$GBGSV,2,1,05,07,66,218,25,08,53,257,15,10,66,252,27,11,40,087,39,3*73
$GBGSV,2,2,05,14,57,126,46,3*41
$GBGSV,2,1,08,01,43,152,,02,28,236,,03,44,206,,04,35,132,,0*76
$GBGSV,2,2,08,04,35,132,,05,08,256,,21,13,038,,23,12,225,,0*7C
$GNRMC,043058.00,A,3727.0494422,N,12639.4339041,E,0.002,,220622,,,R,V*02
$GNVTG,,T,,M,0.002,N,0.003,K,D*39
$GNGNS,043058.00,3727.0494422,N,12639.4339041,E,RRRR,25,0.86,28.912,17.843,,4095,V*2B
$GNGGA,043058.00,3727.0494422,N,12639.4339041,E,4,12,0.86,28.912,M,17.843,M,,4095*7A
$GNGSA,A,3,12,17,09,19,03,06,04,14,,,,,1.55,0.86,1.29,1*04
$GNGSA,A,3,71,65,72,88,87,78,,,,,,,1.55,0.86,1.29,2*07
$GNGSA,A,3,34,09,36,30,05,,,,,,,,1.55,0.86,1.29,3*0B
$GNGSA,A,3,28,08,14,34,11,10,07,,,,,,1.55,0.86,1.29,4*07
$GPGSV,3,1,09,01,09,070,36,03,34,046,44,04,23,094,40,06,52,293,44,1*66
$GPGSV,3,2,09,09,22,130,24,12,11,322,40,14,28,188,18,17,76,076,48,1*68
$GPGSV,3,3,09,19,69,338,47,1*51
$GPGSV,2,1,08,01,09,070,32,03,34,046,37,04,23,094,44,06,52,293,38,6*6E
$GPGSV,2,2,08,09,22,130,14,12,11,322,33,14,28,188,15,17,76,076,41,6*6C
$GPGSV,2,1,06,02,13,272,,11,17,266,,20,06,222,,40,06,259,,0*69
$GPGSV,2,2,06,40,06,259,,41,27,238,,0*66
$GLGSV,2,1,06,65,27,166,18,71,29,040,33,72,53,103,46,78,26,295,22,1*7C
$GLGSV,2,2,06,87,54,008,38,88,30,309,41,1*7F
$GLGSV,2,1,05,65,27,166,12,71,29,040,33,72,53,103,40,78,26,295,24,3*77
$GLGSV,2,2,05,88,30,309,39,3*4C
$GLGSV,1,1,03,77,21,235,,79,04,341,,86,21,080,,0*44
$GAGSV,2,1,06,05,22,146,16,09,31,090,39,18,51,308,50,30,40,283,21,2*74
$GAGSV,2,2,06,34,52,301,40,36,54,044,40,2*76
$GAGSV,2,1,06,05,22,146,21,09,31,090,42,18,51,308,44,30,40,283,31,7*7D
$GAGSV,2,2,06,34,52,301,47,36,54,044,36,7*75
$GAGSV,2,1,06,02,36,213,,04,10,040,,11,11,075,,15,08,272,,0*7E
$GAGSV,2,2,06,15,08,272,,25,05,175,,0*78
$GBGSV,2,1,07,07,66,218,21,10,66,252,30,11,40,087,43,13,43,252,15,1*72
$GBGSV,2,2,07,14,57,126,48,28,44,310,47,34,21,100,46,1*43
$GNRMC,043059.00,A,3727.0494405,N,12639.4339001,E,0.011,,220622,,,R,V*00
$GNVTG,,T,,M,0.011,N,0.020,K,D*3A
$GNGNS,043059.00,3727.0494405,N,12639.4339001,E,RRRR,26,0.77,28.912,17.843,,4095,V*26
$GNGGA,043059.00,3727.0494405,N,12639.4339001,E,4,12,0.77,28.912,M,17.843,M,,4095*74
$GNGSA,A,3,12,17,09,19,03,06,04,14,,,,,1.51,0.77,1.30,1*06
$GNGSA,A,3,71,65,72,88,87,78,,,,,,,1.51,0.77,1.30,2*05
$GNGSA,A,3,34,09,36,30,05,,,,,,,,1.51,0.77,1.30,3*09
$GNGSA,A,3,28,08,14,34,11,13,10,07,,,,,1.51,0.77,1.30,4*07
$GPGSV,3,1,09,01,09,070,36,03,34,046,44,04,23,094,39,06,52,293,44,1*68
$GPGSV,3,2,09,09,22,130,24,12,11,322,42,14,28,188,17,17,76,076,48,1*65
$GPGSV,3,3,09,19,69,338,47,1*51
$GPGSV,2,1,08,01,09,070,31,03,34,046,38,04,23,094,44,06,52,293,38,6*62
$GPGSV,2,2,08,09,22,130,12,12,11,322,34,14,28,188,14,17,76,076,41,6*6C
$GPGSV,2,1,06,02,13,272,,11,17,266,,20,06,222,,40,06,259,,0*69
$GPGSV,2,2,06,40,06,259,,41,27,238,,0*66
$GLGSV,2,1,06,65,27,166,17,71,29,040,34,72,53,103,46,78,26,295,22,1*74
$GLGSV,2,2,06,87,54,008,39,88,30,309,42,1*7D
$GLGSV,2,1,05,65,27,166,11,71,29,040,32,72,53,103,40,78,26,295,24,3*75
$GLGSV,2,2,05,88,30,309,39,3*4C
$GLGSV,1,1,03,77,21,235,,79,04,341,,86,21,080,,0*44
$GAGSV,2,1,06,05,22,146,17,09,31,090,40,18,51,308,51,30,40,283,21,2*7A
$GAGSV,2,2,06,34,52,301,40,36,54,044,40,2*76
$GAGSV,2,1,06,05,22,146,21,09,31,090,42,18,51,308,44,30,40,283,30,7*7C
$GAGSV,2,2,06,34,52,301,47,36,54,044,36,7*75
$GAGSV,2,1,06,02,36,213,,04,10,040,,11,11,075,,15,08,272,,0*7E
$GAGSV,2,2,06,15,08,272,,25,04,175,,0*79
$GBGSV,2,1,07,07,66,218,21,10,66,252,29,11,40,087,43,13,43,252,16,1*79
$GBGSV,2,2,07,14,57,126,48,28,44,310,47,34,21,100,45,1*40
$GBGSV,2,1,06,03,44,206,28,07,66,218,25,08,53,257,17,10,66,252,26,3*7F
$GBGSV,2,2,06,11,40,087,38,14,57,126,45,3*71
$GBGSV,2,1,07,01,43,152,,02,28,236,,04,35,132,,05,08,256,,0*72
$GBGSV,2,2,07,05,08,256,,21,13,038,,23,12,225,,0*41
$GNRMC,043100.00,A,3727.0494419,N,12639.4338984,E,0.010,,220622,,,R,V*04
