$GNRMC,042837.00,A,3727.0471069,N,12639.4320399,E,0.049,,220622,,,F,V*17
$GNVTG,,T,,M,0.049,N,0.090,K,D*3C
$GNGNS,042837.00,3727.0471069,N,12639.4320399,E,FFFF,23,0.70,36.982,17.843,,4095,V*2C
$GNGGA,042837.00,3727.0471069,N,12639.4320399,E,5,12,0.70,36.982,M,17.843,M,,4095*7A
$GNGSA,A,3,17,09,19,03,06,04,,,,,,,1.36,0.70,1.16,1*02
$GNGSA,A,3,71,65,72,88,87,78,,,,,,,1.36,0.70,1.16,2*07
$GNGSA,A,3,34,09,36,05,,,,,,,,,1.36,0.70,1.16,3*08
$GNGSA,A,3,28,08,14,34,11,10,13,07,,,,,1.36,0.70,1.16,4*05
$GPGSV,2,1,08,01,10,069,22,03,35,046,40,04,23,095,42,06,51,291,40,1*60
$GPGSV,2,2,08,09,21,130,20,14,29,188,21,17,76,072,45,19,68,337,44,1*68
$GPGSV,2,1,06,01,10,069,30,03,35,046,35,04,23,095,39,06,51,291,35,6*66
$GPGSV,2,2,06,09,21,130,25,17,76,072,39,6*62
$GPGSV,2,1,07,02,13,271,,11,17,265,,12,11,322,,20,05,221,,0*64
$GPGSV,2,2,07,20,05,221,,40,06,259,,41,27,238,,0*51
$GLGSV,2,1,06,65,26,166,16,71,30,041,43,72,52,105,45,78,26,297,31,1*79
$GLGSV,2,2,06,87,54,006,49,88,29,308,44,1*7B
$GLGSV,2,1,06,65,26,166,13,71,30,041,23,72,52,105,38,78,26,297,25,3*77
$GLGSV,2,2,06,79,03,342,24,88,29,308,36,3*77
$GLGSV,1,1,02,77,22,236,,86,22,079,,0*7C
$GAGSV,1,1,04,09,31,092,45,18,48,307,49,34,52,300,39,36,55,042,43,2*72
$GAGSV,2,1,05,05,21,147,13,09,31,092,39,18,48,307,46,34,52,300,42,7*7F
$GAGSV,2,2,05,36,55,042,41,7*40
$GAGSV,2,1,07,02,37,213,,04,10,041,,11,12,074,,15,08,271,,0*7E
$GAGSV,2,2,07,15,08,271,,25,06,175,,27,05,328,,0*40
$GBGSV,2,1,07,07,67,218,21,10,66,253,25,11,41,086,45,13,43,251,13,1*75
$GBGSV,2,2,07,14,57,127,43,28,43,309,44,34,22,100,33,1*44
$GBGSV,2,1,08,07,67,218,27,08,53,256,16,10,66,253,25,11,41,086,49,3*7B
$GBGSV,2,2,08,13,43,251,08,14,57,127,40,28,43,309,08,34,22,100,08,3*71
$GNRMC,042838.00,A,3727.0471177,N,12639.4320363,E,0.015,,220622,,,F,V*1A
$GNVTG,,T,,M,0.015,N,0.028,K,D*36
$GNGNS,042838.00,3727.0471177,N,12639.4320363,E,FFFF,22,0.78,36.588,17.843,,4095,V*27
$GNGGA,042838.00,3727.0471177,N,12639.4320363,E,5,12,0.78,36.588,M,17.843,M,,4095*70
$GNGSA,A,3,17,09,19,03,06,04,,,,,,,1.42,0.78,1.19,1*06
$GNGSA,A,3,71,65,72,88,87,78,,,,,,,1.42,0.78,1.19,2*03
$GNGSA,A,3,34,09,36,05,,,,,,,,,1.42,0.78,1.19,3*0C
$GNGSA,A,3,28,08,14,34,11,10,13,07,,,,,1.42,0.78,1.19,4*01
$GPGSV,2,1,08,01,10,069,28,03,35,046,45,04,23,095,45,06,51,291,43,1*6B
$GPGSV,2,2,08,09,21,130,19,14,29,188,20,17,76,072,46,19,68,337,45,1*61
$GPGSV,2,1,06,01,10,069,30,03,35,046,38,04,23,095,40,06,51,291,34,6*64
$GPGSV,2,2,06,09,21,130,24,17,76,072,38,6*62
$GPGSV,2,1,07,02,13,271,,11,17,265,,12,11,322,,20,05,221,,0*64
$GPGSV,2,2,07,20,05,221,,40,06,259,,41,27,238,,0*51
$GLGSV,2,1,06,65,26,166,11,71,30,041,47,72,52,105,47,78,26,297,28,1*70
$GLGSV,2,2,06,87,54,006,50,88,29,308,48,1*7F
$GLGSV,2,1,06,65,26,166,13,71,30,041,34,72,52,105,38,78,26,297,26,3*72
$GLGSV,2,2,06,79,03,342,21,88,29,308,39,3*7D
$GLGSV,1,1,02,77,22,236,,86,22,079,,0*7C
$GAGSV,1,1,04,09,31,092,47,18,48,307,50,34,52,300,41,36,55,042,44,2*70
$GAGSV,2,1,05,05,21,147,09,09,31,092,43,18,48,307,47,34,52,300,44,7*7E
$GAGSV,2,2,05,36,55,042,43,7*42
$GAGSV,2,1,07,02,37,213,,04,10,041,,11,12,074,,15,08,271,,0*7E
$GAGSV,2,2,07,15,08,271,,25,06,175,,27,05,328,,0*40
$GBGSV,2,1,07,07,67,218,21,10,66,253,26,11,41,086,47,13,43,251,15,1*72
$GBGSV,2,2,07,14,57,127,45,28,43,309,46,34,22,100,37,1*44
$GBGSV,2,1,07,07,67,218,27,08,53,256,15,10,66,253,25,11,41,086,50,3*7F
$GBGSV,2,2,07,13,43,251,07,14,57,127,42,28,43,309,09,3*4C
$GBGSV,2,1,08,01,43,152,,02,28,236,,03,44,206,,04,35,132,,0*76
$GNRMC,042839.00,A,3727.0471287,N,12639.4320468,E,0.019,,220622,,,F,V*17
$GNVTG,,T,,M,0.019,N,0.036,K,D*35
$GNGNS,042839.00,3727.0471287,N,12639.4320468,E,FFFF,23,0.70,36.274,17.843,,4095,V*2B
$GNGGA,042839.00,3727.0471287,N,12639.4320468,E,5,12,0.70,36.274,M,17.843,M,,4095*7D
$GNGSA,A,3,14,17,09,19,03,06,04,,,,,,1.36,0.70,1.16,1*07
$GNGSA,A,3,71,65,72,88,87,78,,,,,,,1.36,0.70,1.16,2*07
$GNGSA,A,3,34,09,36,05,,,,,,,,,1.36,0.70,1.16,3*08
$GNGSA,A,3,28,08,14,34,11,10,13,07,,,,,1.36,0.70,1.16,4*05
$GPGSV,2,1,08,01,10,069,33,03,35,046,48,04,23,095,47,06,51,291,44,1*69
$GPGSV,2,2,08,09,21,130,19,14,29,188,23,17,76,072,49,19,68,337,48,1*60
$GPGSV,2,1,06,01,10,069,31,03,35,046,40,04,23,095,42,06,51,291,35,6*69
$GPGSV,2,2,06,09,21,130,25,17,76,072,40,6*6C
$GPGSV,2,1,07,02,13,271,,11,17,265,,12,11,322,,20,05,221,,0*64
$GPGSV,2,2,07,20,05,221,,40,06,259,,41,27,238,,0*51
$GLGSV,2,1,06,65,26,166,10,71,30,041,49,72,52,105,48,78,26,297,30,1*79
$GLGSV,2,2,06,87,54,006,51,88,29,308,49,1*7F
$GLGSV,2,1,05,65,26,166,09,71,30,041,33,72,52,105,39,78,26,297,24,3*7E
$GLGSV,2,2,05,88,29,308,38,3*44
$GLGSV,1,1,03,77,22,236,,79,03,342,,86,22,079,,0*45
$GAGSV,1,1,04,09,31,092,47,18,48,307,51,34,52,300,40,36,55,042,46,2*72
$GAGSV,2,1,05,05,21,147,12,09,31,092,44,18,48,307,49,34,52,300,45,7*7C
$GAGSV,2,2,05,36,55,042,45,7*44
$GAGSV,2,1,07,02,37,213,,04,10,041,,11,12,074,,15,08,271,,0*7E
$GAGSV,2,2,07,15,08,271,,25,06,175,,27,05,328,,0*40
$GBGSV,2,1,07,07,67,218,23,10,66,253,27,11,41,086,49,13,43,251,18,1*72
$GBGSV,2,2,07,14,57,127,46,28,43,309,49,34,22,100,40,1*48
$GBGSV,2,1,07,07,67,218,27,08,53,256,16,10,66,253,26,11,41,086,50,3*7F
$GBGSV,2,2,07,13,43,251,07,14,57,127,43,28,43,309,08,3*4C
$GBGSV,2,1,08,01,43,152,,02,28,236,,03,44,206,,04,35,132,,0*76
$GBGSV,2,2,08,04,35,132,,05,08,256,,21,13,039,,23,13,226,,0*7F
$GNRMC,042840.00,A,3727.0471360,N,12639.4320644,E,0.009,,220622,,,F,V*1C
$GNVTG,,T,,M,0.009,N,0.016,K,D*36
$GNGNS,042840.00,3727.0471360,N,12639.4320644,E,FFFF,24,0.70,35.966,17.843,,4095,V*2D
$GNGGA,042840.00,3727.0471360,N,12639.4320644,E,5,12,0.70,35.966,M,17.843,M,,4095*7C
$GNGSA,A,3,17,09,19,03,06,04,,,,,,,1.36,0.70,1.16,1*02
$GNGSA,A,3,71,65,72,88,87,78,,,,,,,1.36,0.70,1.16,2*07
$GNGSA,A,3,34,09,36,05,,,,,,,,,1.36,0.70,1.16,3*08
$GNGSA,A,3,28,08,14,34,11,10,13,07,,,,,1.36,0.70,1.16,4*05
$GPGSV,2,1,07,01,10,069,39,03,35,046,48,04,23,095,48,06,51,291,45,1*62
$GPGSV,2,2,07,09,21,130,16,17,76,072,49,19,68,337,48,1*5E
$GPGSV,2,1,06,01,10,069,26,03,35,046,40,04,23,095,43,06,51,291,35,6*6E
$GPGSV,2,2,06,09,21,130,26,17,76,072,40,6*6F
$GPGSV,2,1,08,02,13,271,,11,17,265,,12,11,322,,14,29,188,,0*62
$GPGSV,2,2,08,14,29,188,,20,05,221,,40,06,259,,41,27,238,,0*61
$GLGSV,2,1,06,65,26,166,10,71,30,041,48,72,52,105,48,78,26,297,32,1*7A
$GLGSV,2,2,06,87,54,006,51,88,29,308,49,1*7F
$GLGSV,2,1,05,65,26,166,11,71,30,041,33,72,52,105,39,78,26,297,21,3*72
$GLGSV,2,2,05,88,29,308,36,3*4A
$GLGSV,1,1,03,77,22,236,,79,03,342,,86,22,079,,0*45
$GAGSV,1,1,04,09,31,092,47,18,48,307,51,34,52,300,38,36,55,042,46,2*7D
$GAGSV,2,1,05,05,22,147,16,09,31,092,44,18,48,307,48,34,52,300,45,7*7A
$GAGSV,2,2,05,36,55,042,45,7*44
$GAGSV,2,1,07,02,37,213,,04,10,041,,11,12,074,,15,08,271,,0*7E
$GAGSV,2,2,07,15,08,271,,25,06,175,,27,05,328,,0*40
$GBGSV,2,1,07,07,67,218,23,10,66,253,27,11,41,086,49,13,43,251,19,1*73
$GBGSV,2,2,07,14,57,127,46,28,43,309,49,34,22,100,38,1*47
$GBGSV,2,1,06,07,67,218,27,08,53,256,16,10,66,253,26,11,41,086,51,3*7F
$GBGSV,2,2,06,14,57,127,44,28,43,309,07,3*71
$GBGSV,2,1,08,01,43,152,,02,28,236,,03,44,206,,04,35,132,,0*76
$GBGSV,2,2,08,04,35,132,,05,08,256,,21,13,039,,23,13,226,,0*7F
$GNRMC,042841.00,A,3727.0471529,N,12639.4320841,E,0.009,,220622,,,F,V*1D
$GNVTG,,T,,M,0.009,N,0.016,K,D*36
$GNGNS,042841.00,3727.0471529,N,12639.4320841,E,FFFF,22,0.78,35.673,17.843,,4095,V*29
$GNGGA,042841.00,3727.0471529,N,12639.4320841,E,5,12,0.78,35.673,M,17.843,M,,4095*7E
$GNGSA,A,3,17,09,19,03,06,04,,,,,,,1.42,0.78,1.19,1*06
$GNGSA,A,3,71,65,72,88,87,78,,,,,,,1.42,0.78,1.19,2*03
$GNGSA,A,3,34,09,36,05,,,,,,,,,1.42,0.78,1.19,3*0C
$GNGSA,A,3,28,08,14,34,11,10,13,07,,,,,1.42,0.78,1.19,4*01
$GPGSV,2,1,07,01,10,069,38,03,35,046,48,04,23,095,47,06,51,291,45,1*6C
$GPGSV,2,2,07,09,21,130,14,17,76,072,49,19,68,337,48,1*5C
$GPGSV,2,1,06,01,10,069,27,03,35,046,40,04,23,095,42,06,51,291,31,6*6A
$GPGSV,2,2,06,09,21,130,26,17,76,072,40,6*6F
$GPGSV,2,1,08,02,13,271,,11,17,265,,12,11,322,,14,29,188,,0*62
$GPGSV,2,2,08,14,29,188,,20,05,221,,40,06,259,,41,27,238,,0*61
$GLGSV,2,1,06,65,26,166,12,71,30,041,47,72,52,105,48,78,26,297,32,1*77
$GLGSV,2,2,06,87,54,006,50,88,29,308,49,1*7E
$GLGSV,2,1,05,65,26,166,13,71,30,041,34,72,52,105,39,78,26,297,21,3*77
$GLGSV,2,2,05,88,29,308,38,3*44
$GLGSV,1,1,03,77,22,236,,79,03,342,,86,22,079,,0*45
$GAGSV,1,1,04,09,31,091,47,18,48,307,51,34,52,300,40,36,55,042,45,2*72
$GAGSV,2,1,05,05,22,147,13,09,31,091,44,18,48,307,49,34,52,300,45,7*7D
$GAGSV,2,2,05,36,55,042,44,7*45
$GAGSV,2,1,07,02,37,213,,04,10,041,,11,12,074,,15,08,271,,0*7E
$GAGSV,2,2,07,15,08,271,,25,06,175,,27,05,328,,0*40
$GBGSV,2,1,07,07,67,218,22,10,66,253,27,11,41,086,48,13,43,251,19,1*73
$GBGSV,2,2,07,14,57,127,45,28,43,309,48,34,22,100,40,1*4A
$GBGSV,2,1,05,07,67,218,28,08,53,256,17,10,66,253,26,11,41,086,51,3*72
$GBGSV,2,2,05,14,57,127,44,3*42
$GBGSV,2,1,08,01,43,152,,02,28,236,,03,44,206,,04,35,132,,0*76
$GBGSV,2,2,08,04,35,132,,05,08,256,,21,13,039,,23,13,226,,0*7F
$GNRMC,042842.00,A,3727.0471751,N,12639.4320980,E,0.007,,220622,,,F,V*11
$GNVTG,,T,,M,0.007,N,0.012,K,D*3C
$GNGNS,042842.00,3727.0471751,N,12639.4320980,E,FFFF,22,0.70,35.368,17.843,,4095,V*2C
$GNGGA,042842.00,3727.0471751,N,12639.4320980,E,5,12,0.70,35.368,M,17.843,M,,4095*7B
$GNGSA,A,3,17,09,19,03,06,04,,,,,,,1.36,0.70,1.16,1*02
$GNGSA,A,3,71,65,72,88,87,78,,,,,,,1.36,0.70,1.16,2*07
$GNGSA,A,3,34,09,36,05,,,,,,,,,1.36,0.70,1.16,3*08
$GNGSA,A,3,28,08,14,34,11,10,13,07,,,,,1.36,0.70,1.16,4*05
$GPGSV,2,2,07,09,21,130,13,17,76,072,49,19,68,337,48,1*5B
$GPGSV,2,1,06,01,10,069,28,03,35,046,40,04,23,095,42,06,51,291,35,6*61
$GPGSV,2,2,06,09,21,130,26,17,76,072,40,6*6F
$GPGSV,2,1,08,02,13,271,,11,17,265,,12,11,322,,14,29,188,,0*62
$GPGSV,2,2,08,14,29,188,,20,05,221,,40,06,259,,41,27,238,,0*61
$GLGSV,2,1,06,65,26,166,08,71,30,041,47,72,52,105,48,78,26,297,36,1*78
$GLGSV,2,2,06,87,54,006,50,88,29,308,48,1*7F
$GLGSV,2,1,05,65,26,166,10,71,30,041,33,72,52,105,39,78,26,297,18,3*79
$GLGSV,2,2,05,88,29,308,36,3*4A
$GLGSV,1,1,03,77,22,236,,79,03,342,,86,22,079,,0*45
$GAGSV,2,1,05,05,22,147,18,09,31,091,47,18,48,307,51,34,52,300,39,2*72
$GAGSV,2,2,05,36,55,042,46,2*42
$GAGSV,2,1,05,05,22,147,14,09,31,091,43,18,48,307,48,34,52,300,45,7*7C
$GAGSV,2,2,05,36,55,042,45,7*44
$GAGSV,2,1,07,02,37,213,,04,10,041,,11,12,074,,15,08,271,,0*7E
$GAGSV,2,2,07,15,08,271,,25,06,175,,27,05,328,,0*40
$GBGSV,2,1,07,07,67,218,22,10,66,253,27,11,4$GBGSV,2,2,07,14,57,127,45,28,43,309,48,34,22,100,38,1*45
$GNRMC,042843.00,A,3727.0471959,N,12639.4320987,E,0.015,,220622,,,F,V*12
$GNVTG,,T,,M,0.015,N,0.027,K,D*39
$GNGNS,042843.00,3727.0471959,N,12639.4320987,E,FFFF,24,0.70,35.026,17.843,,4095,V*23
$GNGGA,042843.00,3727.0471959,N,12639.4320987,E,5,12,0.70,35.026,M,17.843,M,,4095*72
$GNGSA,A,3,17,09,19,03,06,04,,,,,,,1.36,0.70,1.16,1*02
$GNGSA,A,3,71,65,72,88,87,78,,,,,,,1.36,0.70,1.16,2*07
$GNGSA,A,3,34,09,36,05,,,,,,,,,1.36,0.70,1.16,3*08
$GNGSA,A,3,28,08,14,34,11,10,13,07,,,,,1.36,0.70,1.16,4*05
$GPGSV,2,1,07,01,10,069,37,03,35,046,48,04,23,095,47,06,51,291,44,1*62
$GPGSV,2,2,07,09,21,130,15,17,76,072,49,19,68,337,47,1*52
$GPGSV,2,1,06,01,10,069,29,03,35,046,40,04,23,095,42,06,51,291,34,6*61
$GPGSV,2,2,06,09,21,130,25,17,76,072,40,6*6C
$GPGSV,2,1,08,02,13,271,,11,17,265,,12,11,322,,14,29,188,,0*62
$GPGSV,2,2,08,14,29,188,,20,05,221,,40,06,259,,41,27,238,,0*61
$GLGSV,2,1,06,65,26,166,11,71,30,041,47,72,52,105,48,78,26,297,36,1*70
$GLGSV,2,2,06,87,54,006,50,88,29,308,47,1*70
$GLGSV,2,1,05,65,26,166,15,71,30,041,33,72,52,105,39,78,26,297,17,3*73
$GLGSV,2,2,05,88,29,308,37,3*4B
$GLGSV,1,1,03,77,22,236,,79,03,342,,86,22,079,,0*45
$GAGSV,1,1,04,09,31,091,47,18,48,307,51,34,52,300,39,36,55,042,46,2*7F
$GAGSV,2,1,05,05,22,147,11,09,31,091,44,18,48,307,48,34,52,300,45,7*7E
$GAGSV,2,2,05,36,55,042,44,7*45
$GAGSV,2,1,07,02,37,213,,04,10,041,,11,12,074,,15,08,271,,0*7E
$GAGSV,2,2,07,15,08,271,,25,06,175,,27,05,328,,0*40
$GBGSV,2,1,07,07,67,218,23,10,66,253,27,11,41,086,48,13,43,251,21,1*79
$GBGSV,2,2,07,14,57,127,45,28,43,309,48,34,22,100,40,1*4A
$GBGSV,2,1,05,07,67,218,28,08,53,256,16,10,66,253,26,11,41,086,51,3*73
$GBGSV,2,2,05,14,57,127,44,3*42
$GBGSV,2,1,08,01,43,152,,02,28,236,,03,44,206,,04,35,132,,0*76
$GBGSV,2,2,08,04,35,132,,05,08,256,,21,13,039,,23,13,226,,0*7F
$GNRMC,042844.00,A,3727.0472184,N,12639.4320913,E,0.013,,220622,,,F,V*15
$GNVTG,,T,,M,0.013,N,0.024,K,D*3C
$GNGNS,042844.00,3727.0472184,N,12639.4320913,E,FFFF,22,0.78,34.674,17.843,,4095,V*2C
$GNGGA,042844.00,3727.0472184,N,12639.4320913,E,5,12,0.78,34.674,M,17.843,M,,4095*7B
$GNGSA,A,3,17,09,19,03,06,04,,,,,,,1.42,0.78,1.19,1*06
$GNGSA,A,3,71,65,72,88,87,78,,,,,,,1.42,0.78,1.19,2*03
$GNGSA,A,3,34,09,36,05,,,,,,,,,1.42,0.78,1.19,3*0C
$GNGSA,A,3,28,08,14,34,11,10,13,07,,,,,1.42,0.78,1.19,4*01
$GPGSV,2,1,07,01,10,069,37,03,35,046,48,04,23,095,47,06,51,291,44,1*62
$GPGSV,2,2,07,09,21,130,14,17,76,072,49,19,68,337,48,1*5C
$GPGSV,2,1,06,01,10,069,29,03,35,046,40,04,23,095,42,06,51,291,34,6*61
$GPGSV,2,2,06,09,21,130,26,17,76,072,40,6*6F
$GPGSV,2,1,08,02,13,271,,11,17,265,,12,11,322,,14,29,188,,0*62
$GPGSV,2,2,08,14,29,188,,20,05,221,,40,06,259,,41,27,238,,0*61
$GLGSV,2,1,06,65,26,166,14,71,30,041,48,72,52,105,49,78,26,297,35,1*78
$GLGSV,2,2,06,87,54,006,49,88,29,308,48,1*77
$GLGSV,2,1,05,65,26,166,10,71,30,041,32,72,52,105,39,78,26,297,17,3*77
$GLGSV,2,2,05,88,29,308,38,3*44
$GLGSV,1,1,03,77,22,236,,79,03,342,,86,22,079,,0*45
$GAGSV,1,1,04,09,31,091,47,18,48,307,51,34,52,300,39,36,55,042,46,2*7F
$GAGSV,2,1,05,05,22,147,12,09,31,091,44,18,48,307,48,34,52,300,45,7*7D
$GAGSV,2,2,05,36,55,042,45,7*44
$GAGSV,2,1,07,02,37,213,,04,10,041,,11,12,074,,15,08,271,,0*7E
$GAGSV,2,2,07,15,08,271,,25,06,175,,27,05,328,,0*40
$GBGSV,2,1,07,07,67,218,22,10,66,253,27,11,41,086,48,13,43,251,20,1*79
$GBGSV,2,2,07,14,57,127,45,28,43,309,48,34,22,100,40,1*4A
$GBGSV,2,1,05,07,67,218,27,08,53,256,16,10,66,253,27,11,41,086,50,3*7C
$GBGSV,2,2,05,14,57,127,43,3*45
$GBGSV,2,1,08,01,43,152,,02,28,236,,03,44,206,,04,35,132,,0*76
$GBGSV,2,2,08,04,35,132,,05,08,256,,21,13,039,,23,13,226,,0*7F
$GNRMC,042845.00,A,3727.0472456,N,12639.4320825,E,0.023,,220622,,,F,V*19
$GNVTG,,T,,M,0.023,N,0.042,K,D*3F
$GNGNS,042845.00,3727.0472456,N,12639.4320825,E,FFFF,22,0.70,34.325,17.843,,4095,V*2A
$GNGGA,042845.00,3727.0472456,N,12639.4320825,E,5,12,0.70,34.325,M,17.843,M,,4095*7D
$GNGSA,A,3,17,09,19,03,06,04,,,,,,,1.36,0.70,1.16,1*02
$GNGSA,A,3,71,65,72,88,87,78,,,,,,,1.36,0.70,1.16,2*07
$GNGSA,A,3,34,09,36,05,,,,,,,,,1.36,0.70,1.16,3*08
$GNGSA,A,3,28,08,14,34,11,10,13,07,,,,,1.36,0.70,1.16,4*05
$GPGSV,2,1,07,01,10,069,37,03,35,046,48,04,23,095,46,06,51,291,44,1*63
$GPGSV,2,2,07,09,21,130,12,17,76,072,49,19,68,337,48,1*5A
$GPGSV,2,1,06,01,10,069,29,03,35,046,40,04,23,095,41,06,51,291,34,6*62
$GPGSV,2,2,06,09,21,130,25,17,76,072,40,6*6C
$GPGSV,2,1,08,02,13,271,,11,17,265,,12,11,322,,14,29,188,,0*62
$GPGSV,2,2,08,14,29,188,,20,05,221,,40,06,259,,41,27,238,,0*61
$GLGSV,2,1,06,65,26,166,08,71,30,041,47,72,52,105,49,78,26,297,31,1*7E
$GLGSV,2,2,06,87,54,006,49,88,29,308,48,1*77
$GLGSV,2,1,05,65,26,166,11,71,30,041,32,72,52,105,39,78,26,297,17,3*76
$GLGSV,2,2,05,88,29,308,38,3*44
$GLGSV,1,1,03,77,22,236,,79,03,342,,86,22,079,,0*45
$GAGSV,1,1,04,09,31,091,47,18,48,307,51,34,52,300,39,36,55,042,46,2*7F
$GAGSV,2,1,05,05,22,147,09,09,31,091,44,18,48,307,48,34,52,300,45,7*77
$GAGSV,2,2,05,36,55,042,45,7*44
$GAGSV,2,1,07,02,37,213,,04,10,041,,11,12,075,,15,08,271,,0*7F
$GAGSV,2,2,07,15,08,271,,25,06,175,,27,05,328,,0*40
$GBGSV,2,1,07,07,67,218,22,10,66,253,27,11,41,086,48,13,43,251,20,1*79
$GBGSV,2,2,07,14,57,127,45,28,43,309,47,34,22,100,40,1*45
$GBGSV,2,1,05,07,67,218,27,08,53,256,18,10,66,253,27,11,41,086,51,3*73
$GBGSV,2,2,05,14,57,127,43,3*45
$GBGSV,2,1,08,01,43,152,,02,28,236,,03,44,206,,04,35,132,,0*76
$GBGSV,2,2,08,04,35,132,,05,08,256,,21,13,039,,23,13,226,,0*7F
$GNRMC,042846.00,A,3727.0472735,N,12639.4320750,E,0.022,,220622,,,F,V*10
$GNVTG,,T,,M,0.022,N,0.040,K,D*3C
$GNGNS,042846.00,3727.0472735,N,12639.4320750,E,FFFF,24,0.70,33.992,17.843,,4095,V*25
$GNGGA,042846.00,3727.0472735,N,12639.4320750,E,5,12,0.70,33.992,M,17.843,M,,4095*74
$GNGSA,A,3,17,09,19,03,06,04,,,,,,,1.36,0.70,1.16,1*02
$GNGSA,A,3,71,65,72,88,87,78,,,,,,,1.36,0.70,1.16,2*07
$GNGSA,A,3,34,09,36,05,,,,,,,,,1.36,0.70,1.16,3*08
$GNGSA,A,3,28,08,14,34,11,10,13,07,,,,,1.36,0.70,1.16,4*05
$GPGSV,2,1,07,01,10,069,37,03,35,046,48,04,23,095,45,06,51,291,44,1*60
$GPGSV,2,2,07,09,21,130,10,17,76,072,49,19,68,337,48,1*58
$GPGSV,2,2,06,09,21,130,24,17,76,072,40,6*6D
$GPGSV,2,1,08,02,13,271,,11,17,265,,12,11,322,,14,29,188,,0*62
$GPGSV,2,2,08,14,29,188,,20,05,221,,40,06,259,,41,27,238,,0*61
$GLGSV,2,1,06,65,26,166,08,71,30,041,46,72,52,105,49,78,26,297,31,1*7F
$GLGSV,2,2,06,87,54,006,50,88,29,308,47,1*70
$GLGSV,2,1,05,65,26,166,11,71,30,041,32,72,52,105,39,78,26,297,19,3*78
$GLGSV,2,2,05,88,29,308,38,3*44
$GLGSV,1,1,03,77,22,236,,79,03,342,,86,22,079,,0*45
$GAGSV,1,1,04,09,31,091,47,18,48,307,51,34,52,300,39,36,55,042,46,2*7F
$GAGSV,2,1,05,05,22,147,08,09,31,091,43,18,48,307,49,34,52,300,45,7*70
$GAGSV,2,2,05,36,55,042,44,7*45
$GAGSV,2,1,07,02,37,213,,04,10,041,,11,12,075,,15,08,271,,0*7F
$GAGSV,2,2,07,15,08,271,,25,06,175,,27,05,328,,0*40
$GBGSV,2,1,07,07,67,218,21,10,66,253,27,11,41,086,48,13,43,251,19,1*70
$GBGSV,2,2,07,14,57,127,45,28,43,309,47,34,22,100,41,1*44
$GBGSV,2,1,05,07,67,218,27,08,53,256,18,10,66,253,27,11,41,086,51,3*73
$GBGS$GBGSV,2,1,08,01,43,152,,02,28,236,,03,44,206,,04,35,132,,0*76
$GBGSV,2,2,08,04,35,132,,05,08,256,,21,13,039,,23,13,226,,0*7F
$GNRMC,042847.00,A,3727.0472990,N,12639.4320734,E,0.006,,220622,,,F,V*14
$GNVTG,,T,,M,0.006,N,0.012,K,D*3D
$GNGNS,042847.00,3727.0472990,N,12639.4320734,E,FFFF,21,0.82,33.678,17.843,,4095,V*24
$GNGGA,042847.00,3727.0472990,N,12639.4320734,E,5,12,0.82,33.678,M,17.843,M,,4095*70
$GNGSA,A,3,17,09,19,03,06,04,,,,,,,1.51,0.82,1.26,1*0D
$GNGSA,A,3,71,65,72,88,87,78,,,,,,,1.51,0.82,1.26,2*08
$GNGSA,A,3,34,09,36,05,,,,,,,,,1.51,0.82,1.26,3*07
$GNGSA,A,3,28,08,14,34,11,10,13,07,,,,,1.51,0.82,1.26,4*0A
$GPGSV,2,1,07,01,10,069,37,03,35,046,48,04,23,095,46,06,51,291,43,1*64
$GPGSV,2,2,07,09,21,130,09,17,76,072,49,19,68,337,48,1*50
$GPGSV,2,1,06,01,10,069,30,03,35,046,40,04,23,095,42,06,51,291,35,6*68
$GPGSV,2,2,06,09,21,130,23,17,76,072,40,6*6A
$GPGSV,2,1,08,02,13,271,,11,17,265,,12,11,322,,14,29,188,,0*62
$GPGSV,2,2,08,14,29,188,,20,05,221,,40,06,259,,41,27,238,,0*61
$GLGSV,2,1,06,65,26,166,09,71,30,041,46,72,52,105,49,78,26,297,31,1*7E
$GLGSV,2,2,06,87,54,006,49,88,29,308,47,1*78
$GLGSV,2,1,05,65,26,166,11,71,30,041,31,72,52,105,39,78,26,297,19,3*7B
$GLGSV,2,2,05,88,29,308,38,3*44
$GLGSV,1,1,03,77,22,236,,79,03,342,,86,22,079,,0*45
$GAGSV,1,1,04,09,31,091,46,18,48,307,51,34,52,300,39,36,55,042,46,2*7E
$GAGSV,2,1,05,05,22,147,10,09,31,091,43,18,48,307,49,34,52,300,45,7*79
$GAGSV,2,2,05,36,55,042,45,7*44
$GAGSV,2,1,07,02,37,213,,04,10,041,,11,12,075,,15,08,271,,0*7F
$GAGSV,2,2,07,15,08,271,,25,06,175,,27,05,328,,0*40
$GBGSV,2,1,07,07,67,218,20,10,66,253,27,11,41,086,48,13,43,251,19,1*71
$GBGSV,2,2,07,14,57,127,45,28,43,309,47,34,22,100,41,1*44
$GBGSV,2,1,05,07,67,218,26,08,53,256,18,10,66,253,27,11,41,086,50,3*73
$GBGSV,2,2,05,14,57,127,43,3*45
$GBGSV,2,1,08,01,43,152,,02,28,236,,03,44,206,,04,35,132,,0*76
$GBGSV,2,2,08,04,35,132,,05,08,256,,21,13,039,,23,13,226,,0*7F
$GNRMC,042848.00,A,3727.0473157,N,12639.4320692,E,0.032,,220622,,,F,V*13
$GNVTG,,T,,M,0.032,N,0.059,K,D*35
$GNGNS,042848.00,3727.0473157,N,12639.4320692,E,FFFF,21,0.72,33.390,17.843,,4095,V*28
$GNGGA,042848.00,3727.0473157,N,12639.4320692,E,5,12,0.72,33.390,M,17.843,M,,4095*7C
$GNGSA,A,3,17,09,19,03,06,04,,,,,,,1.41,0.72,1.21,1*04
$GNGSA,A,3,71,65,72,88,87,78,,,,,,,1.41,0.72,1.21,2*01
$GNGSA,A,3,34,09,36,05,,,,,,,,,1.41,0.72,1.21,3*0E
$GNGSA,A,3,28,08,14,34,11,10,13,07,,,,,1.41,0.72,1.21,4*03
$GPGSV,2,1,07,01,10,069,37,03,35,046,48,04,23,095,45,06,51,291,44,1*60
$GPGSV,2,2,07,09,21,130,09,17,76,072,49,19,68,337,47,1*5F
$GPGSV,2,1,06,01,10,069,30,03,35,046,40,04,23,095,41,06,51,291,35,6*6B
$GPGSV,2,2,06,09,21,130,22,17,76,072,40,6*6B
$GPGSV,2,1,08,02,13,271,,11,17,265,,12,11,322,,14,29,188,,0*62
$GPGSV,2,2,08,14,29,188,,20,05,221,,40,06,259,,41,27,238,,0*61
$GLGSV,2,1,06,65,26,166,13,71,30,041,46,72,52,105,48,78,26,297,30,1*75
$GLGSV,2,2,06,87,54,006,49,88,29,308,47,1*78
$GLGSV,2,1,05,65,26,166,10,71,30,041,31,72,52,105,39,78,26,297,20,3*70
$GLGSV,2,2,05,88,29,308,38,3*44
$GLGSV,1,1,03,77,22,236,,79,03,342,,86,22,079,,0*45
$GAGSV,1,1,04,09,31,091,47,18,48,307,51,34,52,300,39,36,55,042,46,2*7F
$GAGSV,2,1,05,05,22,147,10,09,31,091,43,18,48,307,49,34,52,300,45,7*79
$GAGSV,2,2,05,36,55,042,44,7*45
$GAGSV,2,1,07,02,37,213,,04,10,041,,11,12,075,,15,08,271,,0*7F
$GAGSV,2,2,07,15,08,271,,25,06,175,,27,05,328,,0*40
$GBGSV,2,1,07,07,67,218,21,10,66,253,27,11,41,086,48,13,43,251,19,1*70
$GBGSV,2,2,07,14,57,127,45,28,43,309,47,34,22,100,42,1*47
$GBGSV,2,1,05,07,67,218,26,08,53,256,20,10,66,253,27,11,41,086,50,3*78
$GBGSV,2,2,05,14,57,127,43,3*45
$GBGSV,2,1,08,01,43,152,,02,28,236,,03,44,206,,04,35,132,,0*76
$GBGSV,2,2,08,04,35,132,,05,08,256,,21,13,039,,23,13,226,,0*7F
$GNRMC,042849.00,A,3727.0473210,N,12639.4320633,E,0.036,,220622,,,F,V*1D
$GNVTG,,T,,M,0.036,N,0.066,K,D*3D
$GNGNS,042849.00,3727.0473210,N,12639.4320633,E,FFFF,24,0.70,33.136,17.843,,4095,V*2B
$GNGGA,042849.00,3727.0473210,N,12639.4320633,E,5,12,0.70,33.136,M,17.843,M,,4095*7A
$GNGSA,A,3,17,09,19,03,06,04,,,,,,,1.36,0.70,1.16,1*02
$GNGSA,A,3,71,65,72,88,87,78,,,,,,,1.36,0.70,1.16,2*07
$GNGSA,A,3,34,09,36,05,,,,,,,,,1.36,0.70,1.16,3*08
$GNGSA,A,3,28,08,14,34,11,10,13,07,,,,,1.36,0.70,1.16,4*05
$GPGSV,2,1,07,01,10,069,38,03,35,046,48,04,23,095,45,06,51,291,44,1*6F
$GPGSV,2,2,07,09,21,130,12,17,76,072,49,19,68,337,48,1*5A
$GPGSV,2,1,06,01,10,069,30,03,35,046,40,04,23,095,41,06,51,291,35,6*6B
$GPGSV,2,2,06,09,21,130,23,17,76,072,40,6*6A
$GPGSV,2,1,08,02,13,271,,11,17,265,,12,11,322,,14,29,188,,0*62
$GPGSV,2,2,08,14,29,188,,20,05,221,,40,06,259,,41,27,238,,0*61
$GLGSV,2,1,06,65,26,166,13,71,30,041,47,72,52,105,48,78,26,297,30,1*74
$GLGSV,2,2,06,87,54,006,49,88,29,308,47,1*78
$GLGSV,2,1,05,65,26,166,13,71,30,041,30,72,52,105,39,78,26,297,19,3*78
$GLGSV,2,2,05,88,29,308,37,3*4B
$GLGSV,1,1,03,77,22,236,,79,03,342,,86,22,079,,0*45
$GAGSV,1,1,04,09,31,091,47,18,49,307,51,34,52,300,39,36,55,042,46,2*7E
$GAGSV,2,1,05,05,22,147,09,09,31,091,43,18,49,307,49,34,52,300,45,7*70
$GAGSV,2,2,05,36,55,042,44,7*45
$GAGSV,2,1,07,02,37,213,,04,10,041,,11,12,075,,15,08,271,,0*7F
$GAGSV,2,2,07,15,08,271,,25,06,175,,27,05,328,,0*40
$GBGSV,2,1,07,07,67,218,20,10,66,253,27,11,41,086,48,13,43,251,19,1*71
$GBGSV,2,2,07,14,57,127,44,28,43,309,47,34,22,100,42,1*46
$GBGSV,2,1,05,07,67,218,26,08,53,256,21,10,66,253,28,11,41,086,50,3*76
$GBGSV,2,2,05,14,57,127,43,3*45
$GBGSV,2,1,08,01,43,152,,02,28,236,,03,44,206,,04,35,132,,0*76
$GBGSV,2,2,08,04,35,132,,05,08,256,,21,13,039,,23,13,226,,0*7F
$GNRMC,042850.00,A,3727.0473323,N,12639.4320647,E,0.016,,220622,,,F,V*15
$GNVTG,,T,,M,0.016,N,0.029,K,D*34
$GNGNS,042850.00,3727.0473323,N,12639.4320647,E,FFFF,22,0.70,32.918,17.843,,4095,V*22
$GNGGA,042850.00,3727.0473323,N,12639.4320647,E,5,12,0.70,32.918,M,17.843,M,,4095*75
$GNGSA,A,3,17,09,19,03,06,04,,,,,,,1.36,0.70,1.16,1*02
$GNGSA,A,3,71,65,72,88,87,78,,,,,,,1.36,0.70,1.16,2*07
$GNGSA,A,3,34,09,36,05,,,,,,,,,1.36,0.70,1.16,3*08
$GNGSA,A,3,28,08,14,34,11,10,13,07,,,,,1.36,0.70,1.16,4*05
$GPGSV,2,1,07,01,10,069,38,03,35,046,48,04,23,095,45,06,51,291,43,1*68
$GPGSV,2,2,07,09,21,130,14,17,76,072,49,19,68,337,48,1*5C
$GPGSV,2,1,06,01,10,069,31,03,35,046,41,04,23,095,41,06,51,291,35,6*6B
$GPGSV,2,2,06,09,21,130,23,17,76,072,40,6*6A
$GPGSV,2,1,08,02,13,271,,11,17,265,,12,11,322,,14,29,188,,0*62
$GPGSV,2,2,08,14,29,188,,20,05,221,,40,06,259,,41,27,238,,0*61
$GLGSV,2,1,06,65,26,166,14,71,30,041,47,72,52,105,48,78,26,297,30,1*73
$GLGSV,2,2,06,87,54,006,49,88,29,308,47,1*78
$GLGSV,2,1,05,65,26,166,12,71,30,041,31,72,52,105,39,78,26,297,19,3*78
$GLGSV,2,2,05,88,29,308,38,3*44
$GLGSV,1,1,03,77,22,236,,79,03,342,,86,22,079,,0*45
$GAGSV,1,1,04,09,31,091,47,18,49,307,51,34,52,300,39,36,55,042,46,2*7E
$GAGSV,2,1,05,05,22,147,11,09,31,091,44,18,49,307,49,34,52,300,45,7*7E
$GAGSV,2,2,05,36,55,042,44,7*45
$GAGSV,2,1,07,02,37,213,,04,10,041,,11,12,075,,15,08,271,,0*7F
$GAGSV,2,2,07,15,08,271,,25,06,175,,27,05,328,,0*40
$GBGSV,2,1,07,07,67,218,20,10,66,253,26,11,41,086,48,13,43,251,19,1*70
$GBGSV,2,2,07,14,57,127,44,28,43,309,47,34,22,100,42,1*46
$GBGSV,2,1,05,07,67,218,24,08,53,256,22,10,66,253,28,11,41,086,50,3*77
$GBGSV,2,2,05,14,57,127,43,3*45
$GBGSV,2,1,08,01,43,152,,02,28,236,,03,44,206,,04,35,132,,0*76
$GBGSV,2,2,08,04,35,132,,05,08,256,,21,13,039,,23,13,226,,0*7F
$GNRMC,042851.00,A,3727.0473602,N,12639.4320697,E,0.016,,220622,,,F,V*1F
$GNVTG,,T,,M,0.016,N,0.030,K,D*3C
$GNGNS,042851.00,3727.0473602,N,12639.4320697,E,FFFF,22,0.75,32.699,17.843,,4095,V*2B
$GNGGA,042851.00,3727.0473602,N,12639.4320697,E,5,12,0.75,32.699,M,17.843,M,,4095*7C
$GNGSA,A,3,17,09,19,03,06,04,,,,,,,1.43,0.75,1.21,1*01
$GNGSA,A,3,71,65,72,88,87,78,,,,,,,1.43,0.75,1.21,2*04
$GNGSA,A,3,34,09,36,05,,,,,,,,,1.43,0.75,1.21,3*0B
$GNGSA,A,3,28,08,14,34,11,10,13,07,,,,,1.43,0.75,1.21,4*06
$GPGSV,2,1,07,01,10,069,38,03,35,046,47,04,23,095,44,06,51,291,44,1*61
$GPGSV,2,2,07,09,21,130,12,17,76,072,48,19,68,337,47,1*54
$GPGSV,2,1,06,01,10,069,31,03,35,046,41,04,23,095,41,06,51,291,35,6*6B
$GPGSV,2,2,06,09,21,130,22,17,76,072,40,6*6B
$GPGSV,2,1,08,02,13,271,,11,17,265,,12,11,322,,14,29,188,,0*62
$GPGSV,2,2,08,14,29,188,,20,05,221,,40,06,259,,41,27,238,,0*61
$GLGSV,2,1,06,65,26,166,14,71,30,041,47,72,52,105,48,78,26,297,30,1*73
$GLGSV,2,2,06,87,54,006,48,88,29,308,47,1*79
$GLGSV,2,1,05,65,26,166,12,71,30,041,32,72,52,105,38,78,26,297,20,3*70
$GLGSV,2,2,05,88,29,308,38,3*44
$GLGSV,1,1,03,77,22,236,,79,03,342,,86,22,079,,0*45
$GAGSV,2,1,05,02,37,213,22,09,31,091,47,18,49,307,51,34,52,300,39,2*7B
$GAGSV,2,2,05,36,55,042,45,2*41
$GAGSV,2,1,05,05,22,147,12,09,31,091,43,18,49,307,48,34,52,300,45,7*7B
$GAGSV,2,2,05,36,55,042,44,7*45
$GAGSV,2,1,06,04,10,041,,11,12,075,,15,08,271,,25,06,175,,0*7A
$GAGSV,2,2,06,25,06,175,,27,05,328,,0*79
$GBGSV,2,1,07,07,67,218,20,10,66,253,26,11,41,086,47,13,43,251,18,1*7E
$GBGSV,2,2,07,14,57,127,44,28,43,309,47,34,22,100,42,1*46
$GBGSV,2,1,05,07,67,218,25,08,53,256,22,10,66,253,27,11,41,086,50,3*79
$GBGSV,2,2,05,14,57,127,43,3*45
$GBGSV,2,1,08,01,43,152,,02,28,236,,03,44,206,,04,35,132,,0*76
$GBGSV,2,2,08,04,35,132,,05,08,256,,21,13,039,,23,13,226,,0*7F
$GNRMC,042852.00,A,3727.0474055,N,12639.4320723,E,0.047,,220622,,,F,V*15
$GNVTG,,T,,M,0.047,N,0.087,K,D*34
$GNGNS,042852.00,3727.0474055,N,12639.4320723,E,FFFF,24,0.75,32.466,17.843,,4095,V*21
$GNGGA,042852.00,3727.0474055,N,12639.4320723,E,5,12,0.75,32.466,M,17.843,M,,4095*70
$GNGSA,A,3,17,09,19,03,06,04,,,,,,,1.43,0.75,1.21,1*01
$GNGSA,A,3,71,65,72,88,87,78,,,,,,,1.43,0.75,1.21,2*04
$GNGSA,A,3,34,09,36,05,,,,,,,,,1.43,0.75,1.21,3*0B
$GNGSA,A,3,28,08,14,34,11,10,13,07,,,,,1.43,0.75,1.21,4*06
$GPGSV,2,2,07,09,21,130,09,17,76,072,47,19,68,337,46,1*50
$GPGSV,2,1,06,01,10,069,30,03,35,046,40,04,23,095,41,06,51,291,35,6*6B
$GPGSV,2,2,06,09,21,130,22,17,76,072,40,6*6B
$GPGSV,2,1,08,02,13,271,,11,17,265,,12,11,322,,14,29,188,,0*62
$GPGSV,2,2,08,14,29,188,,20,05,221,,40,06,259,,41,27,238,,0*61
$GLGSV,2,1,06,65,26,166,12,71,30,041,45,72,52,105,47,78,26,297,29,1*70
$GLGSV,2,2,06,87,54,006,47,88,29,308,45,1*74
$GLGSV,2,1,05,65,26,166,13,71,30,041,31,72,52,105,39,78,26,297,20,3*73
$GLGSV,2,2,05,88,29,308,38,3*44
$GLGSV,1,1,03,77,22,236,,79,03,342,,86,22,079,,0*45
$GAGSV,2,1,05,02,37,213,21,09,31,091,47,18,49,307,51,34,52,300,39,2*78
$GAGSV,2,2,05,36,55,042,46,2*42
$GAGSV,2,1,05,05,22,147,10,09,31,091,43,18,49,307,48,34,52,300,45,7*79
$GAGSV,2,2,05,36,55,042,44,7*45
$GAGSV,2,1,06,04,10,041,,11,12,075,,15,08,271,,25,06,175,,0*7A
$GAGSV,2,2,06,25,06,175,,27,05,328,,0*79
$GBGSV,2,1,07,07,67,218,20,10,66,253,26,11,41,086,47,13$GBGSV,2,2,07,14,57,127,44,28,43,309,47,34,22,100,41,1*45
$GBGSV,2,1,05,07,67,218,25,08,53,256,22,10,66,253,27,11,41,086,50,3*79
$GBGSV,2,2,05,14,57,127,43,3*45
$GBGSV,2,1,08,01,43,152,,02,28,236,,03,44,206,,04,35,132,,0*76
$GBGSV,2,2,08,04,35,132,,05,08,256,,21,13,039,,23,13,226,,0*7F
$GNRMC,042853.00,A,3727.0474450,N,12639.4320690,E,0.005,,220622,,,F,V*1A
$GNVTG,,T,,M,0.005,N,0.008,K,D*35
$GNGNS,042853.00,3727.0474450,N,12639.4320690,E,FFFF,22,0.78,32.226,17.843,,4095,V*21
$GNGGA,042853.00,3727.0474450,N,12639.4320690,E,5,12,0.78,32.226,M,17.843,M,,4095*76
$GNGSA,A,3,17,09,19,03,06,04,,,,,,,1.42,0.78,1.19,1*06
$GNGSA,A,3,71,65,72,88,87,78,,,,,,,1.42,0.78,1.19,2*03
$GNGSA,A,3,34,09,36,05,,,,,,,,,1.42,0.78,1.19,3*0C
$GNGSA,A,3,28,08,14,34,11,10,13,07,,,,,1.42,0.78,1.19,4*01
$GPGSV,2,1,07,01,10,069,37,03,35,046,46,04,23,095,43,06,51,291,43,1*6F
$GPGSV,2,2,07,09,21,130,08,17,76,072,48,19,68,337,46,1*5E
$GPGSV,2,1,06,01,10,069,30,03,35,046,40,04,23,095,41,06,51,291,35,6*6B
$GPGSV,2,2,06,09,21,130,21,17,76,072,40,6*68
$GPGSV,2,1,08,02,13,271,,11,17,265,,12,11,322,,14,29,188,,0*62
$GPGSV,2,2,08,14,29,188,,20,05,221,,40,06,259,,41,27,238,,0*61
$GLGSV,2,1,06,65,26,166,12,71,30,041,46,72,52,105,47,78,26,297,30,1*7B
$GLGSV,2,2,06,87,54,006,47,88,29,308,46,1*77
$GLGSV,2,1,05,65,26,166,11,71,30,041,30,72,52,105,38,78,26,297,21,3*70
$GLGSV,2,2,05,88,29,308,37,3*4B
$GLGSV,1,1,03,77,22,236,,79,03,342,,86,22,079,,0*45
$GAGSV,2,1,06,02,37,213,20,05,22,147,18,09,31,091,47,18,49,307,51,2*7D
$GAGSV,2,2,06,34,52,300,39,36,55,042,46,2*78
$GAGSV,2,1,05,05,22,147,08,09,31,091,43,18,49,307,48,34,52,300,45,7*70
$GAGSV,2,2,05,36,55,042,44,7*45
$GAGSV,2,1,06,04,10,041,,11,12,075,,15,08,271,,25,05,175,,0*79
$GAGSV,2,2,06,25,05,175,,27,05,328,,0*7A
$GBGSV,2,1,07,07,67,218,19,10,66,253,26,11,41,086,47,13,43,251,17,1*7B
$GBGSV,2,2,07,14,57,127,44,28,43,309,47,34,22,100,42,1*46
$GBGSV,2,1,05,07,67,218,25,08,53,256,22,10,66,253,27,11,41,086,50,3*79
$GBGSV,2,2,05,14,57,127,43,3*45
$GBGSV,2,1,08,01,43,152,,02,28,236,,03,44,206,,04,35,132,,0*76
$GBGSV,2,2,08,04,35,132,,05,08,256,,21,13,039,,23,13,226,,0*7F
$GNRMC,042854.00,A,3727.0474555,N,12639.4320591,E,0.026,,220622,,,F,V*1A
$GNVTG,,T,,M,0.026,N,0.049,K,D*31
$GNGNS,042854.00,3727.0474555,N,12639.4320591,E,FFFF,22,0.75,31.992,17.843,,4095,V*2A
$GNGGA,042854.00,3727.0474555,N,12639.4320591,E,5,12,0.75,31.992,M,17.843,M,,4095*7D
$GNGSA,A,3,17,09,19,03,06,04,,,,,,,1.43,0.75,1.21,1*01
$GNGSA,A,3,71,65,72,88,87,78,,,,,,,1.43,0.75,1.21,2*04
$GNGSA,A,3,34,09,36,02,05,,,,,,,,1.43,0.75,1.21,3*09
$GNGSA,A,3,28,08,14,34,11,10,13,07,,,,,1.43,0.75,1.21,4*06
$GPGSV,2,1,07,01,10,069,39,03,35,046,47,04,23,095,44,06,51,291,44,1*60
$GPGSV,2,2,07,09,21,130,13,17,76,072,48,19,68,337,47,1*55
$GPGSV,2,1,06,01,10,069,30,03,35,046,40,04,23,095,41,06,51,291,35,6*6B
$GPGSV,2,2,06,09,21,130,21,17,76,072,40,6*68
$GPGSV,2,1,08,02,13,271,,11,17,265,,12,11,322,,14,29,188,,0*62
$GPGSV,2,2,08,14,29,188,,20,05,221,,40,06,259,,41,27,238,,0*61
$GLGSV,2,1,06,65,26,166,09,71,30,041,47,72,52,105,47,78,26,297,29,1*78
$GLGSV,2,2,06,87,54,006,47,88,29,308,45,1*74
$GLGSV,2,1,05,65,26,166,13,71,30,041,30,72,52,105,38,78,26,297,21,3*72
$GLGSV,2,2,05,88,29,308,37,3*4B
$GLGSV,1,1,03,77,22,236,,79,03,342,,86,22,079,,0*45
$GAGSV,2,1,05,02,37,213,19,09,31,091,47,18,49,307,51,34,52,300,39,2*73
$GAGSV,2,2,05,36,55,042,46,2*42
$GAGSV,2,1,05,05,22,147,12,09,31,091,43,18,49,307,48,34,52,300,45,7*7B
$GAGSV,2,2,05,36,55,042,44,7*45
$GAGSV,2,1,06,04,10,041,,11,12,075,,15,08,271,,25,05,175,,0*79
$GAGSV,2,2,06,25,05,175,,27,05,328,,0*7A
$GBGSV,2,1,07,07,67,218,19,10,66,253,26,11,41,086,47,13,43,251,17,1*7B
$GBGSV,2,2,07,14,57,127,44,28,43,309,47,34,22,100,42,1*46
$GBGSV,2,1,05,07,67,218,25,08,53,256,21,10,66,253,27,11,41,086,50,3*7A
$GBGSV,2,2,05,14,57,127,42,3*44
$GBGSV,2,1,08,01,43,152,,02,28,236,,03,44,206,,04,35,132,,0*76
$GBGSV,2,2,08,04,35,132,,05,08,256,,21,13,039,,23,13,226,,0*7F
$GNRMC,042855.00,A,3727.0474608,N,12639.4320573,E,0.018,,220622,,,F,V*11
$GNVTG,,T,,M,0.018,N,0.032,K,D*30
$GNGNS,042855.00,3727.0474608,N,12639.4320573,E,FFFF,24,0.70,31.835,17.843,,4095,V*23
$GNGGA,042855.00,3727.0474608,N,12639.4320573,E,5,12,0.70,31.835,M,17.843,M,,4095*72
$GNGSA,A,3,17,09,19,03,06,04,,,,,,,1.36,0.70,1.16,1*02
$GNGSA,A,3,71,65,72,88,87,78,,,,,,,1.36,0.70,1.16,2*07
$GNGSA,A,3,34,09,36,02,05,,,,,,,,1.36,0.70,1.16,3*0A
$GNGSA,A,3,28,08,14,34,11,10,13,07,,,,,1.36,0.70,1.16,4*05
$GPGSV,2,1,07,01,10,069,39,03,35,046,47,04,23,095,43,06,51,291,43,1*60
$GPGSV,2,2,07,09,21,130,18,17,76,072,48,19,68,337,47,1*5E
$GPGSV,2,1,06,01,10,069,30,03,35,046,40,04,23,095,41,06,51,291,36,6*68
$GPGSV,2,2,06,09,21,130,19,17,76,072,40,6*63
$GPGSV,2,1,08,02,13,271,,11,17,265,,12,11,322,,14,29,188,,0*62
$GPGSV,2,2,08,14,29,188,,20,05,221,,40,06,259,,41,27,238,,0*61
$GLGSV,2,1,06,65,26,166,11,71,30,041,47,72,52,105,47,78,26,297,29,1*71
$GLGSV,2,2,06,87,54,006,47,88,29,308,45,1*74
$GLGSV,2,1,05,65,26,166,10,71,30,041,30,72,52,105,38,78,26,297,20,3*70
$GLGSV,2,2,05,88,29,308,37,3*4B
$GLGSV,1,1,03,77,22,236,,79,03,342,,86,22,079,,0*45
$GAGSV,2,1,05,02,37,213,19,09,31,091,47,18,49,307,51,34,52,301,39,2*72
$GAGSV,2,2,05,36,55,042,46,2*42
$GAGSV,2,1,05,05,22,147,07,09,31,091,43,18,49,307,48,34,52,301,45,7*7E
$GAGSV,2,2,05,36,55,042,44,7*45
$GAGSV,2,1,06,04,10,041,,11,12,075,,15,08,271,,25,05,175,,0*79
$GAGSV,2,2,06,25,05,175,,27,06,328,,0*79
$GBGSV,2,1,07,07,67,218,18,10,66,253,27,11,41,086,47,13,43,251,16,1*7A
$GBGSV,2,2,07,14,57,127,44,28,43,309,47,34,22,100,42,1*46
$GBGSV,2,1,05,07,67,218,25,08,53,256,20,10,66,253,26,11,41,086,50,3*7A
$GBGSV,2,2,05,14,57,127,42,3*44
$GBGSV,2,1,08,01,43,152,,02,28,236,,03,44,206,,04,35,132,,0*76
$GBGSV,2,2,08,04,35,132,,05,08,256,,21,13,039,,23,13,226,,0*7F
$GNRMC,042856.00,A,3727.0474526,N,12639.4320599,E,0.033,,220622,,,F,V*10
$GNVTG,,T,,M,0.033,N,0.061,K,D*3F
$GNGNS,042856.00,3727.0474526,N,12639.4320599,E,FFFF,22,0.72,31.695,17.843,,4095,V*2B
$GNGGA,042856.00,3727.0474526,N,12639.4320599,E,5,12,0.72,31.695,M,17.843,M,,4095*7C
$GNGSA,A,3,17,09,19,03,06,04,,,,,,,1.41,0.72,1.21,1*04
$GNGSA,A,3,71,65,72,88,87,78,,,,,,,1.41,0.72,1.21,2*01
$GNGSA,A,3,34,09,36,02,05,,,,,,,,1.41,0.72,1.21,3*0C
$GNGSA,A,3,28,08,14,34,11,10,13,07,,,,,1.41,0.72,1.21,4*03
$GPGSV,2,1,08,01,10,069,39,03,35,046,47,04,23,095,42,06,51,291,43,1*6E
$GPGSV,2,2,08,09,21,130,03,14,29,188,23,17,76,072,48,19,68,337,47,1*65
$GPGSV,2,1,06,01,10,069,30,03,35,046,40,04,23,095,40,06,51,291,35,6*6A
$GPGSV,2,2,06,09,21,130,19,17,76,072,40,6*63
$GPGSV,2,1,07,02,13,271,,11,17,265,,12,11,322,,20,05,221,,0*64
$GPGSV,2,2,07,20,05,221,,40,06,259,,41,27,238,,0*51
$GLGSV,2,1,06,65,26,166,14,71,30,041,47,72,52,105,48,78,26,297,30,1*73
$GLGSV,2,2,06,87,54,006,48,88,29,308,46,1*78
$GLGSV,2,1,05,65,26,166,13,71,30,041,30,72,52,105,38,78,26,297,20,3*73
$GLGSV,2,2,05,88,29,308,37,3*4B
$GLGSV,1,1,03,77,22,236,,79,03,342,,86,22,079,,0*45
$GAGSV,2,1,06,02,37,213,19,05,22,147,22,09,31,091,47,18,49,307,51,2*7E
$GAGSV,2,2,06,34,52,301,39,36,55,042,46,2*79
$GAGSV,2,1,05,05,22,147,09,09,31,091,43,18,49,307,48,34,52,301,45,7*70
$GAGSV,2,2,05,36,55,042,44,7*45
$GAGSV,2,1,06,04,10,041,,11,12,075,,15,08,271,,25,05,175,,0*79
$GAGSV,2,2,06,25,05,175,,27,06,328,,0*79
$GBGSV,2,1,07,07,67,218,18,10,66,253,26,11,41,086,47,13,43,251,16,1*7B
$GBGSV,2,2,07,14,57,127,44,28,43,309,47,34,22,100,43,1*47
$GBGSV,2,1,05,07,67,218,25,08,53,256,21,10,66,253,25,11,41,086,50,3*78
$GBGSV,2,2,05,14,57,127,42,3*44
$GBGSV,2,1,08,01,43,152,,02,28,236,,03,44,206,,04,35,132,,0*76
$GBGSV,2,2,08,04,35,132,,05,08,256,,21,13,039,,23,13,226,,0*7F
$GNRMC,042857.00,A,3727.0474463,N,12639.4320682,E,0.023,,220622,,,F,V*19
$GNVTG,,T,,M,0.023,N,0.042,K,D*3F
$GNGNS,042857.00,3727.0474463,N,12639.4320682,E,FFFF,21,0.79,31.555,17.843,,4095,V*24
$GNGGA,042857.00,3727.0474463,N,12639.4320682,E,5,12,0.79,31.555,M,17.843,M,,4095*70
$GNGSA,A,3,17,09,19,03,06,04,,,,,,,1.52,0.79,1.30,1*0D
$GNGSA,A,3,71,65,72,88,87,78,,,,,,,1.52,0.79,1.30,2*08
$GNGSA,A,3,34,09,36,02,05,,,,,,,,1.52,0.79,1.30,3*05
$GPGSV,2,1,08,01,10,069,40,03,35,046,47,04,23,095,43,06,51,291,43,1*61
$GPGSV,2,2,08,09,21,130,08,14,29,188,23,17,76,072,48,19,68,337,48,1*61
$GPGSV,2,1,06,01,10,069,30,03,35,046,40,04,23,095,41,06,51,291,36,6*68
$GPGSV,2,2,06,09,21,130,19,17,76,072,40,6*63
$GPGSV,2,1,07,02,13,271,,11,17,265,,12,11,322,,20,05,221,,0*64
$GPGSV,2,2,07,20,05,221,,40,06,259,,41,27,238,,0*51
$GLGSV,2,1,06,65,26,166,15,71,30,041,46,72,52,105,48,78,26,297,19,1*78
$GLGSV,2,2,06,87,54,006,48,88,29,308,46,1*78
$GLGSV,2,1,05,65,26,166,10,71,30,041,31,72,52,105,38,78,26,297,21,3*70
$GLGSV,2,2,05,88,29,308,37,3*4B
$GLGSV,1,1,03,77,22,236,,79,03,342,,86,22,079,,0*45
$GAGSV,2,1,05,02,37,213,19,09,31,091,47,18,49,307,51,34,52,301,39,2*72
$GAGSV,2,2,05,36,55,042,46,2*42
$GAGSV,2,1,05,05,22,147,12,09,31,091,44,18,49,307,48,34,52,301,45,7*7D
$GAGSV,2,2,05,36,55,042,44,7*45
$GAGSV,2,1,06,04,10,041,,11,12,075,,15,08,271,,25,05,175,,0*79
$GAGSV,2,2,06,25,05,175,,27,06,328,$GBGSV,2,1,07,07,67,218,17,10,66,253,27,11,41,086,47,13,43,251,16,1*75
$GBGSV,2,2,07,14,57,127,44,28,43,309,47,34,22,100,43,1*47
$GBGSV,2,1,05,07,67,218,25,08,53,256,22,10,66,253,26,11,41,086,50,3*78
$GBGSV,2,2,05,14,57,127,42,3*44
$GBGSV,2,1,08,01,43,152,,02,28,236,,03,44,206,,04,35,132,,0*76
$GBGSV,2,2,08,04,35,132,,05,08,256,,21,13,039,,23,13,226,,0*7F
$GNRMC,042858.00,A,3727.0474518,N,12639.4320775,E,0.004,,220622,,,F,V*17
$GNVTG,,T,,M,0.004,N,0.008,K,D*34
$GNGNS,042858.00,3727.0474518,N,12639.4320775,E,FFFF,25,0.70,31.425,17.843,,4095,V*24
$GNGGA,042858.00,3727.0474518,N,12639.4320775,E,5,12,0.70,31.425,M,17.843,M,,4095*74
$GNGSA,A,3,14,17,09,19,03,06,04,,,,,,1.36,0.70,1.16,1*07
$GNGSA,A,3,71,65,72,88,87,78,,,,,,,1.36,0.70,1.16,2*07
$GNGSA,A,3,34,09,36,02,05,,,,,,,,1.36,0.70,1.16,3*0A
$GNGSA,A,3,28,08,14,34,11,10,13,07,,,,,1.36,0.70,1.16,4*05
$GPGSV,2,2,08,09,21,130,11,14,29,188,23,17,76,072,48,19,68,337,47,1*66
$GPGSV,2,1,06,01,10,069,30,03,35,046,39,04,23,095,41,06,51,291,35,6*65
$GPGSV,2,2,06,09,21,130,18,17,76,072,40,6*62
$GPGSV,2,1,07,02,13,271,,11,17,265,,12,11,322,,20,05,221,,0*64
$GPGSV,2,2,07,20,05,221,,40,06,259,,41,27,238,,0*51
$GLGSV,2,1,06,65,26,166,12,71,30,041,47,72,52,105,49,78,26,297,21,1*74
$GLGSV,2,2,06,87,54,006,48,88,29,308,46,1*78
$GLGSV,2,1,05,65,26,166,10,71,30,041,30,72,52,105,38,78,26,297,22,3*72
$GLGSV,2,2,05,88,29,308,37,3*4B
$GLGSV,1,1,03,77,22,236,,79,03,342,,86,22,079,,0*45
$GAGSV,2,1,05,02,37,213,18,09,31,091,47,18,49,307,51,34,52,301,39,2*73
$GAGSV,2,2,05,36,55,042,47,2*43
$GAGSV,2,1,05,05,22,147,08,09,31,091,44,18,49,307,48,34,52,301,45,7*76
$GAGSV,2,2,05,36,55,042,44,7*45
$GAGSV,2,1,06,04,10,041,,11,12,075,,15,08,271,,25,05,175,,0*79
$GAGSV,2,2,06,25,05,175,,27,06,328,,0*79
$GBGSV,2,1,07,07,67,218,18,10,66,253,27,11,41,086,47,$GBGSV,2,2,07,14,57,127,45,28,43,309,47,34,22,100,43,1*46
$GBGSV,2,1,05,07,67,218,25,08,53,256,22,10,66,253,26,11,41,086,50,3*78
$GBGSV,2,2,05,14,57,127,42,3*44
$GBGSV,2,1,08,01,43,152,,02,28,236,,03,44,206,,04,35,132,,0*76
$GBGSV,2,2,08,04,35,132,,05,08,256,,21,13,039,,23,13,226,,0*7F
$GNRMC,042859.00,A,3727.0474766,N,12639.4320883,E,0.017,,220622,,,F,V*19
$GNVTG,,T,,M,0.017,N,0.031,K,D*3C
$GNGNS,042859.00,3727.0474766,N,12639.4320883,E,FFFF,24,0.88,31.316,17.843,,4095,V*29
$GNGGA,042859.00,3727.0474766,N,12639.4320883,E,5,12,0.88,31.316,M,17.843,M,,4095*78
$GNGSA,A,3,14,17,09,19,03,06,04,,,,,,1.57,0.88,1.29,1*0B
$GNGSA,A,3,71,65,72,88,87,78,,,,,,,1.57,0.88,1.29,2*0B
$GNGSA,A,3,34,09,36,02,05,,,,,,,,1.57,0.88,1.29,3*06
$GNGSA,A,3,28,08,14,34,11,10,13,07,,,,,1.57,0.88,1.29,4*09
$GPGSV,2,1,08,01,10,069,40,03,35,046,47,04,23,095,42,06,51,291,44,1*67
$GPGSV,2,2,08,09,21,130,16,14,29,188,23,17,76,072,49,19,68,337,47,1*60
$GPGSV,2,1,06,01,10,069,30,03,35,046,39,04,23,095,40,06,51,291,35,6*64
$GPGSV,2,2,06,09,21,130,19,17,76,072,40,6*63
$GPGSV,2,1,07,02,13,271,,11,17,265,,12,11,322,,20,05,221,,0*64
$GPGSV,2,2,07,20,05,221,,40,06,259,,41,27,238,,0*51
$GLGSV,2,1,06,65,26,166,17,71,30,041,46,72,52,105,49,78,26,297,23,1*72
$GLGSV,2,2,06,87,54,006,48,88,29,308,46,1*78
$GLGSV,2,1,05,65,26,166,12,71,30,041,32,72,52,105,38,78,26,297,22,3*72
$GLGSV,2,2,05,88,29,308,37,3*4B
$GLGSV,1,1,03,77,22,236,,79,03,342,,86,22,079,,0*45
$GAGSV,2,1,05,02,37,213,17,09,31,091,47,18,49,307,51,34,52,301,39,2*7C
$GAGSV,2,2,05,36,55,042,47,2*43
$GAGSV,2,1,05,05,22,147,11,09,31,091,44,18,49,307,48,34,52,301,46,7*7D
$GAGSV,2,2,05,36,55,042,44,7*45
$GAGSV,2,1,06,04,10,041,,11,12,075,,15,08,271,,25,05,175,,0*79
$GAGSV,2,2,06,25,05,175,,27,06,328,,0*79
$GBGSV,2,1,07,07,67,218,18,10,66,253,27,11,41,086,47,13,43,251,14,1*78
$GBGSV,2,2,07,14,57,127,45,28,43,309,47,34,22,100,43,1*46
$GBGSV,2,1,06,04,35,132,28,07,67,218,26,08,53,256,20,10,66,253,26,3*7C
$GBGSV,2,2,06,11,41,086,50,14,57,127,42,3*79
$GBGSV,2,1,07,01,43,152,,02,28,236,,03,44,206,,05,08,256,,0*77
$GBGSV,2,2,07,05,08,256,,21,13,039,,23,13,226,,0*42
$GNRMC,042900.00,A,3727.0475216,N,12639.4321022,E,0.017,,220622,,,F,V*15
$GNVTG,,T,,M,0.017,N,0.031,K,D*3C
$GNGNS,042900.00,3727.0475216,N,12639.4321022,E,FFFF,24,0.75,31.225,17.843,,4095,V*26
$GNGGA,042900.00,3727.0475216,N,12639.4321022,E,5,12,0.75,31.225,M,17.843,M,,4095*77
$GNGSA,A,3,14,17,09,19,03,06,04,,,,,,1.43,0.75,1.22,1*07
$GNGSA,A,3,71,65,72,88,87,78,,,,,,,1.43,0.75,1.22,2*07
$GNGSA,A,3,34,09,36,02,05,,,,,,,,1.43,0.75,1.22,3*0A
$GNGSA,A,3,04,28,08,14,34,11,10,13,07,,,,1.43,0.75,1.22,4*01
$GPGSV,2,1,08,01,10,069,41,03,35,046,46,04,23,095,42,06,51,291,44,1*67
$GPGSV,2,2,08,09,21,130,19,14,29,188,24,17,76,072,49,19,68,337,48,1*67
$GPGSV,2,1,06,01,10,069,31,03,35,046,39,04,23,095,40,06,51,291,35,6*65
$GPGSV,2,2,06,09,21,130,19,17,76,072,40,6*63
$GPGSV,2,1,07,02,13,271,,11,17,265,,12,11,322,,20,05,221,,0*64
$GPGSV,2,2,07,20,05,221,,40,06,259,,41,27,238,,0*51
$GLGSV,2,1,06,65,26,166,17,71,30,041,45,72,52,105,48,78,26,297,25,1*76
$GLGSV,2,2,06,87,54,006,48,88,29,308,46,1*78
$GLGSV,2,1,05,65,26,166,12,71,30,041,30,72,52,105,38,78,26,297,23,3*71
$GLGSV,2,2,05,88,29,308,36,3*4A
$GLGSV,1,1,03,77,22,236,,79,03,342,,86,22,079,,0*45
$GAGSV,2,1,05,02,37,213,18,09,31,091,47,18,49,307,51,34,52,301,39,2*73
$GAGSV,2,2,05,36,54,043,46,2*42
$GAGSV,2,1,05,05,22,147,12,09,31,091,44,18,49,307,48,34,52,301,46,7*7E
$GAGSV,2,2,05,36,54,043,44,7*45
$GAGSV,2,1,06,04,10,041,,11,12,075,,15,08,271,,25,05,175,,0*79
$GAGSV,2,2,06,25,05,175,,27,06,328,,0*79
$GBGSV,2,1,07,07,67,218,19,10,66,253,26,11,41,086,47,13,43,251,13,1*7F
$GBGSV,2,2,07,14,57,127,45,28,43,309,48,34,22,100,44,1*4E
$GBGSV,2,1,06,04,35,132,27,07,67,218,27,08,53,256,20,10,66,253,26,3*72
$GBGSV,2,2,06,11,41,086,49,14,57,127,42,3*71
$GBGSV,2,1,07,01,43,152,,02,28,236,,03,44,206,,05,08,256,,0*77
$GBGSV,2,2,07,05,08,256,,21,13,039,,23,13,226,,0*42
$GNRMC,042901.00,A,3727.0475715,N,12639.4321134,E,0.005,,220622,,,F,V*17
$GNVTG,,T,,M,0.005,N,0.010,K,D*3C
$GNGNS,042901.00,3727.0475715,N,12639.4321134,E,FFFF,25,0.75,31.134,17.843,,4095,V*25
$GNGGA,042901.00,3727.0475715,N,12639.4321134,E,5,12,0.75,31.134,M,17.843,M,,4095*75
$GNGSA,A,3,14,17,09,19,03,06,04,,,,,,1.43,0.75,1.22,1*07
$GNGSA,A,3,71,65,72,88,87,78,,,,,,,1.43,0.75,1.22,2*07
$GNGSA,A,3,34,09,36,02,05,,,,,,,,1.43,0.75,1.22,3*0A
$GNGSA,A,3,28,08,14,34,11,10,13,07,,,,,1.43,0.75,1.22,4*05
$GPGSV,2,1,08,01,10,069,42,03,35,046,45,04,23,095,42,06,51,291,44,1*67
$GPGSV,2,2,08,09,21,130,19,14,29,188,25,17,76,072,49,19,68,337,47,1*69
$GPGSV,2,1,06,01,10,069,31,03,35,046,39,04,23,095,40,06,51,291,35,6*65
$GPGSV,2,2,06,09,21,130,18,17,76,072,40,6*62
$GPGSV,2,1,07,02,13,271,,11,17,265,,12,11,322,,20,05,221,,0*64
$GPGSV,2,2,07,20,05,221,,40,06,259,,41,27,238,,0*51
$GLGSV,2,1,06,65,26,166,15,71,30,041,46,72,52,105,49,78,26,297,25,1*76
$GLGSV,2,2,06,87,54,006,48,88,29,308,46,1*78
$GLGSV,2,1,05,65,26,166,09,71,30,041,29,72,52,105,37,78,26,297,23,3*7C
$GLGSV,2,2,05,88,29,308,37,3*4B
$GLGSV,1,1,03,77,22,236,,79,03,342,,86,22,079,,0*45
$GAGSV,2,1,05,02,37,213,18,09,31,091,47,18,49,307,51,34,52,301,39,2*73
$GAGSV,2,2,05,36,54,043,47,2*43
$GAGSV,2,1,05,05,22,147,13,09,31,091,45,18,49,307,48,34,52,301,46,7*7E
$GAGSV,2,2,05,36,54,043,44,7*45
$GAGSV,2,1,06,04,10,041,,11,12,075,,15,08,271,,25,05,175,,0*79
$GAGSV,2,2,06,25,05,175,,27,06,328,,0*79
$GBGSV,2,1,07,07,67,218,18,10,66,253,26,11,41,086,46,13,43,251,14,1*78
$GBGSV,2,2,07,14,57,127,45,28,43,309,47,34,22,100,44,1*41
$GBGSV,2,1,05,07,67,218,27,08,53,256,20,10,66,253,26,11,41,086,50,3*78
$GBGSV,2,2,05,14,57,127,42,3*44
$GBGSV,2,1,08,01,43,152,,02,28,236,,03,44,206,,04,35,132,,0*76
$GBGSV,2,2,08,04,35,132,,05,08,256,,21,13,039,,23,13,226,,0*7F
$GNRMC,042902.00,A,3727.0476222,N,12639.4321212,E,0.017,,220622,,,F,V*12
$GNVTG,,T,,M,0.017,N,0.031,K,D*3C
$GNGNS,042902.00,3727.0476222,N,12639.4321212,E,FFFF,23,0.88,31.047,17.843,,4095,V*22
$GNGGA,042902.00,3727.0476222,N,12639.4321212,E,5,12,0.88,31.047,M,17.843,M,,4095*74
$GNGSA,A,3,14,17,09,19,03,06,04,,,,,,1.57,0.88,1.30,1*03
$GNGSA,A,3,71,65,72,88,87,78,,,,,,,1.57,0.88,1.30,2*03
$GNGSA,A,3,34,09,36,02,05,,,,,,,,1.57,0.88,1.30,3*0E
$GNGSA,A,3,28,08,14,34,11,10,13,07,,,,,1.57,0.88,1.30,4*01
$GPGSV,2,1,08,01,10,069,41,03,35,046,45,04,23,095,41,06,51,291,44,1*67
$GPGSV,2,2,08,09,21,130,19,14,29,188,25,17,76,072,49,19,68,337,48,1*66
$GPGSV,2,1,06,01,10,069,31,03,35,046,39,04,23,095,40,06,51,291,36,6*66
$GPGSV,2,2,06,09,21,130,19,17,76,072,40,6*63
$GPGSV,2,1,07,02,13,271,,11,17,265,,12,11,322,,20,05,221,,0*64
$GPGSV,2,2,07,20,05,221,,40,06,259,,41,27,238,,0*51
$GLGSV,2,1,06,65,26,166,09,71,30,041,47,72,52,105,49,78,26,297,25,1*7A
$GLGSV,2,2,06,87,54,006,48,88,29,308,45,1*7B
$GLGSV,2,1,05,65,26,166,10,71,30,041,28,72,52,105,37,78,26,297,25,3*73
$GLGSV,2,2,05,88,29,308,36,3*4A
$GLGSV,1,1,03,77,22,236,,79,03,342,,86,22,079,,0*45
$GAGSV,2,1,05,02,37,213,17,09,31,091,47,18,49,307,51,34,52,301,39,2*7C
$GAGSV,2,2,05,36,54,043,47,2*43
$GAGSV,2,1,05,05,22,147,13,09,31,091,45,18,49,307,48,34,52,301,46,7*7E
$GAGSV,2,2,05,36,54,043,44,7*45
$GAGSV,2,1,06,04,10,041,,11,12,075,,15,08,271,,25,05,175,,0*79
$GAGSV,2,2,06,25,05,175,,27,06,328,,0*79
$GBGSV,2,1,07,07,67,218,17,10,66,253,27,11,41,086,46,13,43,251,14,1*76
$GBGSV,2,2,07,14,57,127,45,28,43,309,48,34,22,100,44,1*4E
$GBGSV,2,1,05,07,67,218,27,08,53,256,21,10,66,253,25,11,41,086,50,3*7A
$GBGSV,2,2,05,14,57,127,42,3*44
$GBGSV,2,1,08,01,43,152,,02,28,236,,03,44,206,,04,35,132,,0*76
$GBGSV,2,2,08,04,35,132,,05,08,256,,21,13,039,,23,13,226,,0*7F
$GNRMC,042903.00,A,3727.0476702,N,12639.4321306,E,0.010,,220622,,,F,V*17
$GNVTG,,T,,M,0.010,N,0.018,K,D*30
$GNGNS,042903.00,3727.0476702,N,12639.4321306,E,FFFF,22,0.75,30.970,17.843,,4095,V*2F
$GNGGA,042903.00,3727.0476702,N,12639.4321306,E,5,12,0.75,30.970,M,17.843,M,,4095*78
$GNGSA,A,3,14,17,09,19,03,06,04,,,,,,1.43,0.75,1.22,1*07
$GNGSA,A,3,71,65,72,88,87,78,,,,,,,1.43,0.75,1.22,2*07
$GNGSA,A,3,34,09,36,02,05,,,,,,,,1.43,0.75,1.22,3*0A
$GNGSA,A,3,28,08,14,34,11,10,07,,,,,,1.43,0.75,1.22,4*07
$GPGSV,2,1,08,01,10,069,41,03,35,046,45,04,23,095,40,06,51,291,43,1*61
$GPGSV,2,2,08,09,21,130,20,14,29,188,25,17,76,072,49,19,68,337,48,1*6C
$GPGSV,2,1,06,01,10,069,31,03,35,046,40,04,23,095,40,06,51,291,36,6*68
$GPGSV,2,2,06,09,21,130,19,17,76,072,40,6*63
$GPGSV,2,1,07,02,13,271,,11,17,265,,12,11,322,,20,05,221,,0*64
$GPGSV,2,2,07,20,05,221,,40,06,259,,41,27,238,,0*51
$GLGSV,2,1,06,65,26,166,10,71,30,041,47,72,52,105,49,78,26,297,23,1*74
$GLGSV,2,2,06,87,54,006,48,88,29,308,45,1*7B
$GLGSV,2,1,05,65,26,166,11,71,30,041,27,72,52,105,37,78,26,297,26,3*7E
$GLGSV,2,2,05,88,29,308,36,3*4A
$GLGSV,1,1,03,77,22,236,,79,03,342,,86,22,079,,0*45
$GAGSV,2,1,05,02,37,213,17,09,31,091,47,18,49,307,51,34,52,301,39,2*7C
$GAGSV,2,2,05,36,54,043,47,2*43
$GAGSV,2,1,05,05,22,147,13,09,31,091,45,18,49,307,48,34,52,301,46,7*7E
$GAGSV,2,2,05,36,54,043,44,7*45
$GAGSV,2,1,06,04,10,041,,11,12,075,,15,08,271,,25,05,175,,0*79
$GAGSV,2,2,06,25,05,175,,27,06,328,,0*79
$GBGSV,2,1,07,07,67,218,17,10,66,253,27,11,41,086,46,13,43,251,10,1*72
$GBGSV,2,2,07,14,57,127,45,28,43,309,48,34,22,100,44,1*4E
$GBGSV,2,1,05,07,67,218,28,08,53,256,21,10,66,253,24,11,41,086,50,3*74
$GBGSV,2,2,05,14,57,127,42,3*44
$GBGSV,2,1,08,01,43,152,,02,28,236,,03,44,206,,04,35,132,,0*76
$GBGSV,2,2,08,04,35,132,,05,08,256,,21,13,039,,23,13,226,,0*7F
$GNRMC,042904.00,A,3727.0477133,N,12639.4321409,E,0.013,,220622,,,F,V*1E
$GNVTG,,T,,M,0.013,N,0.024,K,D*3C
$GNGNS,042904.00,3727.0477133,N,12639.4321409,E,FFFF,25,0.75,30.904,17.843,,4095,V*21
$GNGGA,042904.00,3727.0477133,N,12639.4321409,E,5,12,0.75,30.904,M,17.843,M,,4095*71
$GNGSA,A,3,14,17,09,19,03,06,04,,,,,,1.43,0.75,1.22,1*07
$GNGSA,A,3,71,65,72,88,87,78,,,,,,,1.43,0.75,1.22,2*07
$GNGSA,A,3,34,09,36,02,05,,,,,,,,1.43,0.75,1.22,3*0A
$GNGSA,A,3,28,08,14,34,11,10,13,07,,,,,1.43,0.75,1.22,4*05
$GPGSV,2,1,08,01,10,069,42,03,35,046,45,04,23,095,40,06,51,291,44,1*65
$GPGSV,2,2,08,09,21,130,21,14,29,188,25,17,76,072,49,19,68,337,48,1*6D
$GPGSV,2,1,06,01,10,069,32,03,35,046,40,04,23,095,40,06,51,291,36,6*6B
$GPGSV,2,2,06,09,21,130,17,17,76,072,40,6*6D
$GPGSV,2,1,07,02,13,271,,11,17,265,,12,11,322,,20,05,221,,0*64
$GPGSV,2,2,07,20,05,221,,40,06,259,,41,27,238,,0*51
$GLGSV,2,1,06,65,26,166,13,71,30,041,47,72,52,105,49,78,26,297,23,1*77
$GLGSV,2,2,06,87,54,006,48,88,29,308,46,1*78
$GLGSV,2,1,05,65,26,166,11,71,30,041,26,72,52,105,37,78,26,297,26,3*7F
$GLGSV,2,2,05,88,29,308,36,3*4A
$GLGSV,1,1,03,77,22,236,,79,03,342,,86,22,079,,0*45
$GAGSV,2,1,05,02,37,213,18,09,31,091,47,18,49,307,51,34,52,301,40,2*7D
$GAGSV,2,2,05,36,54,043,47,2*43
$GAGSV,2,1,05,05,22,147,15,09,31,091,45,18,49,307,49,34,52,301,46,7*79
$GAGSV,2,2,05,36,54,043,44,7*45
$GAGSV,2,1,06,04,10,041,,11,12,075,,15,08,271,,25,05,175,,0*79
$GAGSV,2,2,06,25,05,175,,27,06,328,,0*79
$GBGSV,2,1,07,07,67,218,16,10,66,253,27,11,41,086,46,13,43,251,08,1*7A
$GBGSV,2,2,07,14,57,127,45,28,43,309,48,34,22,100,44,1*4E
$GBGSV,2,1,05,07,67,218,28,08,53,256,21,10,66,253,24,11,41,086,49,3*7C
$GBGSV,2,2,05,14,57,127,42,3*44
$GBGSV,2,1,08,01,43,152,,02,28,236,,03,44,206,,04,35,132,,0*76
$GBGSV,2,2,08,04,35,132,,05,08,256,,21,13,039,,23,13,226,,0*7F
$GNRMC,042905.00,A,3727.0477491,N,12639.4321512,E,0.017,,220622,,,F,V*1D
$GNVTG,,T,,M,0.017,N,0.031,K,D*3C
$GNGNS,042905.00,3727.0477491,N,12639.4321512,E,FFFF,24,0.79,30.850,17.843,,4095,V*2B
$GNGGA,042905.00,3727.0477491,N,12639.4321512,E,5,12,0.79,30.850,M,17.843,M,,4095*7A
$GNGSA,A,3,14,17,09,19,03,06,04,,,,,,1.52,0.79,1.30,1*08
$GNGSA,A,3,71,65,72,88,87,78,,,,,,,1.52,0.79,1.30,2*08
$GNGSA,A,3,34,09,36,02,05,,,,,,,,1.52,0.79,1.30,3*05
$GNGSA,A,3,28,08,14,34,11,10,13,07,,,,,1.52,0.79,1.30,4*0A
$GPGSV,2,1,08,01,10,069,42,03,35,046,45,04,23,095,39,06,51,291,44,1*6B
$GPGSV,2,2,08,09,21,130,23,14,29,188,25,17,76,072,49,19,68,337,48,1*6F
$GPGSV,2,1,06,01,10,069,31,03,35,046,40,04,23,095,40,06,51,291,35,6*6B
$GPGSV,2,2,06,09,21,130,14,17,76,072,40,6*6E
$GPGSV,2,1,07,02,13,271,,11,17,265,,12,11,322,,20,05,221,,0*64
$GPGSV,2,2,07,20,05,221,,40,06,259,,41,27,238,,0*51
$GLGSV,2,1,06,65,26,166,15,71,30,041,47,72,52,105,49,78,26,297,22,1*70
$GLGSV,2,2,06,87,54,006,48,88,29,308,46,1*78
$GLGSV,2,1,05,65,26,166,14,71,30,041,26,72,52,105,37,78,26,297,26,3*7A
$GLGSV,2,2,05,88,29,308,36,3*4A
$GLGSV,1,1,03,77,22,236,,79,03,342,,86,22,079,,0*45
$GAGSV,2,1,05,02,37,213,18,09,31,091,47,18,49,307,51,34,52,301,39,2*73
$GAGSV,2,2,05,36,54,043,47,2*43
$GAGSV,2,1,05,05,22,147,11,09,31,091,45,18,49,307,48,34,52,301,46,7*7C
$GAGSV,2,2,05,36,54,043,44,7*45
$GAGSV,2,1,06,04,10,041,,11,12,075,,15,08,271,,25,05,175,,0*79
$GAGSV,2,2,06,25,05,175,,27,06,328,,0*79
$GBGSV,2,1,07,07,67,218,14,10,66,253,27,11,41,086,46,13,43,251,08,1*78
$GBGSV,2,2,07,14,57,127,45,28,43,309,48,34,22,100,45,1*4F
$GBGSV,2,1,05,07,67,218,27,08,53,256,21,10,66,253,23,11,41,086,49,3*74
$GBGSV,2,2,05,14,57,127,42,3*44
$GBGSV,2,1,08,01,43,152,,02,28,236,,03,44,206,,04,35,132,,0*76
$GBGSV,2,2,08,04,35,132,,05,08,256,,21,13,039,,23,13,226,,0*7F
$GNRMC,042906.00,A,3727.0477777,N,12639.4321585,E,0.025,,220622,,,F,V*1A
$GNVTG,,T,,M,0.025,N,0.046,K,D*3D
$GNGNS,042906.00,3727.0477777,N,12639.4321585,E,FFFF,23,0.70,30.805,17.843,,4095,V*23
$GNGGA,042906.00,3727.0477777,N,12639.4321585,E,5,12,0.70,30.805,M,17.843,M,,4095*75
$GNGSA,A,3,14,17,09,19,03,06,04,,,,,,1.36,0.70,1.17,1*06
$GNGSA,A,3,71,65,72,88,87,78,,,,,,,1.36,0.70,1.17,2*06
$GNGSA,A,3,34,09,36,02,05,,,,,,,,1.36,0.70,1.17,3*0B
$GNGSA,A,3,28,08,14,34,11,10,07,,,,,,1.36,0.70,1.17,4*06
$GPGSV,3,1,09,01,10,069,42,03,35,046,45,04,23,095,39,06,51,291,44,1*6B
$GPGSV,3,2,09,09,21,130,24,12,11,322,35,14,29,188,24,17,76,072,48,1*63
$GPGSV,3,3,09,19,68,337,48,1*50
$GPGSV,2,1,06,01,10,069,32,03,35,046,40,04,23,095,39,06,51,291,35,6*66
$GPGSV,2,2,06,09,21,130,12,17,76,072,40,6*68
$GPGSV,2,1,06,02,13,271,,11,17,265,,20,05,221,,40,06,259,,0*69
$GPGSV,2,2,06,40,06,259,,41,27,238,,0*66
$GLGSV,2,1,06,65,26,166,14,71,30,041,47,72,52,105,49,78,26,297,23,1*70
$GLGSV,2,2,06,87,54,006,48,88,29,308,46,1*78
$GLGSV,2,1,05,65,26,166,10,71,30,041,25,72,52,105,37,78,26,297,25,3*7E
$GLGSV,2,2,05,88,29,308,36,3*4A
$GLGSV,1,1,03,77,22,236,,79,03,342,,86,22,079,,0*45
$GAGSV,2,1,05,02,37,213,18,09,31,091,47,18,49,307,51,34,52,301,39,2*73
$GAGSV,2,2,05,36,54,043,47,2*43
$GAGSV,2,1,05,05,22,147,12,09,31,091,45,18,49,307,48,34,52,301,46,7*7F
$GAGSV,2,2,05,36,54,043,44,7*45
$GAGSV,2,1,06,04,10,041,,11,12,075,,15,08,271,,25,05,175,,0*79
$GAGSV,2,2,06,25,05,175,,27,06,328,,0*79
$GBGSV,2,1,06,07,67,218,15,10,66,253,27,11,41,086,46,14,57,127,45,1*71
$GBGSV,2,2,06,28,43,309,47,34,22,100,45,1*73
$GNRMC,042907.00,A,3727.0478062,N,12639.4321635,E,0.003,,220622,,,F,V*1B
$GNVTG,,T,,M,0.003,N,0.006,K,D*3D
$GNGNS,042907.00,3727.0478062,N,12639.4321635,E,FFFF,24,0.70,30.756,17.843,,4095,V*28
$GNGGA,042907.00,3727.0478062,N,12639.4321635,E,5,12,0.70,30.756,M,17.843,M,,4095*79
$GNGSA,A,3,14,17,09,19,03,06,04,,,,,,1.36,0.70,1.17,1*06
$GNGSA,A,3,71,65,72,88,87,78,,,,,,,1.36,0.70,1.17,2*06
$GNGSA,A,3,34,09,36,02,05,,,,,,,,1.36,0.70,1.17,3*0B
$GNGSA,A,3,28,08,14,34,11,10,07,,,,,,1.36,0.70,1.17,4*06
$GPGSV,3,1,09,01,10,069,42,03,35,046,45,04,23,095,39,06,51,291,44,1*6B
$GPGSV,3,2,09,09,21,130,24,12,11,322,35,14,29,188,23,17,76,072,48,1*64
$GPGSV,3,3,09,19,68,337,48,1*50
$GPGSV,2,1,06,01,10,069,32,03,35,046,40,04,23,095,40,06,51,291,35,6*68
$GPGSV,2,2,06,09,21,130,10,17,76,072,40,6*6A
$GPGSV,2,1,06,02,13,271,,11,17,265,,20,05,221,,40,06,259,,0*69
$GPGSV,2,2,06,40,06,259,,41,27,238,,0*66
$GLGSV,2,1,06,65,26,166,13,71,30,041,47,72,52,105,49,78,26,297,23,1*77
$GLGSV,2,2,06,87,54,006,48,88,29,308,45,1*7B
$GLGSV,2,1,05,65,26,166,13,71,30,041,25,72,52,105,37,78,26,297,25,3*7D
$GLGSV,2,2,05,88,29,308,37,3*4B
$GLGSV,1,1,03,77,22,236,,79,03,342,,86,22,079,,0*45
$GAGSV,2,1,05,02,37,213,18,09,31,091,46,18,49,307,51,34,52,301,39,2*72
$GAGSV,2,2,05,36,54,043,47,2*43
$GAGSV,2,1,05,05,22,147,14,09,31,091,45,18,49,307,48,34,52,301,46,7*79
$GAGSV,2,2,05,36,54,043,44,7*45
$GAGSV,2,1,06,04,10,041,,11,12,075,,15,08,271,,25,05,175,,0*79
$GAGSV,2,2,06,25,05,175,,27,06,328,,0*79
$GBGSV,2,1,06,07,66,218,16,10,66,253,27,11,41,086,46,14,57,127,45,1*73
$GBGSV,2,2,06,28,43,309,47,34,22,100,45,1*73
$GBGSV,2,1,05,07,66,218,26,08,53,256,22,10,66,253,24,11,41,086,49,3*70
$GBGSV,2,2,05,14,57,127,42,3*44
$GBGSV,3,1,09,01,43,152,,02,28,236,,03,44,206,,04,35,132,,0*76
$GBGSV,3,2,09,04,35,132,,05,08,256,,13,43,251,,21,13,039,,0*79
$GBGSV,3,3,09,21,13,039,,0*45
$GNRMC,042908.00,A,3727.0478343,N,12639.4321679,E,0.016,,220622,,,F,V*18
$GNVTG,,T,,M,0.016,N,0.030,K,D*3C
$GNGNS,042908.00,3727.0478343,N,12639.4321679,E,FFFF,24,0.70,30.698,17.843,,4095,V*2C
$GNGGA,042908.00,3727.0478343,N,12639.4321679,E,5,12,0.70,30.698,M,17.843,M,,4095*7D
$GNGSA,A,3,14,17,09,19,03,06,04,,,,,,1.36,0.70,1.17,1*06
$GNGSA,A,3,71,65,72,88,87,78,,,,,,,1.36,0.70,1.17,2*06
$GNGSA,A,3,34,09,36,02,05,,,,,,,,1.36,0.70,1.17,3*0B
$GNGSA,A,3,28,08,14,34,11,10,07,,,,,,1.36,0.70,1.17,4*06
$GPGSV,3,1,09,01,10,069,42,03,35,046,45,04,23,095,38,06,51,291,43,1*6D
$GPGSV,3,2,09,09,21,130,24,12,11,322,35,14,29,188,23,17,76,072,48,1*64
$GPGSV,3,3,09,19,68,337,48,1*50
$GPGSV,2,1,06,01,10,069,33,03,35,046,39,04,23,095,39,06,51,291,34,6*68
$GPGSV,2,2,06,09,21,130,11,17,76,072,40,6*6B
$GPGSV,2,1,06,02,13,271,,11,17,265,,20,05,221,,40,06,259,,0*69
$GPGSV,2,2,06,40,06,259,,41,27,238,,0*66
$GLGSV,2,1,06,65,26,166,11,71,30,041,47,72,52,105,49,78,26,297,22,1*74
$GLGSV,2,2,06,87,54,006,48,88,29,308,45,1*7B
$GLGSV,2,1,05,65,26,166,14,71,30,041,26,72,52,105,37,78,26,297,25,3*79
$GLGSV,2,2,05,88,29,308,37,3*4B
$GLGSV,1,1,03,77,22,236,,79,03,342,,86,22,079,,0*45
$GAGSV,2,1,05,02,37,213,19,09,31,091,47,18,49,307,51,34,52,301,40,2*7C
$GAGSV,2,2,05,36,54,043,47,2*43
$GAGSV,2,1,05,05,22,147,15,09,31,091,45,18,49,307,48,34,52,301,46,7*78
$GAGSV,2,2,05,36,54,043,44,7*45
$GAGSV,2,1,06,04,10,041,,11,12,075,,15,08,271,,25,05,175,,0*79
$GAGSV,2,2,06,25,05,175,,27,06,328,,0*79
$GBGSV,2,1,07,07,66,218,16,10,66,253,27,11,41,086,46,13,43,251,06,1*75
$GBGSV,2,2,07,14,57,127,45,28,43,309,47,34,22,100,45,1*40
$GBGSV,2,1,05,07,66,218,26,08,53,257,22,10,66,253,24,11,41,086,49,3*71
$GBGSV,2,2,05,14,57,127,42,3*44
$GBGSV,2,1,08,01,43,152,,02,28,236,,03,44,206,,04,35,132,,0*76
$GBGSV,2,2,08,04,35,132,,05,08,256,,21,13,039,,23,13,226,,0*7F
$GNRMC,042909.00,A,3727.0478684,N,12639.4321790,E,0.020,,220622,,,F,V*14
$GNVTG,,T,,M,0.020,N,0.038,K,D*31
$GNGNS,042909.00,3727.0478684,N,12639.4321790,E,FFFF,23,0.70,30.662,17.843,,4095,V*27
$GNGGA,042909.00,3727.0478684,N,12639.4321790,E,5,12,0.70,30.662,M,17.843,M,,4095*71
$GNGSA,A,3,14,17,09,19,03,06,04,,,,,,1.36,0.70,1.17,1*06
$GNGSA,A,3,71,65,72,88,87,78,,,,,,,1.36,0.70,1.17,2*06
$GNGSA,A,3,34,09,36,02,05,,,,,,,,1.36,0.70,1.17,3*0B
$GNGSA,A,3,28,08,14,34,11,10,07,,,,,,1.36,0.70,1.17,4*06
$GPGSV,3,1,09,01,10,069,42,03,35,046,45,04,23,095,37,06,51,291,43,1*62
$GPGSV,3,2,09,09,21,130,24,12,11,322,35,14,29,188,22,17,76,072,48,1*65
$GPGSV,3,3,09,19,68,337,48,1*50
$GPGSV,2,1,06,01,10,069,33,03,35,046,39,04,23,095,39,06,51,291,34,6*68
$GPGSV,2,2,06,09,21,130,11,17,76,072,40,6*6B
$GPGSV,2,1,06,02,13,271,,11,17,265,,20,05,221,,40,06,259,,0*69
$GPGSV,2,2,06,40,06,259,,41,27,238,,0*66
$GLGSV,2,1,06,65,26,166,12,71,30,041,47,72,52,105,49,78,26,297,21,1*74
$GLGSV,2,2,06,87,54,006,47,88,29,308,45,1*74
$GLGSV,2,1,05,65,26,166,13,71,30,041,25,72,52,105,36,78,26,297,25,3*7C
$GLGSV,2,2,05,88,29,308,37,3*4B
$GLGSV,1,1,03,77,22,236,,79,03,342,,86,22,079,,0*45
$GAGSV,2,1,05,02,37,213,18,09,31,091,47,18,49,307,51,34,52,301,39,2*73
$GAGSV,2,2,05,36,54,043,47,2*43
$GAGSV,2,1,05,05,22,147,15,09,31,091,45,18,49,307,48,34,52,301,46,7*78
$GAGSV,2,2,05,36,54,043,43,7*42
$GAGSV,2,1,06,04,10,041,,11,12,075,,15,08,271,,25,05,175,,0*79
$GAGSV,2,2,06,25,05,175,,27,06,328,,0*79
$GBGSV,2,1,07,07,66,218,18,10,66,253,27,11,41,086,46,13,43,251,08,1*75
$GBGSV,2,2,07,14,57,127,45,28,43,309,47,34,22,100,45,1*40
$GBGSV,2,1,05,07,66,218,26,08,53,257,21,10,66,253,24,11,41,086,49,3*72
$GBGSV,2,2,05,14,57,127,42,3*44
$GBGSV,2,1,08,01,43,152,,02,28,236,,03,44,206,,04,35,132,,0*76
$GBGSV,2,2,08,04,35,132,,05,08,256,,21,13,039,,23,13,226,,0*7F
$GNRMC,042910.00,A,3727.0479054,N,12639.4321889,E,0.012,,220622,,,F,V*10
$GNVTG,,T,,M,0.012,N,0.023,K,D*3A
$GNGNS,042910.00,3727.0479054,N,12639.4321889,E,FFFF,24,0.70,30.629,17.843,,4095,V*2A
$GNGGA,042910.00,3727.0479054,N,12639.4321889,E,5,12,0.70,30.629,M,17.843,M,,4095*7B
$GNGSA,A,3,14,17,09,19,03,06,04,,,,,,1.36,0.70,1.17,1*06
$GNGSA,A,3,71,65,72,88,87,78,,,,,,,1.36,0.70,1.17,2*06
$GNGSA,A,3,34,09,36,02,05,,,,,,,,1.36,0.70,1.17,3*0B
$GNGSA,A,3,28,08,14,34,11,10,07,,,,,,1.36,0.70,1.17,4*06
$GPGSV,3,1,09,01,10,069,42,03,35,046,45,04,23,095,35,06,51,291,43,1*60
$GPGSV,3,2,09,09,21,130,24,12,11,322,35,14,29,188,22,17,76,072,48,1*65
$GPGSV,3,3,09,19,68,337,48,1*50
$GPGSV,2,1,06,01,10,069,32,03,35,046,39,04,23,095,39,06,51,291,35,6*68
$GPGSV,2,2,06,09,21,130,12,17,76,072,39,6*66
$GPGSV,2,1,06,02,13,271,,11,17,265,,20,05,221,,40,06,259,,0*69
$GPGSV,2,2,06,40,06,259,,41,27,238,,0*66
$GLGSV,2,1,06,65,26,166,10,71,30,041,46,72,52,105,49,78,26,297,29,1*7F
$GLGSV,2,2,06,87,54,006,48,88,29,308,45,1*7B
$GLGSV,2,1,05,65,26,166,14,71,30,041,26,72,52,105,37,78,26,297,24,3*78
$GLGSV,2,2,05,88,29,308,37,3*4B
$GLGSV,1,1,03,77,22,236,,79,03,342,,86,22,079,,0*45
$GAGSV,2,1,05,02,37,213,18,09,31,091,47,18,49,307,51,34,52,301,39,2*73
$GAGSV,2,2,05,36,54,043,47,2*43
$GAGSV,2,1,06,02,37,213,15,05,22,147,16,09,31,091,45,18,49,307,48,7*7A
