$GNRMC,050525.00,A,3726.9520848,N,12639.1804952,E,0.011,,210622,,,R,V*03
$GNVTG,,T,,M,0.011,N,0.021,K,D*3B
$GNGNS,050525.00,3726.9520848,N,12639.1804952,E,RRRR,27,0.65,15.900,17.835,2.0,4095,V*04
$GNGGA,050525.00,3726.9520848,N,12639.1804952,E,4,12,0.65,15.900,M,17.835,M,2.0,4095*57
$GNGSA,A,3,17,03,19,20,04,06,14,09,,,,,1.20,0.65,1.01,1*00
$GNGSA,A,3,72,71,85,,,,,,,,,,1.20,0.65,1.01,2*0C
$GNGSA,A,3,15,03,08,21,13,,,,,,,,1.20,0.65,1.01,3*0D
$GNGSA,A,3,07,28,08,04,13,03,02,27,10,33,01,,1.20,0.65,1.01,4*03
$GPGSV,3,1,12,02,22,282,16,03,22,044,37,04,27,080,46,06,58,314,44,1*69
$GPGSV,3,2,12,09,31,118,43,12,20,314,09,14,15,184,30,17,67,115,44,1*61
$GPGSV,3,3,12,19,82,014,46,20,17,227,32,28,,,37,50,47,179,37,1*53
$GPGSV,2,1,07,03,22,044,36,04,27,080,40,06,58,314,37,09,31,118,38,6*6D
$GPGSV,2,2,07,11,26,277,17,14,15,184,38,17,67,115,39,6*5B
$GPGSV,1,1,01,01,01,079,,0*5A
$GLGSV,1,1,04,71,57,079,47,72,42,163,34,85,17,093,44,87,34,319,18,1*7E
$GLGSV,2,1,05,71,57,079,42,72,42,163,44,76,10,227,31,77,21,275,13,3*73
$GLGSV,2,2,05,85,17,093,38,3*45
$GLGSV,1,1,04,65,01,190,,70,19,031,,78,10,329,,86,51,051,,0*72
$GAGSV,2,1,05,03,24,056,44,08,38,116,40,13,65,004,44,15,30,073,39,2*7B
$GAGSV,2,2,05,21,37,245,35,2*41
$GAGSV,2,1,07,03,24,056,44,07,16,169,21,08,38,116,40,13,65,004,45,7*79
$GAGSV,2,2,07,15,30,073,46,18,19,126,43,21,37,245,30,7*41
$GAGSV,1,1,03,01,26,302,,26,30,289,,27,15,193,,0*4D
$GBGSV,3,1,11,01,43,152,35,02,28,236,30,03,44,206,39,04,35,132,38,1*7A
$GBGSV,3,2,11,07,59,215,37,08,54,270,29,10,61,243,38,13,45,263,41,1*70
$GBGSV,3,3,11,27,62,330,47,28,53,091,44,33,41,055,48,1*49
$GBGSV,2,1,07,01,43,152,41,03,44,206,39,04,35,132,38,07,59,215,45,3*7D
$GBGSV,2,2,07,08,54,270,30,10,61,243,43,13,45,263,42,3*4A
$GBGSV,2,1,05,05,08,256,,14,17,041,,15,33,192,,30,14,303,,0*73
$GBGSV,2,2,05,30,14,303,,0*44
$GNRMC,050526.00,A,3726.9520850,N,12639.1804936,E,0.011,,210622,,,R,V*0B
$GNVTG,,T,,M,0.011,N,0.020,K,D*3A
$GNGNS,050526.00,3726.9520850,N,12639.1804936,E,RRRR,27,0.65,15.905,17.835,2.0,4095,V*09
$GNGGA,050526.00,3726.9520850,N,12639.1804936,E,4,12,0.65,15.905,M,17.835,M,2.0,4095*5A
$GNGSA,A,3,17,03,19,20,04,06,14,09,,,,,1.20,0.65,1.01,1*00
$GNGSA,A,3,72,71,85,,,,,,,,,,1.20,0.65,1.01,2*0C
$GNGSA,A,3,15,03,08,21,13,,,,,,,,1.20,0.65,1.01,3*0D
$GNGSA,A,3,07,28,08,04,13,03,02,27,10,33,01,,1.20,0.65,1.01,4*03
$GPGSV,3,1,12,02,22,282,14,03,22,044,38,04,27,080,46,06,58,314,44,1*64
$GPGSV,3,2,12,09,31,118,43,12,20,314,09,14,15,184,24,17,67,115,44,1*64
$GPGSV,3,3,12,19,82,014,46,20,17,227,32,28,,,37,50,47,179,37,1*53
$GPGSV,2,1,07,03,22,044,36,04,27,080,39,06,58,314,36,09,31,118,37,6*6D
$GPGSV,2,2,07,11,26,277,16,14,15,184,36,17,67,115,38,6*55
$GPGSV,1,1,01,01,01,079,,0*5A
$GLGSV,1,1,04,71,57,079,47,72,42,163,34,85,17,093,44,87,34,320,18,1*74
$GLGSV,2,1,05,71,57,079,39,72,42,163,41,76,10,227,29,77,21,275,04,3*75
$GLGSV,2,2,05,85,17,093,35,3*48
$GLGSV,1,1,04,65,01,190,,70,19,031,,78,10,329,,86,51,051,,0*72
$GAGSV,2,1,05,03,24,056,44,08,38,116,41,13,65,004,45,15,30,073,40,2*75
$GAGSV,2,2,05,21,37,245,36,2*42
$GAGSV,2,1,07,03,24,056,44,07,16,169,21,08,38,116,40,13,65,004,45,7*79
$GAGSV,2,2,07,15,30,073,46,18,19,126,43,21,37,245,30,7*41
$GAGSV,1,1,03,01,26,302,,26,30,289,,27,15,193,,0*4D
$GBGSV,3,1,11,01,43,152,35,02,28,236,30,03,44,206,39,04,35,132,38,1*7A
$GBGSV,3,2,11,07,59,215,38,08,54,270,29,10,61,243,39,13,45,263,41,1*7E
$GBGSV,3,3,11,27,62,330,47,28,53,091,44,33,41,055,48,1*49
$GBGSV,2,1,07,01,43,152,41,03,44,206,38,04,35,132,37,07,59,215,44,3*72
$GBGSV,2,2,07,08,54,270,31,10,61,243,43,13,45,263,42,3*4B
$GBGSV,2,1,05,05,08,256,,14,17,041,,15,33,192,,30,14,303,,0*73
$GBGSV,2,2,05,30,14,303,,0*44
$GNRMC,050527.00,A,3726.9520854,N,12639.1804898,E,0.006,,210622,,,R,V*0D
$GNVTG,,T,,M,0.006,N,0.011,K,D*3E
$GNGNS,050527.00,3726.9520854,N,12639.1804898,E,RRRR,27,0.65,15.892,17.835,2.0,4095,V*06
$GNGGA,050527.00,3726.9520854,N,12639.1804898,E,4,12,0.65,15.892,M,17.835,M,2.0,4095*55
$GNGSA,A,3,17,03,19,20,04,06,14,09,,,,,1.20,0.65,1.01,1*00
$GNGSA,A,3,72,71,85,,,,,,,,,,1.20,0.65,1.01,2*0C
$GNGSA,A,3,15,03,08,21,13,,,,,,,,1.20,0.65,1.01,3*0D
$GNGSA,A,3,07,28,08,04,13,03,02,27,10,33,01,,1.20,0.65,1.01,4*03
$GPGSV,3,1,12,02,22,282,14,03,22,044,39,04,27,080,46,06,58,314,44,1*65
$GPGSV,3,2,12,09,31,118,43,12,20,314,08,14,15,184,25,17,67,115,44,1*64
$GPGSV,3,3,12,19,82,014,46,20,17,227,33,28,,,37,50,47,179,38,1*5D
$GPGSV,2,1,07,03,22,044,39,04,27,080,42,06,58,314,40,09,31,118,40,6*6F
$GPGSV,2,2,07,11,26,277,16,14,15,184,40,17,67,115,41,6*5A
$GPGSV,1,1,01,01,01,079,,0*5A
$GLGSV,1,1,04,71,57,079,47,72,42,163,35,85,17,093,44,87,34,320,17,1*7A
$GLGSV,2,1,05,71,57,079,44,72,42,163,45,76,10,227,31,77,21,275,07,3*71
$GLGSV,2,2,05,85,17,093,39,3*44
$GLGSV,1,1,04,65,01,190,,70,19,031,,78,10,329,,86,51,051,,0*72
$GAGSV,2,1,05,03,24,056,42,08,38,116,42,13,65,004,45,15,30,073,39,2*7E
$GAGSV,2,2,05,21,37,245,37,2*43
$GAGSV,2,1,07,03,24,056,43,07,16,169,20,08,38,116,40,13,65,004,45,7*7F
$GAGSV,2,2,07,15,30,073,47,18,19,126,42,21,37,245,30,7*41
$GAGSV,1,1,03,01,26,302,,26,30,289,,27,15,193,,0*4D
$GBGSV,3,1,11,01,43,152,35,02,28,236,30,03,44,206,39,04,35,132,38,1*7A
$GBGSV,3,2,11,07,59,215,38,08,54,270,29,10,61,243,39,13,45,263,42,1*7D
$GBGSV,3,3,11,27,62,330,47,28,53,091,44,33,41,055,48,1*49
$GBGSV,2,1,07,01,43,152,44,03,44,206,41,04,35,132,41,07,59,215,46,3*7A
$GBGSV,2,2,07,08,54,270,31,10,61,243,46,13,45,263,44,3*48
$GBGSV,2,1,05,05,08,256,,14,17,041,,15,33,192,,30,14,303,,0*73
$GBGSV,2,2,05,30,14,303,,0*44
$GNRMC,050528.00,A,3726.9520845,N,12639.1804900,E,0.020,,210622,,,R,V*06
$GNVTG,,T,,M,0.020,N,0.036,K,D*3F
$GNGNS,050528.00,3726.9520845,N,12639.1804900,E,RRRR,27,0.65,15.893,17.835,2.0,4095,V*08
$GNGGA,050528.00,3726.9520845,N,12639.1804900,E,4,12,0.65,15.893,M,17.835,M,2.0,4095*5B
$GNGSA,A,3,17,03,19,20,04,06,14,09,,,,,1.20,0.65,1.01,1*00
$GNGSA,A,3,72,71,85,,,,,,,,,,1.20,0.65,1.01,2*0C
$GNGSA,A,3,15,03,08,21,13,,,,,,,,1.20,0.65,1.01,3*0D
$GNGSA,A,3,07,28,08,04,13,03,02,27,10,33,01,,1.20,0.65,1.01,4*03
$GPGSV,3,1,12,02,22,282,13,03,22,044,39,04,27,080,47,06,58,314,44,1*63
$GPGSV,3,2,12,09,31,118,43,12,20,314,07,14,15,184,27,17,67,115,44,1*69
$GPGSV,3,3,12,19,82,014,46,20,17,227,32,28,,,37,50,47,179,38,1*5C
$GPGSV,2,1,07,03,22,044,41,04,27,080,41,06,58,314,39,09,31,118,39,6*63
$GPGSV,2,2,07,11,26,277,13,14,15,184,39,17,67,115,40,6*50
$GPGSV,1,1,01,01,01,079,,0*5A
$GLGSV,1,1,04,71,57,079,47,72,42,163,36,85,17,093,45,87,34,320,15,1*7A
$GLGSV,2,1,05,71,57,079,43,72,42,163,44,76,10,227,31,77,21,275,09,3*79
$GLGSV,2,2,05,85,17,093,38,3*45
$GLGSV,1,1,04,65,01,190,,70,19,031,,78,10,329,,86,51,051,,0*72
$GAGSV,2,1,05,03,24,056,42,08,38,116,42,13,65,004,45,15,30,073,42,2*72
$GAGSV,2,2,05,21,37,245,36,2*42
$GAGSV,2,1,07,03,24,056,44,07,16,169,18,08,38,116,40,13,65,004,45,7*73
$GAGSV,2,2,07,15,30,073,46,18,19,126,43,21,37,245,30,7*41
$GAGSV,1,1,03,01,26,302,,26,30,289,,27,15,193,,0*4D
$GBGSV,3,1,11,01,43,152,35,02,28,236,30,03,44,206,39,04,35,132,38,1*7A
$GBGSV,3,2,11,07,59,215,38,08,54,270,29,10,61,243,39,13,45,263,42,1*7D
$GBGSV,3,3,11,27,62,330,47,28,53,091,44,33,41,055,48,1*49
$GBGSV,2,1,07,01,43,152,43,03,44,206,41,04,35,132,40,07,59,215,46,3*7C
$GBGSV,2,2,07,08,54,270,32,10,61,243,45,13,45,263,44,3*48
$GBGSV,2,1,05,05,08,256,,14,17,041,,15,33,192,,30,14,303,,0*73
$GBGSV,2,2,05,30,14,303,,0*44
$GNRMC,050529.00,A,3726.9520846,N,12639.1804917,E,0.002,,210622,,,R,V*02
$GNVTG,,T,,M,0.002,N,0.004,K,D*3E
$GNGNS,050529.00,3726.9520846,N,12639.1804917,E,RRRR,27,0.65,15.898,17.835,2.0,4095,V*07
$GNGGA,050529.00,3726.9520846,N,12639.1804917,E,4,12,0.65,15.898,M,17.835,M,2.0,4095*54
$GNGSA,A,3,17,03,19,20,04,06,14,09,,,,,1.20,0.65,1.01,1*00
$GNGSA,A,3,72,71,85,,,,,,,,,,1.20,0.65,1.01,2*0C
$GNGSA,A,3,15,03,08,21,13,,,,,,,,1.20,0.65,1.01,3*0D
$GNGSA,A,3,07,28,08,04,13,03,02,27,10,33,01,,1.20,0.65,1.01,4*03
$GPGSV,3,1,12,02,22,282,12,03,22,044,39,04,27,080,46,06,58,314,44,1*63
$GPGSV,3,2,12,09,31,118,42,12,20,314,07,14,15,184,24,17,67,115,44,1*6B
$GPGSV,3,3,12,19,82,014,46,20,17,227,33,28,,,38,50,47,179,38,1*52
$GPGSV,2,1,07,03,22,044,41,04,27,080,42,06,58,314,38,09,31,118,40,6*6F
$GPGSV,2,2,07,11,26,277,12,14,15,184,39,17,67,115,40,6*51
$GPGSV,1,1,01,01,00,080,,0*5D
$GLGSV,2,1,05,71,57,079,47,72,42,163,35,76,10,227,26,85,17,093,43,1*73
$GLGSV,2,2,05,87,34,320,12,1*47
$GLGSV,2,1,05,71,57,079,43,72,42,163,44,76,10,227,30,77,21,275,11,3*71
$GLGSV,2,2,05,85,17,093,36,3*4B
$GLGSV,1,1,04,65,01,190,,70,19,031,,78,10,329,,86,51,051,,0*72
$GAGSV,2,1,05,03,24,056,43,08,38,116,40,13,65,004,45,15,30,073,42,2*71
$GAGSV,2,2,05,21,37,245,36,2*42
$GAGSV,2,1,07,03,24,056,44,07,16,169,19,08,38,116,40,13,65,004,45,7*72
$GAGSV,2,2,07,15,30,073,46,18,19,126,42,21,37,245,29,7*48
$GAGSV,1,1,03,01,26,302,,26,30,289,,27,15,193,,0*4D
$GBGSV,3,1,11,01,43,152,35,02,28,236,30,03,44,206,39,04,35,132,39,1*7B
$GBGSV,3,2,11,07,59,215,38,08,54,270,28,10,61,243,39,13,45,263,42,1*7C
$GBGSV,3,3,11,27,62,330,47,28,53,091,44,33,41,055,48,1*49
$GBGSV,2,1,08,01,43,152,43,03,44,206,41,04,35,132,39,07,59,215,46,3*7D
$GBGSV,2,2,08,08,54,270,32,10,61,243,45,13,45,263,44,33,41,055,17,3*74
$GBGSV,2,1,05,05,08,256,,14,17,041,,15,33,192,,30,14,303,,0*73
$GBGSV,2,2,05,30,14,303,,0*44
$GNRMC,050530.00,A,3726.9520809,N,12639.1804898,E,0.017,,210622,,,R,V*03
$GNVTG,,T,,M,0.017,N,0.031,K,D*3C
$GNGNS,050530.00,3726.9520809,N,12639.1804898,E,RRRR,27,0.65,15.886,17.835,2.0,4095,V*0D
$GNGGA,050530.00,3726.9520809,N,12639.1804898,E,4,12,0.65,15.886,M,17.835,M,2.0,4095*5E
$GNGSA,A,3,17,03,19,20,04,06,14,09,,,,,1.20,0.65,1.01,1*00
$GNGSA,A,3,72,71,85,,,,,,,,,,1.20,0.65,1.01,2*0C
$GNGSA,A,3,15,03,08,21,13,,,,,,,,1.20,0.65,1.01,3*0D
$GNGSA,A,3,07,28,08,04,13,03,02,27,10,33,01,,1.20,0.65,1.01,4*03
$GPGSV,3,1,11,02,22,282,10,03,22,044,39,04,27,080,46,06,58,314,44,1*62
$GPGSV,3,2,11,09,31,118,43,14,15,184,24,17,67,115,44,19,82,014,46,1*6C
$GPGSV,3,3,11,20,17,227,33,28,,,38,50,47,179,38,1*64
$GPGSV,2,1,07,03,22,044,41,04,27,080,41,06,58,314,39,09,31,118,40,6*6D
$GPGSV,2,2,07,11,26,277,10,14,15,184,38,17,67,115,40,6*52
$GPGSV,1,1,02,01,00,080,,12,20,314,,0*69
$GLGSV,2,1,05,71,57,079,48,72,42,163,35,76,10,227,29,85,17,093,46,1*76
$GLGSV,2,2,05,87,34,320,09,1*4D
$GLGSV,2,1,05,71,57,079,42,72,42,163,44,76,10,227,31,77,21,275,10,3*70
$GLGSV,2,2,05,85,17,093,38,3*45
$GLGSV,1,1,04,65,01,190,,70,19,031,,78,10,329,,86,51,051,,0*72
$GAGSV,2,1,05,03,24,056,43,08,38,116,41,13,65,004,45,15,30,073,40,2*72
$GAGSV,2,2,05,21,37,245,36,2*42
$GAGSV,2,1,07,03,24,056,43,07,16,169,18,08,38,116,41,13,65,004,45,7*75
$GAGSV,2,2,07,15,30,073,46,18,19,126,43,21,37,245,30,7*41
$GAGSV,1,1,03,01,26,302,,26,30,289,,27,15,193,,0*4D
$GBGSV,3,1,11,01,43,152,35,02,28,236,30,03,44,206,38,04,35,132,39,1*7A
$GBGSV,3,2,11,07,59,215,38,08,54,270,28,10,61,243,39,13,45,263,42,1*7C
$GBGSV,3,3,11,27,62,330,47,28,53,091,43,33,41,055,48,1*4E
$GBGSV,2,1,08,01,43,152,43,03,44,206,41,04,35,132,39,07,59,215,46,3*7D
$GBGSV,2,2,08,08,54,270,32,10,61,243,45,13,45,263,44,33,41,055,15,3*76
$GBGSV,2,1,05,05,08,256,,14,17,041,,15,33,192,,30,14,303,,0*73
$GBGSV,2,2,05,30,14,303,,0*44
$GNRMC,050531.00,A,3726.9520820,N,12639.1804930,E,0.005,,210622,,,R,V*09
$GNVTG,,T,,M,0.005,N,0.009,K,D*34
$GNGNS,050531.00,3726.9520820,N,12639.1804930,E,RRRR,27,0.65,15.895,17.835,2.0,4095,V*06
$GNGGA,050531.00,3726.9520820,N,12639.1804930,E,4,12,0.65,15.895,M,17.835,M,2.0,4095*55
$GNGSA,A,3,17,03,19,20,04,06,14,09,,,,,1.20,0.65,1.01,1*00
$GNGSA,A,3,72,71,85,,,,,,,,,,1.20,0.65,1.01,2*0C
$GNGSA,A,3,15,03,08,21,13,,,,,,,,1.20,0.65,1.01,3*0D
$GNGSA,A,3,07,28,08,04,13,03,02,27,10,33,01,,1.20,0.65,1.01,4*03
$GPGSV,3,1,12,02,22,282,10,03,22,044,40,04,27,080,45,06,58,314,44,1*6C
$GPGSV,3,2,12,09,31,118,42,14,15,184,26,17,67,115,44,19,82,014,46,1*6C
$GPGSV,3,3,12,20,17,227,32,28,,,38,42,43,151,27,50,47,179,38,1*57
$GPGSV,2,1,07,03,22,044,39,04,27,080,41,06,58,314,38,09,31,118,38,6*6C
$GPGSV,2,2,07,11,26,277,09,14,15,184,38,17,67,115,40,6*5A
$GPGSV,1,1,02,01,00,080,,12,20,314,,0*69
$GLGSV,2,1,05,71,57,079,48,72,42,163,32,76,10,227,30,85,17,093,43,1*7C
$GLGSV,2,2,05,87,34,320,07,1*43
$GLGSV,2,1,05,71,57,079,42,72,42,163,44,76,10,227,30,77,21,275,09,3*79
$GLGSV,2,2,05,85,17,093,37,3*4A
$GLGSV,1,1,04,65,01,190,,70,19,031,,78,10,329,,86,51,051,,0*72
$GAGSV,2,1,05,03,24,056,45,08,38,116,42,13,65,004,45,15,30,073,38,2*78
$GAGSV,2,2,05,21,37,245,36,2*42
$GAGSV,2,1,08,03,24,056,44,07,16,169,16,08,38,116,40,13,65,004,45,7*72
$GAGSV,2,2,08,15,30,073,47,18,19,126,43,21,37,245,29,26,30,289,19,7*7B
$GAGSV,1,1,02,01,26,302,,27,15,193,,0*78
$GBGSV,3,1,11,01,43,152,35,02,28,236,30,03,44,206,38,04,35,132,39,1*7A
$GBGSV,3,2,11,07,59,215,38,08,54,270,28,10,61,243,39,13,45,263,42,1*7C
$GBGSV,3,3,11,27,62,330,47,28,53,091,43,33,41,055,48,1*4E
$GBGSV,2,1,08,01,43,152,43,03,44,206,41,04,35,132,39,07,59,215,46,3*7D
$GBGSV,2,2,08,08,54,270,32,10,61,243,45,13,45,263,44,33,41,055,12,3*71
$GNRMC,050532.00,A,3726.9520868,N,12639.1804956,E,0.004,,210622,,,R,V*07
$GNVTG,,T,,M,0.004,N,0.007,K,D*3B
$GNGNS,050532.00,3726.9520868,N,12639.1804956,E,RRRR,27,0.65,15.900,17.835,2.0,4095,V*04
$GNGGA,050532.00,3726.9520868,N,12639.1804956,E,4,12,0.65,15.900,M,17.835,M,2.0,4095*57
$GNGSA,A,3,17,03,19,20,04,06,14,09,,,,,1.20,0.65,1.01,1*00
$GNGSA,A,3,72,71,85,,,,,,,,,,1.20,0.65,1.01,2*0C
$GNGSA,A,3,15,03,08,21,13,,,,,,,,1.20,0.65,1.01,3*0D
$GNGSA,A,3,07,28,08,04,13,03,02,27,10,33,01,,1.20,0.65,1.01,4*03
$GPGSV,3,1,11,02,22,282,11,03,22,044,38,04,27,079,46,06,58,314,44,1*64
$GPGSV,3,2,11,09,31,118,42,14,15,184,27,17,67,115,44,19,82,014,46,1*6E
$GPGSV,3,3,11,20,17,227,33,28,,,38,50,47,179,38,1*64
$GPGSV,1,1,01,19,82,014,14,5*53
$GPGSV,2,1,06,03,22,044,40,04,27,079,41,06,58,314,38,09,31,118,39,6*64
$GPGSV,2,2,06,14,15,184,38,17,67,115,40,6*64
$GPGSV,1,1,03,01,00,080,,11,26,277,,12,20,314,,0*5E
$GLGSV,2,1,05,71,57,079,48,72,42,163,33,76,10,227,31,85,17,093,44,1*7B
$GLGSV,2,2,05,87,34,320,10,1*45
$GLGSV,2,1,05,71,57,079,42,72,42,163,43,76,10,227,31,77,21,275,09,3*7F
$GLGSV,2,2,05,85,17,093,37,3*4A
$GLGSV,1,1,04,65,01,190,,70,19,031,,78,10,329,,86,51,051,,0*72
$GAGSV,2,1,05,03,24,056,44,08,38,116,41,13,65,004,45,15,30,073,39,2*7B
$GAGSV,2,2,05,21,37,245,36,2*42
$GAGSV,2,1,08,03,24,056,43,07,16,169,16,08,38,116,40,13,65,004,45,7*75
$GAGSV,2,2,08,15,30,073,47,18,19,126,43,21,37,245,30,26,30,289,17,7*7D
$GAGSV,1,1,02,01,26,302,,27,15,193,,0*78
$GBGSV,3,1,11,01,43,152,34,02,28,236,30,03,44,206,38,04,35,132,39,1*7B
$GBGSV,3,2,11,07,59,215,38,08,54,270,28,10,61,243,39,13,45,263,42,1*7C
$GBGSV,3,3,11,27,62,330,47,28,53,091,44,33,41,055,49,1*48
$GNRMC,050533.00,A,3726.9520836,N,12639.1804979,E,0.014,,210622,,,R,V*01
$GNVTG,,T,,M,0.014,N,0.025,K,D*3A
$GNGNS,050533.00,3726.9520836,N,12639.1804979,E,RRRR,27,0.65,15.915,17.835,1.0,4095,V*04
$GNGGA,050533.00,3726.9520836,N,12639.1804979,E,4,12,0.65,15.915,M,17.835,M,1.0,4095*57
$GNGSA,A,3,17,03,19,20,04,06,14,09,,,,,1.20,0.65,1.01,1*00
$GNGSA,A,3,72,71,85,,,,,,,,,,1.20,0.65,1.01,2*0C
$GNGSA,A,3,15,03,08,21,13,,,,,,,,1.20,0.65,1.01,3*0D
$GNGSA,A,3,07,28,08,04,13,03,02,27,10,33,01,,1.20,0.65,1.01,4*03
$GPGSV,3,1,10,03,22,044,39,04,27,079,46,06,58,314,44,09,31,118,43,1*6A
$GPGSV,3,2,10,14,15,184,28,17,67,115,44,19,82,014,46,20,17,227,32,1*67
$GPGSV,3,3,10,28,,,38,50,47,179,38,1*56
$GPGSV,1,1,01,19,82,014,11,5*56
$GPGSV,2,1,06,03,22,044,39,04,27,079,40,06,58,314,38,09,31,118,39,6*6B
$GPGSV,2,2,06,14,15,184,38,17,67,115,39,6*6A
$GPGSV,1,1,04,01,00,080,,02,22,282,,11,26,277,,12,20,314,,0*63
$GLGSV,2,1,05,71,57,079,48,72,42,163,33,76,10,227,32,85,17,093,46,1*7A
$GLGSV,2,2,05,87,34,320,08,1*4C
$GLGSV,2,1,05,71,57,079,42,72,42,163,44,76,10,227,31,77,21,275,13,3*73
$GLGSV,2,2,05,85,17,093,40,3*4A
$GLGSV,1,1,04,65,01,190,,70,19,031,,78,10,329,,86,51,051,,0*72
$GAGSV,2,1,05,03,24,056,44,08,38,116,42,13,65,004,45,15,30,073,39,2*78
$GAGSV,2,2,05,21,37,245,36,2*42
$GAGSV,2,1,06,03,24,056,43,08,38,116,41,13,65,004,45,15,30,073,46,7*72
$GAGSV,2,2,06,18,19,126,42,21,37,245,30,7*70
$GAGSV,1,1,04,01,26,302,,07,16,169,,26,30,289,,27,15,193,,0*74
$GBGSV,3,1,11,01,43,152,33,02,28,236,30,03,44,206,38,04,35,132,38,1*7D
$GBGSV,3,2,11,07,59,215,38,08,54,270,28,10,61,243,39,13,45,263,42,1*7C
$GBGSV,3,3,11,27,62,330,47,28,53,091,43,33,41,055,49,1*4F
$GBGSV,2,1,08,01,43,152,43,03,44,206,40,04,35,132,39,07,59,215,45,3*7F
$GBGSV,2,2,08,08,54,270,32,10,61,243,45,13,45,263,44,33,41,055,08,3*7A
$GBGSV,2,1,05,05,08,256,,14,17,041,,15,33,192,,30,14,303,,0*73
$GBGSV,2,2,05,30,14,303,,0*44
$GNRMC,050534.00,A,3726.9520835,N,12639.1804976,E,0.007,,210622,,,R,V*08
$GNVTG,,T,,M,0.007,N,0.013,K,D*3D
$GNGNS,050534.00,3726.9520835,N,12639.1804976,E,RRRR,27,0.65,15.914,17.835,2.0,4095,V*0D
$GNGGA,050534.00,3726.9520835,N,12639.1804976,E,4,12,0.65,15.914,M,17.835,M,2.0,4095*5E
$GNGSA,A,3,17,03,19,20,04,06,14,09,,,,,1.20,0.65,1.01,1*00
$GNGSA,A,3,72,71,85,,,,,,,,,,1.20,0.65,1.01,2*0C
$GNGSA,A,3,15,03,08,21,13,,,,,,,,1.20,0.65,1.01,3*0D
$GNGSA,A,3,07,28,08,04,13,03,02,27,10,33,01,,1.20,0.65,1.01,4*03
$GPGSV,3,1,10,03,22,044,38,04,27,079,46,06,59,316,44,09,31,118,42,1*69
$GPGSV,3,2,10,14,15,184,30,17,67,115,44,19,82,014,46,20,17,227,33,1*6F
$GPGSV,3,3,10,28,,,39,50,47,179,38,1*57
$GPGSV,2,1,07,03,22,044,40,04,27,079,40,06,59,316,38,09,31,118,38,6*66
$GPGSV,2,2,07,14,15,184,37,17,67,115,40,19,82,014,09,6*54
$GPGSV,1,1,04,01,00,080,,02,22,282,,11,26,277,,12,20,314,,0*63
$GLGSV,2,1,05,71,57,079,48,72,42,163,31,76,10,227,32,85,17,093,46,1*78
$GLGSV,2,2,05,87,34,320,10,1*45
$GLGSV,2,1,05,71,57,079,43,72,42,163,43,76,10,227,31,77,21,275,07,3*70
$GLGSV,2,2,05,85,17,093,39,3*44
$GLGSV,1,1,04,65,01,190,,70,19,031,,78,10,329,,86,51,051,,0*72
$GAGSV,2,1,05,03,24,056,44,08,38,116,42,13,65,004,45,15,30,073,39,2*78
$GAGSV,2,2,05,21,37,245,35,2*41
$GAGSV,2,1,07,03,24,056,43,08,38,116,41,13,65,004,45,15,30,073,47,7*72
$GAGSV,2,2,07,18,19,126,43,21,37,245,30,26,30,289,18,7*4D
$GAGSV,1,1,03,01,26,302,,07,16,169,,27,15,193,,0*47
$GBGSV,3,1,11,01,43,152,35,02,28,236,30,03,44,206,38,04,35,132,38,1*7B
$GBGSV,3,2,11,07,59,215,37,08,54,270,28,10,61,243,39,13,45,263,42,1*73
$GBGSV,3,3,11,27,62,330,47,28,53,091,44,33,41,055,49,1*48
$GBGSV,2,1,08,01,43,152,42,03,44,206,41,04,35,132,40,07,59,215,45,3*71
$GBGSV,2,2,08,08,54,270,31,10,61,243,44,13,45,263,44,33,41,055,08,3*78
$GBGSV,2,1,05,05,08,256,,14,17,041,,15,33,192,,30,14,303,,0*73
$GBGSV,2,2,05,30,14,303,,0*44
$GNRMC,050535.00,A,3726.9520871,N,12639.1804981,E,0.005,,210622,,,R,V*03
$GNVTG,,T,,M,0.005,N,0.010,K,D*3C
$GNGNS,050535.00,3726.9520871,N,12639.1804981,E,RRRR,27,0.65,15.912,17.835,2.0,4095,V*02
$GNGGA,050535.00,3726.9520871,N,12639.1804981,E,4,12,0.65,15.912,M,17.835,M,2.0,4095*51
$GNGSA,A,3,17,03,19,20,04,06,14,09,,,,,1.20,0.65,1.01,1*00
$GNGSA,A,3,72,71,85,,,,,,,,,,1.20,0.65,1.01,2*0C
$GNGSA,A,3,15,03,08,21,13,,,,,,,,1.20,0.65,1.01,3*0D
$GNGSA,A,3,07,28,08,04,13,03,02,27,10,33,01,,1.20,0.65,1.01,4*03
$GPGSV,3,1,10,03,22,044,38,04,27,079,46,06,59,316,44,09,31,118,41,1*6A
$GPGSV,3,2,10,14,15,184,30,17,67,115,45,19,82,014,46,20,17,227,33,1*6E
$GPGSV,3,3,10,28,,,39,50,47,179,38,1*57
$GPGSV,2,1,06,03,22,044,39,04,27,079,40,06,59,316,38,09,31,118,38,6*69
$GPGSV,2,2,06,14,15,184,36,17,67,115,39,6*64
$GPGSV,1,1,04,01,00,080,,02,22,282,,11,26,277,,12,20,314,,0*63
$GLGSV,2,1,05,71,57,079,48,72,42,163,31,76,10,227,32,85,17,093,45,1*7B
$GLGSV,2,2,05,87,34,320,10,1*45
$GLGSV,2,1,05,71,57,079,42,72,42,163,43,76,10,227,31,77,21,275,11,3*76
$GLGSV,2,2,05,85,17,093,39,3*44
$GLGSV,1,1,04,65,01,190,,70,19,031,,78,10,329,,86,51,051,,0*72
$GAGSV,2,1,05,03,24,056,44,08,38,116,42,13,65,004,45,15,30,073,39,2*78
$GAGSV,2,2,05,21,37,245,35,2*41
$GAGSV,2,1,07,03,24,056,43,08,38,116,41,13,65,004,45,15,30,073,46,7*73
$GAGSV,2,2,07,18,19,126,42,21,37,245,30,26,30,289,18,7*4C
$GAGSV,1,1,03,01,26,302,,07,16,169,,27,15,193,,0*47
$GBGSV,3,1,11,01,43,152,35,02,28,236,30,03,44,206,39,04,35,132,38,1*7A
$GBGSV,3,2,11,07,59,215,37,08,54,270,28,10,61,243,39,13,45,263,42,1*73
$GBGSV,3,3,11,27,62,330,47,28,53,091,44,33,41,055,49,1*48
$GBGSV,2,1,08,01,43,152,42,03,44,206,40,04,35,132,40,07,59,215,45,3*70
$GBGSV,2,2,08,08,54,270,31,10,61,243,45,13,45,263,44,33,41,055,08,3*79
$GBGSV,2,1,05,05,08,256,,14,17,041,,15,33,192,,30,14,303,,0*73
$GBGSV,2,2,05,30,14,303,,0*44
$GNRMC,050536.00,A,3726.9520808,N,12639.1804961,E,0.007,,210622,,,R,V*02
$GNVTG,,T,,M,0.007,N,0.013,K,D*3D
$GPGSV,3,1,10,03,22,044,38,04,27,079,46,06,59,316,44,09,31,118,42,1*69
$GPGSV,3,2,10,14,15,184,29,17,67,115,45,19,82,014,46,20,17,227,33,1*66
$GPGSV,3,3,10,28,,,39,50,47,179,38,1*57
$GPGSV,2,1,06,03,22,044,39,04,27,079,40,06,59,316,38,09,31,118,39,6*68
$GPGSV,2,2,06,14,15,184,36,17,67,115,40,6*6A
$GPGSV,1,1,04,01,00,080,,02,22,282,,11,26,277,,12,20,314,,0*63
$GLGSV,2,1,05,71,57,079,48,72,42,163,30,76,10,227,32,85,17,093,45,1*7A
$GLGSV,2,2,05,87,34,320,11,1*44
$GLGSV,2,2,05,85,17,093,36,3*4B
$GLGSV,1,1,04,65,01,190,,70,19,031,,78,10,329,,86,51,051,,0*72
$GAGSV,2,1,05,03,24,056,44,08,38,116,41,13,65,004,45,15,30,073,38,2*7A
$GAGSV,2,2,05,21,37,245,35,2*41
$GAGSV,2,1,07,03,24,056,43,08,38,116,41,13,65,004,45,15,30,073,46,7*73
$GAGSV,2,2,07,18,19,126,43,21,37,245,30,26,30,289,18,7*4D
$GAGSV,1,1,03,01,26,302,,07,16,169,,27,15,193,,0*47
$GBGSV,3,1,11,01,43,152,36,02,28,236,30,03,44,206,39,04,35,132,39,1*78
$GBGSV,3,2,11,07,59,215,37,08,54,270,28,10,61,243,39,13,45,263,41,1*70
$GBGSV,3,3,11,27,62,330,47,28,53,091,44,33,41,055,49,1*48
$GBGSV,2,1,08,01,43,152,42,03,44,206,40,04,35,132,39,07,59,215,45,3*7E
$GBGSV,2,2,08,08,54,270,32,10,61,243,44,13,45,263,43,33,41,055,08,3*7C
$GBGSV,2,1,05,05,08,256,,14,17,041,,15,33,192,,30,14,303,,0*73
$GBGSV,2,2,05,30,14,303,,0*44
$GNRMC,050537.00,A,3726.9520832,N,12639.1804959,E,0.005,,210622,,,R,V*03
$GNVTG,,T,,M,0.005,N,0.010,K,D*3C
$GNGNS,050537.00,3726.9520832,N,12639.1804959,E,RRRR,27,0.65,15.903,17.835,2.0,4095,V*02
$GNGGA,050537.00,3726.9520832,N,12639.1804959,E,4,12,0.65,15.903,M,17.835,M,2.0,4095*51
$GNGSA,A,3,17,03,19,20,04,06,14,09,,,,,1.20,0.65,1.01,1*00
$GNGSA,A,3,72,71,85,,,,,,,,,,1.20,0.65,1.01,2*0C
$GNGSA,A,3,15,03,08,21,13,,,,,,,,1.20,0.65,1.01,3*0D
$GNGSA,A,3,07,28,08,04,13,03,02,27,10,33,01,,1.20,0.65,1.01,4*03
$GPGSV,3,1,10,03,22,044,38,04,27,079,46,06,59,316,44,09,32,117,42,1*65
$GPGSV,3,2,10,14,15,184,28,17,67,115,45,19,82,014,46,20,17,227,32,1*66
$GPGSV,3,3,10,28,,,39,50,47,179,39,1*56
$GPGSV,2,1,06,03,22,044,39,04,27,079,40,06,59,316,38,09,32,117,38,6*65
$GPGSV,2,2,06,14,15,184,35,17,67,115,39,6*67
$GPGSV,1,1,04,01,00,080,,02,22,282,,11,26,277,,12,20,314,,0*63
$GLGSV,1,1,04,71,57,079,48,76,10,227,32,85,17,093,45,87,34,320,10,1*74
$GLGSV,2,1,05,71,57,079,41,72,42,163,41,76,10,227,30,77,21,275,07,3*71
$GLGSV,2,2,05,85,17,093,36,3*4B
$GLGSV,1,1,04,65,01,190,,70,19,031,,78,10,329,,86,51,051,,0*72
$GAGSV,2,1,05,03,24,056,44,08,38,116,41,13,65,004,45,15,30,073,38,2*7A
$GAGSV,2,2,05,21,37,245,35,2*41
$GAGSV,2,1,07,03,24,056,43,08,38,116,41,13,65,004,45,15,30,073,46,7*73
$GAGSV,2,2,07,18,19,126,43,21,37,245,29,26,30,289,18,7*45
$GNRMC,050538.00,A,3726.9520853,N,12639.1804960,E,0.008,,210622,,,R,V*0C
$GNVTG,,T,,M,0.008,N,0.015,K,D*34
$GNGNS,050538.00,3726.9520853,N,12639.1804960,E,RRRR,27,0.65,15.906,17.835,2.0,4095,V*05
$GNGGA,050538.00,3726.9520853,N,12639.1804960,E,4,12,0.65,15.906,M,17.835,M,2.0,4095*56
$GNGSA,A,3,17,03,19,20,04,06,14,09,,,,,1.20,0.65,1.01,1*00
$GNGSA,A,3,72,71,85,,,,,,,,,,1.20,0.65,1.01,2*0C
$GNGSA,A,3,15,03,08,21,13,,,,,,,,1.20,0.65,1.01,3*0D
$GNGSA,A,3,07,28,08,04,13,03,02,27,10,33,01,,1.20,0.65,1.01,4*03
$GPGSV,3,1,10,03,22,044,38,04,27,079,46,06,59,316,44,09,32,117,42,1*65
$GPGSV,3,2,10,14,15,184,28,17,67,115,45,19,82,014,46,20,17,227,32,1*66
$GPGSV,3,3,10,28,,,39,50,47,179,39,1*56
$GPGSV,2,1,06,03,22,044,39,04,27,079,40,06,59,316,38,09,32,117,38,6*65
$GPGSV,2,2,06,14,15,184,35,17,67,115,39,6*67
$GPGSV,1,1,04,01,00,080,,02,22,282,,11,26,277,,12,20,314,,0*63
$GLGSV,2,1,05,71,57,079,48,72,42,163,30,76,10,227,30,85,17,093,45,1*78
$GLGSV,2,2,05,87,34,320,11,1*44
$GLGSV,2,1,05,71,57,079,41,72,42,163,41,76,10,227,30,77,21,275,10,3*77
$GLGSV,2,2,05,85,17,093,36,3*4B
$GLGSV,1,1,04,65,01,190,,70,19,031,,78,10,329,,86,51,051,,0*72
$GAGSV,2,1,05,03,24,056,44,08,38,116,42,13,65,004,45,15,30,073,38,2*79
$GAGSV,2,2,05,21,37,245,35,2*41
$GAGSV,2,1,06,03,24,056,43,08,38,116,41,13,65,004,45,15,30,073,46,7*72
$GAGSV,2,2,06,18,19,126,43,21,37,245,29,7*79
$GAGSV,1,1,04,01,26,302,,07,16,169,,26,30,289,,27,15,193,,0*74
$GBGSV,3,1,11,01,43,152,35,02,28,236,30,03,44,206,38,04,35,132,39,1*7A
$GBGSV,3,2,11,07,59,215,38,08,54,270,28,10,61,243,39,13,45,263,41,1*7F
$GBGSV,3,3,11,27,62,330,47,28,53,091,44,33,41,055,49,1*48
$GBGSV,2,1,08,01,43,152,43,03,44,206,40,04,35,132,39,07,59,215,45,3*7F
$GBGSV,2,2,08,08,54,270,31,10,61,243,44,13,45,263,44,33,41,055,11,3*70
$GBGSV,2,1,05,05,08,256,,14,17,041,,15,33,192,,30,14,303,,0*73
$GNRMC,050539.00,A,3726.9520845,N,12639.1804953,E,0.015,,210622,,,R,V*06
$GNVTG,,T,,M,0.015,N,0.028,K,D*36
$GNGNS,050539.00,3726.9520845,N,12639.1804953,E,RRRR,27,0.65,15.907,17.835,2.0,4095,V*02
$GNGGA,050539.00,3726.9520845,N,12639.1804953,E,4,12,0.65,15.907,M,17.835,M,2.0,4095*51
$GNGSA,A,3,17,03,19,20,04,06,14,09,,,,,1.20,0.65,1.01,1*00
$GNGSA,A,3,72,71,85,,,,,,,,,,1.20,0.65,1.01,2*0C
$GNGSA,A,3,15,03,08,21,13,,,,,,,,1.20,0.65,1.01,3*0D
$GNGSA,A,3,07,28,08,04,13,03,02,27,10,33,01,,1.20,0.65,1.01,4*03
$GPGSV,3,1,10,03,22,044,38,04,27,079,46,06,59,316,44,09,32,117,41,1*66
$GPGSV,3,2,10,14,15,184,28,17,67,115,45,19,82,014,46,20,17,227,32,1*66
$GPGSV,3,3,10,28,,,39,50,47,179,38,1*57
$GPGSV,2,1,06,03,22,044,39,04,27,079,40,06,59,316,38,09,32,117,38,6*65
$GPGSV,2,2,06,14,15,184,35,17,67,115,39,6*67
$GPGSV,1,1,04,01,00,080,,02,22,282,,11,27,277,,12,20,314,,0*62
$GLGSV,2,1,05,71,57,079,48,72,42,163,31,76,10,227,29,85,17,093,45,1*71
$GLGSV,2,2,05,87,34,320,09,1*4D
$GLGSV,2,1,05,71,57,079,41,72,42,163,42,76,10,227,30,77,21,275,07,3*72
$GLGSV,2,2,05,85,17,093,36,3*4B
$GLGSV,1,1,04,65,01,190,,70,19,031,,78,10,329,,86,51,051,,0*72
$GAGSV,2,1,05,03,24,056,44,08,38,116,42,13,65,004,45,15,30,073,38,2*79
$GAGSV,2,2,05,21,37,245,35,2*41
$GAGSV,2,1,07,03,24,056,43,08,38,116,41,13,65,004,45,15,30,073,46,7*73
$GAGSV,2,2,07,18,19,126,43,21,37,245,29,26,30,289,18,7*45
$GAGSV,1,1,03,01,26,302,,07,16,169,,27,15,193,,0*47
$GBGSV,3,1,11,01,43,152,35,02,28,236,30,03,44,206,38,04,35,132,39,1*7A
$GBGSV,3,2,11,07,59,215,38,08,54,270,28,10,61,243,39,13,45,263,41,1*7F
$GBGSV,3,3,11,27,62,330,47,28,53,091,44,33,41,055,49,1*48
$GBGSV,2,1,08,01,43,152,43,03,44,206,40,04,35,132,39,07,59,215,45,3*7F
$GBGSV,2,2,08,08,54,270,31,10,61,243,44,13,45,263,44,33,41,055,10,3*71
$GBGSV,2,1,05,05,08,256,,14,17,041,,15,33,192,,30,14,303,,0*73
$GBGSV,2,2,05,30,14,303,,0*44
$GNRMC,050540.00,A,3726.9520856,N,12639.1804943,E,0.008,,210622,,,R,V*07
$GNVTG,,T,,M,0.008,N,0.014,K,D*35
$GNGNS,050540.00,3726.9520856,N,12639.1804943,E,RRRR,27,0.65,15.907,17.835,2.0,4095,V*0F
$GNGGA,050540.00,3726.9520856,N,12639.1804943,E,4,12,0.65,15.907,M,17.835,M,2.0,4095*5C
$GNGSA,A,3,17,03,19,20,04,06,14,09,,,,,1.20,0.65,1.01,1*00
$GNGSA,A,3,72,71,85,,,,,,,,,,1.20,0.65,1.01,2*0C
$GNGSA,A,3,15,03,08,21,13,,,,,,,,1.20,0.65,1.01,3*0D
$GNGSA,A,3,07,28,08,04,13,03,02,27,10,33,01,,1.20,0.65,1.01,4*03
$GPGSV,3,1,10,03,22,044,39,04,27,079,46,06,59,316,44,09,32,117,40,1*66
$GPGSV,3,2,10,14,15,184,29,17,67,115,45,19,82,014,46,20,17,227,31,1*64
$GPGSV,3,3,10,28,,,39,50,47,179,38,1*57
$GPGSV,2,1,06,03,22,044,39,04,27,079,40,06,59,316,38,09,32,117,38,6*65
$GPGSV,2,2,06,14,15,184,35,17,67,115,39,6*67
$GPGSV,1,1,04,01,00,080,,02,22,282,,11,27,277,,12,21,313,,0*64
$GLGSV,2,1,05,71,57,079,48,72,42,163,35,76,10,227,28,85,17,093,45,1*74
$GLGSV,2,2,05,87,34,320,11,1*44
$GLGSV,2,1,05,71,57,079,42,72,42,163,43,76,10,227,30,77,21,275,13,3*75
$GLGSV,2,2,05,85,17,093,37,3*4A
$GLGSV,1,1,04,65,01,190,,70,19,031,,78,10,329,,86,51,051,,0*72
$GAGSV,2,1,05,03,24,056,44,08,38,116,42,13,65,004,45,15,30,073,40,2*76
$GAGSV,2,2,05,21,37,245,35,2*41
$GAGSV,2,1,06,03,24,056,43,08,38,116,41,13,65,004,45,15,30,073,46,7*72
$GAGSV,2,2,06,18,19,126,43,21,37,245,29,7*79
$GAGSV,1,1,04,01,26,302,,07,16,169,,26,30,289,,27,15,193,,0*74
$GBGSV,3,1,11,01,43,152,35,02,28,236,31,03,44,206,38,04,35,132,39,1*7B
$GBGSV,3,2,11,07,59,215,38,08,54,270,28,10,61,243,39,13,45,263,41,1*7F
$GBGSV,3,3,11,27,62,330,47,28,53,091,44,33,41,055,48,1*49
$GBGSV,2,1,07,01,43,152,42,03,44,206,40,04,35,132,39,07,59,215,45,3*71
$GBGSV,2,2,07,08,54,270,31,10,61,243,44,13,45,263,43,3*4D
$GBGSV,2,1,05,05,08,256,,14,17,041,,15,33,192,,30,14,303,,0*73
$GBGSV,2,2,05,30,14,303,,0*44
$GNRMC,050541.00,A,3726.9520850,N,12639.1804943,E,0.010,,210622,,,R,V*09
$GNVTG,,T,,M,0.010,N,0.019,K,D*31
$GNGNS,050541.00,3726.9520850,N,12639.1804943,E,RRRR,27,0.65,15.907,17.835,2.0,4095,V*08
$GNGGA,050541.00,3726.9520850,N,12639.1804943,E,4,12,0.65,15.907,M,17.835,M,2.0,4095*5B
$GNGSA,A,3,17,03,19,20,04,06,14,09,,,,,1.20,0.65,1.01,1*00
$GNGSA,A,3,72,71,85,,,,,,,,,,1.20,0.65,1.01,2*0C
$GNGSA,A,3,15,03,08,21,13,,,,,,,,1.20,0.65,1.01,3*0D
$GNGSA,A,3,07,28,08,04,13,03,02,27,10,33,01,,1.20,0.65,1.01,4*03
$GPGSV,3,1,10,03,22,044,39,04,27,079,46,06,59,316,44,09,32,117,41,1*67
$GPGSV,3,2,10,14,15,184,29,17,67,115,45,19,82,014,46,20,17,227,32,1*67
$GPGSV,3,3,10,28,,,39,50,47,179,38,1*57
$GPGSV,2,1,06,03,22,044,39,04,27,079,40,06,59,316,38,09,32,117,39,6*64
$GPGSV,2,2,06,14,15,184,34,17,67,115,39,6*66
$GPGSV,1,1,04,01,00,080,,02,22,282,,11,27,277,,12,21,313,,0*64
$GLGSV,2,1,05,71,57,079,48,72,42,163,35,76,10,227,27,85,17,093,46,1*78
$GLGSV,2,2,05,87,34,320,13,1*46
$GLGSV,2,1,05,71,57,079,42,72,42,163,43,76,10,227,31,77,21,275,12,3*75
$GLGSV,2,2,05,85,17,093,38,3*45
$GLGSV,1,1,04,65,01,190,,70,19,031,,78,10,329,,86,51,051,,0*72
$GAGSV,2,1,05,03,24,056,44,08,38,116,42,13,65,004,45,15,30,073,42,2*74
$GAGSV,2,2,05,21,37,245,35,2*41
$GAGSV,2,1,06,03,24,056,43,08,38,116,41,13,65,004,45,15,30,073,46,7*72
$GAGSV,2,2,06,18,19,126,43,21,37,245,28,7*78
$GAGSV,1,1,04,01,26,302,,07,16,169,,26,30,289,,27,15,193,,0*74
$GBGSV,3,1,11,01,43,152,35,02,28,236,30,03,44,206,39,04,35,132,39,1*7B
$GBGSV,3,2,11,07,59,215,38,08,54,270,28,10,61,243,39,13,45,263,41,1*7F
$GBGSV,3,3,11,27,62,330,47,28,53,091,45,33,41,055,48,1*48
$GBGSV,2,1,07,01,43,152,42,03,44,206,40,04,35,132,39,07,59,215,45,3*71
$GBGSV,2,2,07,08,54,270,31,10,61,243,44,13,45,263,43,3*4D
$GBGSV,2,1,05,05,08,256,,14,17,041,,15,33,192,,30,14,303,,0*73
$GBGSV,2,2,05,30,14,303,,0*44
$GNRMC,050542.00,A,3726.9520832,N,12639.1804973,E,0.009,,210622,,,R,V*05
$GNVTG,,T,,M,0.009,N,0.017,K,D*37
$GNGNS,050542.00,3726.9520832,N,12639.1804973,E,RRRR,27,0.65,15.903,17.835,2.0,4095,V*08
$GNGGA,050542.00,3726.9520832,N,12639.1804973,E,4,12,0.65,15.903,M,17.835,M,2.0,4095*5B
$GNGSA,A,3,17,03,19,20,04,06,14,09,,,,,1.20,0.65,1.01,1*00
$GNGSA,A,3,72,71,85,,,,,,,,,,1.20,0.65,1.01,2*0C
$GNGSA,A,3,15,03,08,21,13,,,,,,,,1.20,0.65,1.01,3*0D
$GNGSA,A,3,07,28,08,04,13,03,02,27,10,33,01,,1.20,0.65,1.01,4*03
$GPGSV,3,1,10,03,22,044,39,04,27,079,46,06,59,316,44,09,32,117,40,1*66
$GPGSV,3,2,10,14,14,184,29,17,67,115,45,19,82,014,46,20,17,227,31,1*65
$GPGSV,3,3,10,28,,,40,50,47,179,38,1*59
$GPGSV,1,1,04,01,00,080,,02,22,282,,11,27,277,,12,21,313,,0*64
$GLGSV,2,1,05,71,57,079,48,72,42,163,35,76,10,227,24,85,17,093,46,1*7B
$GLGSV,2,2,05,87,34,320,13,1*46
$GLGSV,2,1,05,71,57,079,42,72,42,163,43,76,10,227,31,77,21,275,08,3*7E
$GLGSV,2,2,05,85,17,093,38,3*45
$GLGSV,1,1,04,65,01,190,,70,19,031,,78,10,329,,86,51,051,,0*72
$GAGSV,2,1,05,03,24,056,43,08,38,116,42,13,65,004,45,15,30,073,39,2*7F
$GAGSV,2,2,05,21,37,245,35,2*41
$GAGSV,2,1,06,03,24,056,43,08,38,116,40,13,65,004,45,15,30,073,45,7*70
$GAGSV,2,2,06,18,19,126,43,21,37,245,29,7*79
$GAGSV,1,1,04,01,26,302,,07,16,169,,26,30,289,,27,15,193,,0*74
$GBGSV,3,1,11,01,43,152,35,02,28,236,31,03,44,206,38,04,35,132,39,1*7B
$GBGSV,3,2,11,07,59,215,38,08,54,270,28,10,61,243,39,13,45,263,41,1*7F
$GBGSV,3,3,11,27,62,330,47,28,53,091,44,33,41,055,48,1*49
$GBGSV,2,1,07,01,43,152,42,03,44,206,40,04,35,132,39,07,59,215,45,3*71
$GBGSV,2,2,07,08,54,270,31,10,61,243,44,13,45,263,43,3*4D
$GBGSV,2,1,05,05,08,256,,14,17,041,,15,33,192,,30,14,303,,0*73
$GBGSV,2,2,05,30,14,303,,0*44
$GNRMC,050543.00,A,3726.9520853,N,12639.1804946,E,0.009,,210622,,,R,V*05
$GNVTG,,T,,M,0.009,N,0.017,K,D*37
$GNGNS,050543.00,3726.9520853,N,12639.1804946,E,RRRR,27,0.65,15.901,17.835,1.0,4095,V*09
$GNGGA,050543.00,3726.9520853,N,12639.1804946,E,4,12,0.65,15.901,M,17.835,M,1.0,4095*5A
$GNGSA,A,3,17,03,19,20,04,06,14,09,,,,,1.20,0.65,1.01,1*00
$GNGSA,A,3,72,71,85,,,,,,,,,,1.20,0.65,1.01,2*0C
$GNGSA,A,3,15,03,08,21,13,,,,,,,,1.20,0.65,1.01,3*0D
$GNGSA,A,3,07,28,08,04,13,03,02,27,10,33,01,,1.20,0.65,1.01,4*03
$GPGSV,3,1,10,03,22,044,40,04,27,079,46,06,59,316,44,09,32,117,40,1*68
$GPGSV,3,2,10,14,14,184,30,17,67,115,45,19,82,014,46,20,17,227,32,1*6E
$GPGSV,3,3,10,28,,,40,50,47,179,39,1*58
$GPGSV,2,1,06,03,22,044,39,04,27,079,39,06,59,316,38,09,32,117,39,6*6A
$GPGSV,2,2,06,14,14,184,33,17,67,115,40,6*6E
$GPGSV,1,1,04,01,00,080,,02,22,282,,11,27,277,,12,21,313,,0*64
$GLGSV,2,1,05,71,57,079,47,72,42,163,35,76,10,227,19,85,17,093,45,1*79
$GLGSV,2,2,05,87,34,320,13,1*46
$GLGSV,2,1,05,71,57,079,42,72,42,163,42,76,10,227,30,77,21,275,08,3*7E
$GLGSV,2,2,05,85,17,093,38,3*45
$GLGSV,1,1,04,65,01,190,,70,19,031,,78,10,329,,86,51,051,,0*72
$GAGSV,2,1,05,03,24,056,44,08,38,116,42,13,65,004,45,15,30,073,39,2*78
$GAGSV,2,2,05,21,37,245,35,2*41
$GAGSV,2,1,06,03,24,056,43,08,38,116,40,13,65,004,45,15,30,073,46,7*73
$GAGSV,2,2,06,18,19,126,42,21,37,245,29,7*78
$GAGSV,1,1,04,01,26,302,,07,16,169,,26,30,289,,27,15,193,,0*74
$GBGSV,3,1,11,01,43,152,35,02,28,236,31,03,44,206,39,04,35,132,39,1*7A
$GBGSV,3,2,11,07,59,215,38,08,54,270,28,10,61,243,39,13,45,263,41,1*7F
$GBGSV,3,3,11,27,62,330,47,28,53,091,45,33,41,055,48,1*48
$GBGSV,2,1,07,01,43,152,42,03,44,206,40,04,35,132,39,07,59,215,45,3*71
$GBGSV,2,2,07,08,54,270,31,10,61,243,44,13,45,263,43,3*4D
$GBGSV,2,1,05,05,08,256,,14,17,041,,15,33,192,,30,14,303,,0*73
$GBGSV,2,2,05,30,14,303,,0*44
$GNRMC,050544.00,A,3726.9520850,N,12639.1804957,E,0.019,,210622,,,R,V*00
$GNVTG,,T,,M,0.019,N,0.035,K,D*36
$GNGNS,050544.00,3726.9520850,N,12639.1804957,E,RRRR,27,0.65,15.904,17.835,2.0,4095,V*0B
$GNGGA,050544.00,3726.9520850,N,12639.1804957,E,4,12,0.65,15.904,M,17.835,M,2.0,4095*58
$GNGSA,A,3,17,03,19,20,04,06,14,09,,,,,1.20,0.65,1.01,1*00
$GNGSA,A,3,72,71,85,,,,,,,,,,1.20,0.65,1.01,2*0C
$GNGSA,A,3,15,03,08,21,13,,,,,,,,1.20,0.65,1.01,3*0D
$GNGSA,A,3,07,28,08,04,13,03,02,27,10,33,01,,1.20,0.65,1.01,4*03
$GPGSV,3,1,10,03,22,044,41,04,27,079,46,06,59,316,44,09,32,117,40,1*69
$GPGSV,3,2,10,14,14,184,31,17,67,115,46,19,82,014,46,20,17,227,31,1*6F
$GPGSV,3,3,10,28,,,40,50,47,179,38,1*59
$GPGSV,2,1,06,03,22,044,40,04,27,079,40,06,59,316,39,09,32,117,40,6*65
$GPGSV,2,2,06,14,14,184,34,17,67,115,40,6*69
$GPGSV,1,1,04,01,00,080,,02,22,282,,11,27,277,,12,21,313,,0*64
$GLGSV,2,1,05,71,57,079,47,72,42,163,35,76,10,227,14,85,17,093,45,1*74
$GLGSV,2,2,05,87,34,320,13,1*46
$GNRMC,050545.00,A,3726.9520856,N,12639.1804965,E,0.016,,210622,,,R,V*09
$GNVTG,,T,,M,0.016,N,0.030,K,D*3C
$GNGNS,050545.00,3726.9520856,N,12639.1804965,E,RRRR,27,0.65,15.906,17.835,3.0,4095,V*0E
$GNGGA,050545.00,3726.9520856,N,12639.1804965,E,4,12,0.65,15.906,M,17.835,M,3.0,4095*5D
$GNGSA,A,3,17,03,19,20,04,06,14,09,,,,,1.20,0.65,1.01,1*00
$GNGSA,A,3,72,71,85,,,,,,,,,,1.20,0.65,1.01,2*0C
$GNGSA,A,3,15,03,08,21,13,,,,,,,,1.20,0.65,1.01,3*0D
$GNGSA,A,3,07,28,08,04,13,03,02,27,10,33,01,,1.20,0.65,1.01,4*03
$GPGSV,3,1,10,03,22,044,39,04,27,079,46,06,59,316,44,09,32,117,40,1*66
$GPGSV,3,2,10,14,14,184,31,17,67,117,46,19,82,014,46,20,17,227,31,1*6D
$GPGSV,3,3,10,28,,,40,50,47,179,38,1*59
$GPGSV,2,1,06,03,22,044,39,04,27,079,40,06,59,316,39,09,32,117,40,6*6B
$GPGSV,2,2,06,14,14,184,34,17,67,117,41,6*6A
$GPGSV,1,1,04,01,00,080,,02,22,282,,11,27,277,,12,21,313,,0*64
$GLGSV,2,1,05,71,57,079,47,72,42,163,36,76,10,227,13,85,17,093,45,1*70
$GLGSV,2,2,05,87,34,320,16,1*43
$GLGSV,2,1,05,71,57,079,42,72,42,163,42,76,10,227,29,77,21,275,09,3*77
$GLGSV,2,2,05,85,17,093,38,3*45
$GLGSV,1,1,04,65,01,190,,70,19,031,,78,10,329,,86,51,051,,0*72
$GAGSV,2,1,05,03,24,056,44,08,38,116,42,13,65,004,45,15,30,073,39,2*78
$GAGSV,2,2,05,21,37,245,34,2*40
$GAGSV,2,1,06,03,24,056,43,08,38,116,41,13,65,004,45,15,30,073,46,7*72
$GAGSV,2,2,06,18,19,126,42,21,37,245,29,7*78
$GAGSV,1,1,04,01,26,302,,07,16,169,,26,30,289,,27,15,193,,0*74
$GBGSV,3,1,11,01,43,152,35,02,28,236,30,03,44,206,39,04,35,132,39,1*7B
$GBGSV,3,2,11,07,59,215,38,08,54,270,28,10,61,243,39,13,45,263,41,1*7F
$GBGSV,3,3,11,27,62,330,47,28,53,091,45,33,41,055,48,1*48
$GBGSV,2,1,07,01,43,152,42,03,44,206,40,04,35,132,39,07,59,215,45,3*71
$GBGSV,2,2,07,08,54,270,31,10,61,243,44,13,45,263,43,3*4D
$GBGSV,2,1,05,05,08,256,,14,17,041,,15,33,192,,30,14,303,,0*73
$GBGSV,2,2,05,30,14,303,,0*44
$GNRMC,050546.00,A,3726.9520856,N,12639.1804958,E,0.011,,210622,,,R,V*03
$GNVTG,,T,,M,0.011,N,0.020,K,D*3A
$GNGNS,050546.00,3726.9520856,N,12639.1804958,E,RRRR,27,0.65,15.904,17.835,4.0,4095,V*06
$GNGGA,050546.00,3726.9520856,N,12639.1804958,E,4,12,0.65,15.904,M,17.835,M,4.0,4095*55
$GNGSA,A,3,17,03,19,20,04,06,14,09,,,,,1.20,0.65,1.01,1*00
$GNGSA,A,3,72,71,85,,,,,,,,,,1.20,0.65,1.01,2*0C
$GNGSA,A,3,07,28,08,04,13,03,02,27,10,33,01,,1.20,0.65,1.01,4*03
$GPGSV,3,1,10,03,22,044,39,04,27,079,46,06,59,316,44,09,32,117,40,1*66
$GPGSV,3,2,10,14,14,184,32,17,67,117,46,19,82,014,46,20,17,227,31,1*6E
$GPGSV,3,3,10,28,,,40,50,47,179,38,1*59
$GPGSV,1,1,01,11,27,277,17,5*50
$GPGSV,2,1,06,03,22,044,40,04,27,079,40,06,59,316,39,09,32,117,40,6*65
$GPGSV,2,2,06,14,14,184,33,17,67,117,41,6*6D
$GPGSV,1,1,03,01,00,080,,02,22,282,,12,21,313,,0*54
$GLGSV,2,1,05,71,57,079,47,72,42,163,37,76,10,227,18,85,17,093,45,1*7A
$GLGSV,2,2,05,87,34,320,14,1*41
$GLGSV,2,1,05,71,57,079,42,72,42,163,42,76,10,227,29,77,21,275,08,3*76
$GLGSV,2,2,05,85,17,093,38,3*45
$GLGSV,1,1,04,65,01,190,,70,19,031,,78,10,329,,86,51,051,,0*72
$GAGSV,2,1,05,03,24,056,44,08,38,116,42,13,65,004,45,15,30,073,39,2*78
$GAGSV,2,2,05,21,37,245,35,2*41
$GAGSV,2,1,06,03,24,056,43,08,38,116,41,13,65,004,45,15,30,073,45,7*71
$GAGSV,2,2,06,18,19,126,42,21,37,245,29,7*78
$GAGSV,1,1,04,01,2$GBGSV,3,1,11,01,43,152,35,02,28,236,30,03,44,206,39,04,35,132,39,1*7B
$GBGSV,3,2,11,07,59,215,38,08,54,270,28,10,61,243,39,13,45,263,42,1*7C
$GBGSV,3,3,11,27,62,330,47,28,53,091,45,33,41,055,48,1*48
$GBGSV,2,1,07,01,43,152,42,03,44,206,40,04,35,132,39,07,59,215,45,3*71
$GBGSV,2,2,07,08,54,270,31,10,61,243,44,13,45,263,43,3*4D
$GBGSV,2,1,05,05,08,256,,14,17,041,,15,33,192,,30,14,303,,0*73
$GBGSV,2,2,05,30,14,303,,0*44
$GNRMC,050547.00,A,3726.9520859,N,12639.1804966,E,0.014,,210622,,,R,V*05
$GNVTG,,T,,M,0.014,N,0.026,K,D*39
$GNGNS,050547.00,3726.9520859,N,12639.1804966,E,RRRR,27,0.65,15.901,17.835,5.0,4095,V*01
$GNGGA,050547.00,3726.9520859,N,12639.1804966,E,4,12,0.65,15.901,M,17.835,M,5.0,4095*52
$GNGSA,A,3,17,03,19,20,04,06,14,09,,,,,1.20,0.65,1.01,1*00
$GNGSA,A,3,72,71,85,,,,,,,,,,1.20,0.65,1.01,2*0C
$GNGSA,A,3,15,03,08,21,13,,,,,,,,1.20,0.65,1.01,3*0D
$GNGSA,A,3,07,28,08,04,13,03,02,27,10,33,01,,1.20,0.65,1.01,4*03
$GPGSV,3,1,10,03,22,044,39,04,27,079,46,06,59,316,44,09,32,117,41,1*67
$GPGSV,3,2,10,14,14,184,32,17,67,117,46,19,82,020,46,20,17,227,31,1*69
$GPGSV,3,3,10,28,,,40,50,47,179,38,1*59
$GPGSV,2,1,07,03,22,044,40,04,27,079,40,06,59,316,39,09,32,117,40,6*64
$GPGSV,2,2,07,11,27,277,17,14,14,184,33,17,67,117,41,6*5D
$GPGSV,1,1,03,01,00,080,,02,22,282,,12,21,313,,0*54
$GLGSV,2,1,05,71,57,079,47,72,42,163,37,76,10,227,19,85,17,093,45,1*7B
$GLGSV,2,2,05,87,34,320,15,1*40
$GLGSV,2,1,05,71,57,079,42,72,42,163,42,76,10,227,29,77,21,275,09,3*77
$GLGSV,2,2,05,85,17,093,38,3*45
$GLGSV,1,1,04,65,01,190,,70,19,031,,78,10,329,,86,51,051,,0*72
$GAGSV,2,1,05,03,24,056,44,08,38,116,42,13,65,004,45,15,30,073,39,2*78
$GAGSV,2,2,05,21,37,245,35,2*41
$GAGSV,2,1,06,03,24,056,42,08,38,116,41,13,65,004,45,15,30,073,45,7*70
$GAGSV,2,2,06,18,19,126,42,21,37,245,29,7*78
$GAGSV,1,1,04,01,26,302,,07,16,169,,26,30,289,,27,15,193,,0*74
$GBGSV,3,1,11,01,43,152,35,02,28,236,30,03,44,206,39,04,35,132,39,1*7B
$GBGSV,3,2,11,07,59,215,38,08,54,270,28,10,61,243,39,13,45,263,42,1*7C
$GBGSV,3,3,11,27,62,330,47,28,53,091,45,33,41,055,48,1*48
$GBGSV,2,1,07,01,43,152,42,03,44,206,40,04,35,132,39,07,59,215,45,3*71
$GBGSV,2,2,07,08,54,270,31,10,61,243,44,13,45,263,43,3*4D
$GBGSV,2,1,05,05,08,256,,14,17,041,,15,33,192,,30,14,303,,0*73
$GBGSV,2,2,05,30,14,303,,0*44
$GNRMC,050548.00,A,3726.9520886,N,12639.1804981,E,0.009,,210622,,,R,V*0D
$GNGNS,050548.00,3726.9520886,N,12639.1804981,E,RRRR,27,0.65,15.901,17.835,6.0,4095,V*06
$GNGSA,A,3,15,03,08,21,13,,,,,,,,1.20,0.65,1.01,3*0D
$GNGSA,A,3,07,28,08,04,13,03,02,27,10,33,01,,1.20,0.65,1.01,4*03
$GPGSV,3,1,10,03,22,044,40,04,27,079,46,06,59,316,44,09,32,117,40,1*68
$GPGSV,3,2,10,14,14,184,32,17,67,117,46,19,82,020,46,20,17,228,31,1*66
$GPGSV,3,3,10,28,,,40,50,47,179,38,1*59
$GPGSV,2,1,07,03,22,044,39,04,27,079,40,06,59,316,38,09,32,117,39,6*65
$GPGSV,2,2,07,11,27,277,17,14,14,184,32,17,67,117,40,6*5D
$GPGSV,1,1,03,01,00,080,,02,22,282,,12,21,313,,0*54
$GLGSV,2,1,05,71,57,079,47,72,42,163,38,76,10,227,22,85,17,093,44,1*7D
$GLGSV,2,2,05,87,34,320,14,1*41
$GNRMC,050549.00,A,3726.9520881,N,12639.1804971,E,0.006,,210622,,,R,V*0B
$GNVTG,,T,,M,0.006,N,0.011,K,D*3E
$GNGNS,050549.00,3726.9520881,N,12639.1804971,E,RRRR,27,0.65,15.902,17.835,7.0,4095,V*0D
$GNGGA,050549.00,3726.9520881,N,12639.1804971,E,4,12,0.65,15.902,M,17.835,M,7.0,4095*5E
$GNGSA,A,3,17,03,19,20,04,06,14,09,,,,,1.20,0.65,1.01,1*00
$GNGSA,A,3,72,71,85,,,,,,,,,,1.20,0.65,1.01,2*0C
$GNGSA,A,3,15,03,08,21,13,,,,,,,,1.20,0.65,1.01,3*0D
$GNGSA,A,3,07,28,08,04,13,03,02,27,10,33,01,,1.20,0.65,1.01,4*03
$GPGSV,3,1,10,03,22,044,40,04,27,079,46,06,59,316,44,09,32,117,41,1*69
$GPGSV,3,2,10,14,14,184,32,17,67,117,46,19,82,020,46,20,17,228,31,1*66
$GPGSV,3,3,10,28,,,40,50,47,179,38,1*59
$GPGSV,2,1,07,03,22,044,39,04,27,079,39,06,59,316,38,09,32,117,39,6*6B
$GPGSV,2,2,07,11,27,277,16,14,14,184,32,17,67,117,40,6*5C
$GPGSV,1,1,03,01,00,080,,02,22,282,,12,21,313,,0*54
$GLGSV,2,1,05,71,57,079,47,72,42,163,38,76,10,227,23,85,17,093,45,1*7D
$GLGSV,2,2,05,87,34,320,10,1*45
$GLGSV,2,1,05,71,57,079,41,72,42,163,40,76,10,227,28,77,21,275,09,3*77
$GLGSV,2,2,05,85,17,093,36,3*4B
$GLGSV,1,1,04,65,01,190,,70,19,031,,78,10,329,,86,51,051,,0*72
$GAGSV,2,1,05,03,24,056,44,08,38,116,42,13,65,004,45,15,30,073,40,2*76
$GAGSV,2,2,05,21,37,245,35,2*41
$GAGSV,2,1,06,03,24,056,42,08,38,116,41,13,65,004,45,15,30,073,45,7*70
$GAGSV,2,2,06,18,19,126,43,21,37,245,29,7*79
$GAGSV,1,1,04,01,26,302,,07,16,169,,26,30,289,,27,15,193,,0*74
$GBGSV,3,1,11,01,43,152,35,02,28,236,31,03,44,206,39,04,35,132,38,1*7B
$GBGSV,3,2,11,07,59,215,38,08,54,270,29,10,61,243,39,13,45,263,42,1*7D
$GBGSV,3,3,11,27,62,330,47,28,53,091,45,33,41,055,49,1*49
$GBGSV,2,1,07,01,43,152,42,03,44,206,40,04,35,132,39,07,59,215,45,3*71
$GBGSV,2,2,07,08,54,270,31,10,61,243,44,13,45,263,44,3*4A
$GBGSV,2,1,05,05,08,256,,14,17,041,,15,33,192,,30,14,303,,0*73
$GBGSV,2,2,05,30,14,303,,0*44
$GNRMC,050550.00,A,3726.9520890,N,12639.1804982,E,0.007,,210622,,,R,V*0E
$GNVTG,,T,,M,0.007,N,0.014,K,D*3A
$GNGNS,050550.00,3726.9520890,N,12639.1804982,E,RRRR,27,0.65,15.903,17.835,8.0,4095,V*07
$GNGGA,050550.00,3726.9520890,N,12639.1804982,E,4,12,0.65,15.903,M,17.835,M,8.0,4095*54
$GNGSA,A,3,17,03,19,20,04,06,14,09,,,,,1.20,0.65,1.01,1*00
$GNGSA,A,3,72,71,85,,,,,,,,,,1.20,0.65,1.01,2*0C
$GNGSA,A,3,15,03,08,21,13,,,,,,,,1.20,0.65,1.01,3*0D
$GNGSA,A,3,07,28,08,04,13,03,02,27,10,33,01,,1.20,0.65,1.01,4*03
$GPGSV,3,1,10,03,22,044,40,04,27,079,46,06,59,316,44,09,32,117,40,1*68
$GPGSV,3,2,10,14,14,184,32,17,67,117,46,19,82,020,46,20,17,228,31,1*66
$GPGSV,3,3,10,28,,,40,50,47,179,38,1*59
$GPGSV,2,1,07,03,22,044,39,04,27,079,40,06,59,316,38,09,32,117,40,6*6B
$GPGSV,2,2,07,11,27,277,17,14,14,184,32,17,67,117,40,6*5D
$GPGSV,1,1,03,01,00,080,,02,22,282,,12,21,313,,0*54
$GLGSV,2,1,05,71,57,079,48,72,42,163,39,76,10,227,26,85,17,093,46,1*75
$GLGSV,2,2,05,87,34,320,13,1*46
$GLGSV,2,1,05,71,57,079,41,72,42,163,40,76,10,227,29,77,21,275,09,3*76
$GLGSV,2,2,05,85,17,093,36,3*4B
$GLGSV,1,1,04,65,01,190,,70,19,031,,78,10,329,,86,51,051,,0*72
$GAGSV,2,1,05,03,24,056,44,08,38,116,42,13,65,004,45,15,30,073,40,2*76
$GAGSV,2,2,05,21,37,245,35,2*41
$GAGSV,2,1,06,03,24,056,42,08,38,116,41,13,65,004,45,15,30,073,45,7*70
$GAGSV,2,2,06,18,19,126,43,21,37,245,29,7*79
$GAGSV,1,1,04,01,26,302,,07,16,169,,26,30,289,,27,15,193,,0*74
$GBGSV,3,1,11,01,43,152,35,02,28,236,30,03,44,206,39,04,35,132,39,1*7B
$GBGSV,3,2,11,07,59,215,38,08,54,270,29,10,61,243,38,13,45,263,42,1*7C
$GBGSV,3,3,11,27,62,330,47,28,53,091,46,33,41,055,48,1*4B
$GBGSV,2,1,07,01,43,152,42,03,44,206,40,04,35,132,39,07,59,215,45,3*71
$GBGSV,2,2,07,08,54,270,31,10,61,243,44,13,45,263,43,3*4D
$GBGSV,2,1,05,05,08,256,,14,17,041,,15,33,192,,30,14,303,,0*73
$GBGSV,2,2,05,30,14,303,,0*44
$GNRMC,050551.00,A,3726.9520897,N,12639.1804987,E,0.005,,210622,,,R,V*0F
$GNVTG,,T,,M,0.005,N,0.010,K,D*3C
$GNGNS,050551.00,3726.9520897,N,12639.1804987,E,RRRR,27,0.65,15.899,17.835,9.0,4095,V*07
$GNGGA,050551.00,3726.9520897,N,12639.1804987,E,4,12,0.65,15.899,M,17.835,M,9.0,4095*54
$GNGSA,A,3,17,03,19,20,04,06,14,09,,,,,1.20,0.65,1.01,1*00
$GNGSA,A,3,72,71,85,,,,,,,,,,1.20,0.65,1.01,2*0C
$GNGSA,A,3,15,03,08,21,13,,,,,,,,1.20,0.65,1.01,3*0D
$GNGSA,A,3,07,28,08,04,13,03,02,27,10,33,01,,1.20,0.65,1.01,4*03
$GPGSV,3,1,10,03,22,044,40,04,27,079,46,06,59,316,44,09,32,117,40,1*68
$GPGSV,3,2,10,14,14,184,32,17,67,117,46,19,82,020,46,20,17,228,32,1*65
$GPGSV,3,3,10,28,,,39,50,47,179,38,1*57
$GPGSV,2,1,07,03,22,044,39,04,27,079,40,06,59,316,38,09,32,117,40,6*6B
$GPGSV,2,2,07,11,27,277,17,14,14,184,31,17,67,117,40,6*5E
$GPGSV,1,1,03,01,00,080,,02,22,282,,12,21,313,,0*54
$GLGSV,2,1,05,71,57,079,48,72,42,163,39,76,10,227,28,85,17,093,46,1*7B
$GLGSV,2,2,05,87,34,320,13,1*46
$GLGSV,2,1,05,71,57,079,42,72,42,163,42,76,10,227,29,77,21,275,08,3*76
$GLGSV,2,2,05,85,17,093,37,3*4A
$GLGSV,1,1,04,65,01,190,,70,19,031,,78,10,329,,86,51,051,,0*72
$GAGSV,2,1,05,03,24,056,44,08,38,116,42,13,65,004,45,15,30,073,39,2*78
$GAGSV,2,2,05,21,37,245,35,2*41
$GAGSV,2,1,06,03,24,056,42,08,38,116,41,13,65,004,45,15,30,073,45,7*70
$GAGSV,2,2,06,18,19,126,42,21,37,245,30,7*70
$GAGSV,1,1,04,01,26,302,,07,16,169,,26,30,289,,27,15,193,,0*74
$GBGSV,3,1,11,01,43,152,36,02,28,236,30,03,44,206,39,04,35,132,39,1*78
$GBGSV,3,2,11,07,59,215,37,08,54,270,28,10,61,243,38,13,45,263,42,1*72
$GBGSV,3,3,11,27,62,330,47,28,53,091,45,33,41,055,48,1*48
$GBGSV,2,1,07,01,43,152,42,03,44,206,40,04,35,132,39,07,59,215,45,3*71
$GBGSV,2,2,07,08,54,270,31,10,61,243,44,13,45,263,43,3*4D
$GBGSV,2,1,05,05,08,256,,14,17,041,,15,33,192,,30,14,303,,0*73
$GBGSV,2,2,05,30,14,303,,0*44
$GNRMC,050552.00,A,3726.9520906,N,12639.1805000,E,0.010,,210622,,,R,V*06
$GNVTG,,T,,M,0.010,N,0.019,K,D*31
$GNGNS,050552.00,3726.9520906,N,12639.1805000,E,RRRR,27,0.65,15.907,17.835,10.0,4095,V*34
$GNGGA,050552.00,3726.9520906,N,12639.1805000,E,4,12,0.65,15.907,M,17.835,M,10.0,4095*67
$GNGSA,A,3,17,03,19,20,04,06,14,09,,,,,1.20,0.65,1.01,1*00
$GNGSA,A,3,72,71,85,,,,,,,,,,1.20,0.65,1.01,2*0C
$GNGSA,A,3,15,03,08,21,13,,,,,,,,1.20,0.65,1.01,3*0D
$GNGSA,A,3,07,28,08,04,13,03,02,27,10,33,01,,1.20,0.65,1.01,4*03
$GPGSV,3,1,10,03,22,044,39,04,27,079,46,06,59,316,44,09,32,117,40,1*66
$GPGSV,3,2,10,14,14,184,32,17,67,117,46,19,82,020,46,20,17,228,32,1*65
$GPGSV,3,3,10,28,,,39,50,47,179,38,1*57
$GPGSV,2,1,07,03,22,044,39,04,27,079,40,06,59,316,38,09,32,117,40,6*6B
$GPGSV,2,2,07,11,27,277,17,14,14,184,31,17,67,117,41,6*5F
$GPGSV,1,1,03,01,00,080,,02,22,282,,12,21,313,,0*54
$GLGSV,2,1,05,71,57,079,48,72,42,163,39,76,10,227,29,85,17,093,46,1*7A
$GLGSV,2,2,05,87,34,320,10,1*45
$GLGSV,2,1,05,71,57,079,42,72,42,163,42,76,10,227,31,77,21,275,10,3*76
$GLGSV,2,2,05,85,17,093,37,3*4A
$GLGSV,1,1,04,65,01,190,,70,19,031,,78,10,329,,86,51,051,,0*72
$GAGSV,2,1,05,03,24,056,44,08,38,116,42,13,65,004,45,15,30,073,39,2*78
$GAGSV,2,2,05,21,37,245,35,2*41
$GAGSV,2,1,06,03,24,056,42,08,38,116,41,13,65,004,45,15,30,073,45,7*70
$GAGSV,2,2,06,18,19,126,42,21,37,245,30,7*70
$GAGSV,1,1,04,01,26,302,,07,16,169,,26,30,289,,27,15,193,,0*74
$GBGSV,3,1,11,01,43,152,35,02,28,236,30,03,44,206,39,04,35,132,39,1*7B
$GBGSV,3,2,11,07,59,215,38,08,54,270,28,10,61,243,38,13,45,263,42,1*7D
$GBGSV,3,3,11,27,62,330,46,28,53,091,45,33,41,055,49,1*48
$GBGSV,2,1,07,01,43,152,42,03,44,206,40,04,35,132,39,07,59,215,45,3*71
$GBGSV,2,2,07,08,54,270,31,10,61,243,44,13,45,263,43,3*4D
$GBGSV,2,1,05,05,08,256,,14,17,041,,15,33,192,,30,14,303,,0*73
$GBGSV,2,2,05,30,14,303,,0*44
$GNRMC,050553.00,A,3726.9520899,N,12639.1804995,E,0.007,,210622,,,R,V*02
$GNVTG,,T,,M,0.007,N,0.013,K,D*3D
$GNGNS,050553.00,3726.9520899,N,12639.1804995,E,RRRR,27,0.65,15.901,17.835,11.0,4095,V*31
$GNGGA,050553.00,3726.9520899,N,12639.1804995,E,4,12,0.65,15.901,M,17.835,M,11.0,4095*62
$GNGSA,A,3,17,03,19,20,04,06,14,09,,,,,1.20,0.65,1.01,1*00
$GNGSA,A,3,72,71,85,,,,,,,,,,1.20,0.65,1.01,2*0C
$GNGSA,A,3,15,03,08,21,13,,,,,,,,1.20,0.65,1.01,3*0D
$GNGSA,A,3,07,28,08,04,13,03,02,27,10,33,01,,1.20,0.65,1.01,4*03
$GPGSV,3,1,11,02,22,282,16,03,22,044,40,04,27,079,45,06,59,316,44,1*6C
$GPGSV,3,2,11,09,32,117,40,14,14,184,33,17,67,117,46,19,82,020,46,1*63
$GPGSV,3,3,11,20,17,228,33,28,,,39,50,47,179,38,1*6A
$GPGSV,2,1,07,03,22,044,39,04,27,079,40,06,59,316,38,09,32,117,40,6*6B
$GPGSV,2,2,07,11,27,277,17,14,14,184,30,17,67,117,41,6*5E
$GPGSV,1,1,02,01,00,080,,12,21,313,,0*6F
$GLGSV,2,1,05,71,57,079,48,72,42,163,39,76,10,227,29,85,17,093,46,1*7A
$GLGSV,2,2,05,87,34,320,11,1*44
$GLGSV,2,1,05,71,57,079,42,72,42,163,42,76,10,227,31,77,21,275,10,3*76
$GLGSV,2,2,05,85,17,093,37,3*4A
$GLGSV,1,1,04,65,01,190,,70,19,031,,78,10,329,,86,51,051,,0*72
$GAGSV,2,1,05,03,24,056,44,08,38,116,42,13,65,004,45,15,30,073,39,2*78
$GAGSV,2,2,05,21,37,245,35,2*41
$GAGSV,2,1,06,03,24,056,42,08,38,116,40,13,65,004,45,15,30,073,45,7*71
$GAGSV,2,2,06,18,19,126,43,21,37,245,30,7*71
$GAGSV,1,1,04,01,26,302,,07,16,169,,26,30,289,,27,15,193,,0*74
$GBGSV,3,1,11,01,43,152,36,02,28,236,30,03,44,206,39,04,35,132,39,1*78
$GBGSV,3,2,11,07,59,215,37,08,54,270,28,10,61,243,38,13,45,263,42,1*72
$GBGSV,3,3,11,27,62,330,46,28,53,091,46,33,41,055,49,1*4B
$GBGSV,2,1,07,01,43,152,42,03,44,206,40,04,35,132,39,07,59,215,45,3*71
$GBGSV,2,2,07,08,54,270,31,10,61,243,44,13,45,263,43,3*4D
$GBGSV,2,1,05,05,08,256,,14,17,041,,15,33,192,,30,14,303,,0*73
$GBGSV,2,2,05,30,14,303,,0*44
$GNRMC,050554.00,A,3726.9520916,N,12639.1804998,E,0.003,,210622,,,R,V*0A
$GNVTG,,T,,M,0.003,N,0.006,K,D*3D
$GNGGA,050554.00,3726.9520916,N,12639.1804998,E,4,12,0.65,15.902,M,17.835,M,12.0,4095*6E
$GNGSA,A,3,17,03,19,20,04,06,14,09,,,,,1.20,0.65,1.01,1*00
$GNGSA,A,3,72,71,85,,,,,,,,,,1.20,0.65,1.01,2*0C
$GPGSV,3,1,11,02,22,282,15,03,22,044,39,04,27,079,45,06,59,316,43,1*66
$GPGSV,3,2,11,09,32,117,40,14,14,184,33,17,67,117,46,19,82,020,46,1*63
$GPGSV,3,3,11,20,17,228,33,28,,,38,50,47,179,38,1*6B
$GPGSV,2,1,07,03,22,044,39,04,27,079,40,06,59,316,39,09,32,117,40,6*6A
$GPGSV,2,2,07,11,27,277,16,14,14,184,30,17,67,117,41,6*5F
$GPGSV,1,1,02,01,00,080,,12,21,313,,0*6F
$GLGSV,2,1,05,71,57,079,47,72,42,163,39,76,10,227,29,85,17,093,46,1*75
$GLGSV,2,2,05,87,34,320,11,1*44
$GLGSV,2,1,05,71,57,079,42,72,42,163,42,76,10,227,31,77,21,275,12,3*74
$GLGSV,2,2,05,85,17,093,37,3*4A
$GLGSV,1,1,04,65,01,190,,70,19,031,,78,10,329,,86,51,051,,0*72
$GBGSV,3,3,11,27,62,330,46,28,53,091,46,33,41,055,49,1*4B
$GBGSV,2,1,07,01,43,152,42,03,44,206,40,04,35,132,39,07,59,215,45,3*71
$GBGSV,2,2,07,08,54,270,31,10,61,243,44,13,45,263,44,3*4A
$GBGSV,2,1,05,05,08,256,,14,17,041,,15,33,192,,30,14,303,,0*73
$GBGSV,2,2,05,30,14,303,,0*44
$GNRMC,050555.00,A,3726.9520908,N,12639.1805003,E,0.005,,210622,,,R,V*08
$GNVTG,,T,,M,0.005,N,0.009,K,D*34
$GNGNS,050555.00,3726.9520908,N,12639.1805003,E,RRRR,27,0.65,15.905,17.835,13.0,4095,V*3F
$GNGGA,050555.00,3726.9520908,N,12639.1805003,E,4,12,0.65,15.905,M,17.835,M,13.0,4095*6C
$GNGSA,A,3,17,03,19,20,04,06,14,09,,,,,1.20,0.65,1.01,1*00
$GNGSA,A,3,72,71,85,,,,,,,,,,1.20,0.65,1.01,2*0C
$GNGSA,A,3,15,03,08,21,13,,,,,,,,1.20,0.65,1.01,3*0D
$GNGSA,A,3,07,28,08,04,13,03,02,27,10,33,01,,1.20,0.65,1.01,4*03
$GPGSV,3,1,10,03,22,044,39,04,27,079,45,06,59,316,43,09,32,117,40,1*62
$GPGSV,3,2,10,14,14,184,32,17,67,117,46,19,82,020,46,20,17,228,33,1*64
$GPGSV,3,3,10,28,,,38,50,47,179,38,1*56
$GPGSV,2,1,07,03,22,044,39,04,27,079,40,06,59,316,39,09,32,117,40,6*6A
$GPGSV,2,2,07,11,27,277,16,14,14,184,29,17,67,117,41,6*57
$GPGSV,1,1,03,01,00,080,,02,22,282,,12,21,313,,0*54
$GLGSV,2,1,05,71,57,079,48,72,42,163,39,76,10,227,29,85,17,093,46,1*7A
$GLGSV,2,2,05,87,34,320,11,1*44
$GLGSV,2,1,05,71,57,079,42,72,42,163,42,76,10,227,31,77,21,275,13,3*75
$GLGSV,2,2,05,85,17,093,37,3*4A
$GLGSV,1,1,04,65,01,190,,70,19,031,,78,10,329,,86,51,051,,0*72
$GAGSV,2,1,05,03,24,056,44,08,38,116,42,13,65,004,45,15,30,073,39,2*78
$GAGSV,2,2,05,21,37,245,35,2*41
$GAGSV,2,1,06,03,24,056,42,08,38,116,40,13,65,004,45,15,30,073,45,7*71
$GAGSV,2,2,06,18,19,126,43,21,37,245,30,7*71
$GAGSV,1,1,04,01,26,301,,07,16,169,,26,30,289,,27,15,193,,0*77
$GBGSV,3,1,11,01,43,152,36,02,28,236,30,03,44,206,39,04,35,132,39,1*78
$GBGSV,3,2,11,07,59,215,37,08,54,270,28,10,61,243,38,13,45,263,42,1*72
$GBGSV,3,3,11,27,62,330,47,28,53,091,46,33,41,055,49,1*4A
$GBGSV,2,1,07,01,43,152,42,03,44,206,40,04,35,132,39,07,59,215,45,3*71
$GBGSV,2,2,07,08,54,270,31,10,61,243,44,13,45,263,43,3*4D
$GBGSV,2,1,05,05,08,256,,14,17,041,,15,33,192,,30,14,303,,0*73
$GBGSV,2,2,05,30,14,303,,0*44
$GNRMC,050556.00,A,3726.9520920,N,12639.1805003,E,0.013,,210622,,,R,V*06
$GNVTG,,T,,M,0.013,N,0.024,K,D*3C
$GNGNS,050556.00,3726.9520920,N,12639.1805003,E,RRRR,27,0.65,15.897,17.835,14.0,4095,V*3B
$GNGGA,050556.00,3726.9520920,N,12639.1805003,E,4,12,0.65,15.897,M,17.835,M,14.0,4095*68
$GNGSA,A,3,17,03,19,20,04,06,14,09,,,,,1.20,0.65,1.01,1*00
$GNGSA,A,3,72,71,85,,,,,,,,,,1.20,0.65,1.01,2*0C
$GNGSA,A,3,15,03,08,21,13,,,,,,,,1.20,0.65,1.01,3*0D
$GNGSA,A,3,07,28,08,04,13,03,02,27,10,33,01,,1.20,0.65,1.01,4*03
$GPGSV,3,1,11,03,22,044,39,04,27,079,45,06,59,316,43,09,32,117,40,1*63
$GPGSV,3,2,11,12,21,313,07,14,14,184,32,17,67,117,46,19,82,020,46,1*6F
$GPGSV,3,3,11,20,17,228,33,28,,,35,50,47,179,38,1*66
$GPGSV,2,1,07,03,22,044,39,04,27,079,40,06,59,316,39,09,32,117,40,6*6A
$GPGSV,2,2,07,11,27,277,14,14,14,184,28,17,67,117,41,6*54
$GPGSV,1,1,02,01,00,080,,02,22,282,,0*64
$GNRMC,050557.00,A,3726.9520932,N,12639.1805013,E,0.008,,210622,,,R,V*0F
$GNVTG,,T,,M,0.008,N,0.015,K,D*34
$GNGNS,050557.00,3726.9520932,N,12639.1805013,E,RRRR,27,0.65,15.899,17.835,15.0,4095,V*37
$GNGGA,050557.00,3726.9520932,N,12639.1805013,E,4,12,0.65,15.899,M,17.835,M,15.0,4095*64
$GNGSA,A,3,17,03,19,20,04,06,14,09,,,,,1.20,0.65,1.01,1*00
$GNGSA,A,3,72,71,85,,,,,,,,,,1.20,0.65,1.01,2*0C
$GNGSA,A,3,15,03,08,21,13,,,,,,,,1.20,0.65,1.01,3*0D
$GNGSA,A,3,07,28,08,04,13,03,02,27,10,33,01,,1.20,0.65,1.01,4*03
$GPGSV,3,1,11,03,22,044,39,04,27,079,45,06,59,316,43,09,32,117,40,1*63
$GPGSV,3,2,11,12,21,313,11,14,14,184,32,17,67,117,46,19,82,020,46,1*68
$GPGSV,3,3,11,20,17,228,32,28,,,37,50,47,179,38,1*65
$GPGSV,2,1,06,03,22,044,39,04,27,079,40,06,59,316,39,09,32,117,40,6*6B
$GPGSV,2,2,06,14,14,184,28,17,67,117,41,6*67
$GPGSV,1,1,03,01,00,080,,02,22,282,,11,27,277,,0*52
$GLGSV,2,1,05,71,57,079,48,72,42,163,39,76,10,227,29,85,17,093,46,1*7A
$GLGSV,2,2,05,87,34,320,14,1*41
$GLGSV,2,1,05,71,57,079,42,72,42,163,42,76,10,227,30,77,21,275,10,3*77
$GLGSV,2,2,05,85,17,093,37,3*4A
$GLGSV,1,1,04,65,01,190,,70,19,031,,78,10,329,,86,51,051,,0*72
$GAGSV,2,1,05,03,24,056,44,08,38,116,42,13,65,004,45,15,30,073,39,2*78
$GAGSV,2,2,05,21,37,245,35,2*41
$GAGSV,2,1,06,03,24,056,41,08,38,116,40,13,65,004,45,15,30,073,45,7*72
$GAGSV,2,2,06,18,19,126,43,21,37,245,31,7*70
$GAGSV,1,1,04,01,26,301,,07,16,169,,26,30,289,,27,15,193,,0*77
$GBGSV,3,1,11,01,43,152,36,02,28,236,30,03,44,206,39,04,35,132,39,1*78
$GBGSV,3,2,11,07,59,215,37,08,54,270,28,10,61,243,38,13,45,263,41,1*71
$GBGSV,3,3,11,27,62,330,46,28,53,091,46,33,41,055,49,1*4B
$GBGSV,2,1,07,01,43,152,42,03,44,206,40,04,35,132,39,07,59,215,45,3*71
$GBGSV,2,2,07,08,54,270,31,10,61,243,44,13,45,263,43,3*4D
$GBGSV,2,1,05,05,08,256,,14,17,041,,15,33,192,,30,14,303,,0*73
$GBGSV,2,2,05,30,14,303,,0*44
$GNRMC,050558.00,A,3726.9520944,N,12639.1805020,E,0.007,,210622,,,R,V*0E
$GNVTG,,T,,M,0.007,N,0.013,K,D*3D
$GNGNS,050558.00,3726.9520944,N,12639.1805020,E,RRRR,27,0.65,15.894,17.835,16.0,4095,V*37
$GNGGA,050558.00,3726.9520944,N,12639.1805020,E,4,12,0.65,15.894,M,17.835,M,16.0,4095*64
$GNGSA,A,3,17,03,19,20,04,06,14,09,,,,,1.20,0.65,1.01,1*00
$GNGSA,A,3,72,71,85,,,,,,,,,,1.20,0.65,1.01,2*0C
$GNGSA,A,3,15,03,08,21,13,,,,,,,,1.20,0.65,1.01,3*0D
$GNGSA,A,3,07,28,08,04,13,03,02,27,10,33,01,,1.20,0.65,1.01,4*03
$GPGSV,3,1,11,03,22,044,39,04,27,079,45,06,59,316,43,09,32,117,40,1*63
$GPGSV,3,2,11,12,21,313,18,14,14,184,32,17,67,117,46,19,82,020,46,1*61
$GPGSV,3,3,11,20,17,228,33,28,,,37,50,47,179,38,1*64
$GPGSV,2,1,06,03,22,044,39,04,27,079,40,06,59,316,39,09,32,117,40,6*6B
$GPGSV,2,2,06,14,14,184,28,17,67,117,41,6*67
$GPGSV,1,1,03,01,00,080,,02,22,282,,11,27,277,,0*52
$GLGSV,2,1,05,71,57,079,48,72,42,163,39,76,10,227,27,85,17,093,45,1*77
$GLGSV,2,2,05,87,34,320,13,1*46
$GLGSV,2,1,05,71,57,079,42,72,42,163,42,76,10,227,30,77,21,275,09,3*7F
$GLGSV,2,2,05,85,17,093,37,3*4A
$GLGSV,1,1,04,65,01,190,,70,19,031,,78,10,329,,86,51,051,,0*72
$GAGSV,2,1,05,03,24,056,44,08,38,116,42,13,65,004,44,15,30,073,39,2*79
$GAGSV,2,2,05,21,37,245,35,2*41
$GAGSV,2,1,06,03,24,056,41,08,38,116,40,13,65,004,45,15,30,073,45,7*72
$GAGSV,2,2,06,18,19,126,43,21,37,245,31,7*70
$GAGSV,1,1,04,01,26,301,,07,16,169,,26,30,289,,27,15,193,,0*77
$GBGSV,3,1,11,01,43,152,35,02,28,236,31,03,44,206,39,04,35,132,39,1*7A
$GBGSV,3,2,11,07,59,215,37,08,54,270,28,10,61,243,38,13,45,263,41,1*71
$GNRMC,050559.00,A,3726.9520961,N,12639.1805022,E,0.003,,210622,,,R,V*0E
$GNVTG,,T,,M,0.003,N,0.006,K,D*3D
$GNGNS,050559.00,3726.9520961,N,12639.1805022,E,RRRR,27,0.65,15.890,17.835,17.0,4095,V*36
$GNGGA,050559.00,3726.9520961,N,12639.1805022,E,4,12,0.65,15.890,M,17.835,M,17.0,4095*65
$GNGSA,A,3,17,03,19,20,04,06,14,09,,,,,1.20,0.65,1.01,1*00
$GNGSA,A,3,72,71,85,,,,,,,,,,1.20,0.65,1.01,2*0C
$GNGSA,A,3,15,03,08,21,13,,,,,,,,1.20,0.65,1.01,3*0D
$GNGSA,A,3,07,28,08,04,13,03,02,27,10,33,01,,1.20,0.65,1.01,4*03
$GPGSV,3,1,11,03,22,044,38,04,27,079,45,06,59,316,43,09,32,117,41,1*63
$GPGSV,3,2,11,12,21,313,20,14,14,184,32,17,67,117,46,19,82,020,46,1*6A
$GPGSV,3,3,11,20,17,228,33,28,,,37,50,47,179,38,1*64
$GPGSV,2,1,06,03,22,044,37,04,27,079,39,06,59,316,38,09,32,117,39,6*64
$GPGSV,2,2,06,14,14,184,27,17,67,117,40,6*69
$GPGSV,1,1,03,01,00,080,,02,22,282,,11,27,277,,0*52
$GLGSV,2,1,05,71,57,079,48,72,42,163,39,76,10,227,25,85,17,093,46,1*76
$GLGSV,2,2,05,87,34,320,09,1*4D
$GLGSV,2,1,05,71,57,079,42,72,42,163,42,76,10,227,30,77,21,275,10,3*77
$GLGSV,2,2,05,85,17,093,37,3*4A
$GLGSV,1,1,04,65,01,190,,70,19,031,,78,10,329,,86,51,051,,0*72
$GAGSV,2,1,05,03,24,056,44,08,38,116,42,13,65,004,44,15,30,073,39,2*79
$GAGSV,2,2,05,21,37,245,35,2*41
$GAGSV,2,1,06,03,24,056,41,08,38,116,40,13,65,004,45,15,30,073,45,7*72
$GAGSV,2,2,06,18,19,126,43,21,37,245,30,7*71
$GAGSV,1,1,04,01,26,301,,07,16,169,,26,30,289,,27,15,193,,0*77
$GBGSV,3,1,11,01,43,152,35,02,28,236,30,03,44,206,39,04,35,132,39,1*7B
