$GNRMC,050219.00,A,3726.9323259,N,12639.3475441,E,0.026,,220622,,,R,V*04
$GNVTG,,T,,M,0.026,N,0.048,K,D*30
$GNGNS,050219.00,3726.9323259,N,12639.3475441,E,RRRR,27,0.59,20.675,17.841,,4095,V*2F
$GNGGA,050219.00,3726.9323259,N,12639.3475441,E,4,12,0.59,20.675,M,17.841,M,,4095*7C
$GNGSA,A,3,06,03,19,17,14,02,11,,,,,,1.13,0.59,0.96,1*0D
$GNGSA,A,3,78,87,88,71,65,72,,,,,,,1.13,0.59,0.96,2*02
$GNGSA,A,3,15,36,34,02,30,,,,,,,,1.13,0.59,0.96,3*04
$GNGSA,A,3,03,07,10,28,08,02,14,01,13,,,,1.13,0.59,0.96,4*07
$GPGSV,4,1,13,02,22,282,38,03,22,044,37,06,59,315,44,09,32,118,26,1*6C
$GPGSV,4,2,13,11,26,277,40,12,20,313,29,14,15,184,34,17,67,117,44,1*62
$GPGSV,4,3,13,19,82,020,45,20,18,228,22,28,,,38,41,27,238,45,1*5A
$GPGSV,4,4,13,50,47,179,35,1*59
$GPGSV,2,1,06,03,22,044,37,06,59,315,27,11,26,277,39,12,20,313,28,6*6F
$GPGSV,2,2,06,14,15,184,31,17,67,117,36,6*6E
$GPGSV,1,1,03,01,00,079,,04,27,080,,40,06,259,,0*5C
$GLGSV,2,1,06,65,46,161,37,71,17,030,29,72,56,073,47,78,22,278,29,1*7E
$GLGSV,2,2,06,87,54,037,43,88,40,324,39,1*78
$GLGSV,2,1,05,65,46,161,27,71,17,030,29,72,56,073,39,78,22,278,40,3*78
$GLGSV,2,2,05,88,40,324,40,3*4A
$GLGSV,1,1,03,77,08,225,,79,10,329,,86,13,095,,0*40
$GAGSV,2,1,08,02,25,208,33,05,33,140,16,09,34,077,23,15,15,282,30,2*71
$GAGSV,2,2,08,18,70,307,45,30,37,267,44,34,58,319,39,36,48,059,43,2*78
$GAGSV,2,1,08,02,25,208,34,05,33,140,20,09,34,077,27,15,15,282,33,7*71
$GAGSV,2,2,08,18,70,307,46,30,37,267,46,34,58,319,38,36,48,059,44,7*7A
$GAGSV,1,1,04,03,03,182,,04,05,033,,11,05,085,,27,12,320,,0*75
$GBGSV,3,1,09,01,43,152,38,02,28,236,41,03,44,206,39,07,59,215,27,1*79
$GBGSV,3,2,09,08,53,271,46,10,61,242,40,13,45,263,42,14,63,098,43,1*74
$GBGSV,3,3,09,28,55,320,48,1*48
$GBGSV,3,1,09,01,43,152,39,02,28,236,35,03,44,206,40,07,59,215,32,3*73
$GBGSV,3,2,09,08,53,271,44,10,61,242,40,11,31,101,19,13,45,263,38,3*75
$GBGSV,3,3,09,14,63,098,45,3*4D
$GBGSV,2,1,05,04,35,132,,05,08,256,,21,02,035,,23,03,216,,0*7F
$GBGSV,2,2,05,23,03,216,,0*45
$GNRMC,050220.00,A,3726.9323242,N,12639.3475421,E,0.014,,220622,,,R,V*03
$GNVTG,,T,,M,0.014,N,0.026,K,D*39
$GNGNS,050220.00,3726.9323242,N,12639.3475421,E,RRRR,27,0.59,20.679,17.841,,4095,V*25
$GNGGA,050220.00,3726.9323242,N,12639.3475421,E,4,12,0.59,20.679,M,17.841,M,,4095*76
$GNGSA,A,3,06,03,19,17,14,02,11,,,,,,1.13,0.59,0.96,1*0D
$GNGSA,A,3,78,87,88,71,65,72,,,,,,,1.13,0.59,0.96,2*02
$GNGSA,A,3,15,36,34,02,30,,,,,,,,1.13,0.59,0.96,3*04
$GNGSA,A,3,03,07,10,28,08,02,14,01,13,,,,1.13,0.59,0.96,4*07
$GPGSV,4,1,13,02,22,282,36,03,22,044,39,06,59,315,43,09,32,118,27,1*6A
$GPGSV,4,2,13,11,26,277,40,12,20,313,29,14,15,184,34,17,67,117,42,1*64
$GPGSV,4,3,13,19,82,020,45,20,18,228,23,28,,,38,41,27,238,46,1*58
$GPGSV,4,4,13,50,47,179,38,1*54
$GPGSV,2,1,07,03,22,044,37,06,59,315,28,11,26,277,39,12,20,313,28,6*61
$GPGSV,2,2,07,14,15,184,30,17,67,117,36,19,82,020,15,6*5A
$GPGSV,1,1,03,01,00,079,,04,27,080,,40,06,259,,0*5C
$GLGSV,2,1,06,65,46,161,36,71,17,030,30,72,55,071,47,78,22,278,28,1*77
$GLGSV,2,2,06,87,54,037,44,88,40,324,39,1*7F
$GLGSV,2,1,05,65,46,161,30,71,17,030,30,72,55,071,39,78,22,278,39,3*79
$GLGSV,2,2,05,88,40,324,40,3*4A
$GLGSV,1,1,03,77,08,225,,79,10,329,,86,13,095,,0*40
$GAGSV,2,1,08,02,25,208,34,05,33,140,15,09,34,077,24,15,15,282,29,2*7A
$GAGSV,2,2,08,18,70,307,46,30,37,267,44,34,58,319,40,36,48,059,43,2*75
$GAGSV,2,1,08,02,25,208,34,05,33,140,19,09,34,077,27,15,15,282,35,7*7D
$GAGSV,2,2,08,18,70,307,45,30,37,267,45,34,58,319,37,36,48,059,45,7*74
$GAGSV,1,1,04,03,03,182,,04,05,033,,11,05,085,,27,12,320,,0*75
$GBGSV,3,1,09,01,43,152,37,02,28,236,42,03,44,206,40,07,59,215,25,1*79
$GBGSV,3,2,09,08,53,271,46,10,61,242,40,13,45,263,40,14,63,098,42,1*77
$GBGSV,3,3,09,28,55,320,48,1*48
$GBGSV,3,1,09,01,43,152,37,02,28,236,32,03,44,206,39,07,59,215,31,3*77
$GBGSV,3,2,09,08,53,271,43,10,61,242,39,11,31,101,18,13,45,263,36,3*73
$GBGSV,3,3,09,14,63,098,43,3*4B
$GBGSV,2,1,05,04,35,132,,05,08,256,,21,02,035,,23,03,216,,0*7F
$GBGSV,2,2,05,23,03,216,,0*45
$GNRMC,050221.00,A,3726.9323264,N,12639.3475373,E,0.007,,220622,,,R,V*04
$GNVTG,,T,,M,0.007,N,0.014,K,D*3A
$GNGNS,050221.00,3726.9323264,N,12639.3475373,E,RRRR,27,0.59,20.678,17.841,,4095,V*21
$GNGGA,050221.00,3726.9323264,N,12639.3475373,E,4,12,0.59,20.678,M,17.841,M,,4095*72
$GNGSA,A,3,06,03,19,17,14,02,11,,,,,,1.13,0.59,0.96,1*0D
$GNGSA,A,3,78,87,88,71,65,72,,,,,,,1.13,0.59,0.96,2*02
$GNGSA,A,3,15,36,34,02,30,,,,,,,,1.13,0.59,0.96,3*04
$GNGSA,A,3,03,07,10,28,08,02,14,01,13,,,,1.13,0.59,0.96,4*07
$GPGSV,4,1,13,02,22,282,39,03,22,044,38,06,59,315,44,09,32,118,26,1*62
$GPGSV,4,2,13,11,26,277,42,12,20,313,30,14,15,184,34,17,67,117,43,1*6F
$GPGSV,4,3,13,19,82,020,44,20,18,228,19,28,,,39,41,27,238,46,1*51
$GPGSV,4,4,13,50,47,179,37,1*5B
$GPGSV,2,1,07,03,22,044,36,06,59,315,29,11,26,277,37,12,20,313,27,6*60
$GPGSV,2,2,07,14,15,184,29,17,67,117,36,19,82,020,12,6*55
$GPGSV,1,1,03,01,00,079,,04,27,080,,40,06,259,,0*5C
$GLGSV,2,1,06,65,46,161,36,71,17,030,29,72,55,071,47,78,22,278,32,1*74
$GLGSV,2,2,06,87,54,037,44,88,40,324,38,1*7E
$GLGSV,2,1,05,65,46,161,30,71,17,030,30,72,55,071,40,78,22,278,38,3*76
$GLGSV,2,2,05,88,40,324,40,3*4A
$GLGSV,1,1,03,77,08,225,,79,10,329,,86,13,095,,0*40
$GAGSV,2,1,08,02,25,208,34,05,33,140,17,09,34,077,24,15,15,282,28,2*79
$GAGSV,2,2,08,18,70,307,45,30,37,267,43,34,58,319,39,36,48,059,44,2*78
$GAGSV,2,1,08,02,25,208,37,05,33,140,19,09,34,077,27,15,15,282,35,7*7E
$GAGSV,2,2,08,18,70,307,45,30,37,267,45,34,58,319,38,36,48,059,44,7*7A
$GAGSV,1,1,04,03,03,182,,04,05,033,,11,05,085,,27,12,320,,0*75
$GBGSV,3,1,09,01,43,152,37,02,28,236,42,03,44,206,39,07,59,215,23,1*71
$GBGSV,3,2,09,08,53,271,47,10,61,242,40,13,45,263,42,14,63,098,42,1*74
$GBGSV,3,3,09,28,55,320,48,1*48
$GBGSV,3,1,09,01,43,152,37,02,28,236,33,03,44,206,38,07,59,215,32,3*74
$GBGSV,3,2,09,08,53,271,42,10,61,242,39,11,31,101,17,13,45,263,35,3*7E
$GBGSV,3,3,09,14,63,098,44,3*4C
$GBGSV,2,1,05,04,35,132,,05,08,256,,21,02,035,,23,03,216,,0*7F
$GBGSV,2,2,05,23,03,216,,0*45
$GNRMC,050222.00,A,3726.9323248,N,12639.3475378,E,0.009,,220622,,,R,V*0C
$GNVTG,,T,,M,0.009,N,0.016,K,D*36
$GNGNS,050222.00,3726.9323248,N,12639.3475378,E,RRRR,27,0.59,20.677,17.841,,4095,V*28
$GNGGA,050222.00,3726.9323248,N,12639.3475378,E,4,12,0.59,20.677,M,17.841,M,,4095*7B
$GNGSA,A,3,06,03,19,17,14,02,11,,,,,,1.13,0.59,0.96,1*0D
$GNGSA,A,3,78,87,88,71,65,72,,,,,,,1.13,0.59,0.96,2*02
$GNGSA,A,3,15,36,34,02,30,,,,,,,,1.13,0.59,0.96,3*04
$GNGSA,A,3,03,07,10,28,08,02,14,01,13,,,,1.13,0.59,0.96,4*07
$GPGSV,4,1,13,02,22,282,39,03,22,044,38,06,59,315,45,09,32,118,27,1*62
$GPGSV,4,2,13,11,26,277,43,12,20,313,31,14,15,184,35,17,67,117,43,1*6E
$GPGSV,4,3,13,19,82,020,44,20,18,228,17,28,,,39,41,27,238,46,1*5F
$GPGSV,4,4,13,50,47,179,37,1*5B
$GPGSV,2,1,07,03,22,044,37,06,59,315,29,11,26,277,38,12,20,313,27,6*6E
$GPGSV,2,2,07,14,15,184,28,17,67,117,36,19,82,020,08,6*5F
$GPGSV,1,1,03,01,00,079,,04,27,080,,40,06,259,,0*5C
$GLGSV,2,1,06,65,46,161,36,71,17,030,29,72,55,071,47,78,22,278,30,1*76
$GLGSV,2,2,06,87,54,037,44,88,40,324,36,1*70
$GLGSV,2,1,05,65,46,161,29,71,17,030,30,72,55,071,40,78,22,278,39,3*7F
$GLGSV,2,2,05,88,40,324,39,3*44
$GLGSV,1,1,03,77,08,225,,79,10,329,,86,13,095,,0*40
$GAGSV,2,1,08,02,25,208,35,05,33,140,18,09,34,077,24,15,15,282,29,2*76
$GAGSV,2,2,08,18,70,307,46,30,37,267,44,34,58,319,40,36,48,059,45,2*73
$GAGSV,2,1,08,02,25,208,36,05,33,140,19,09,34,077,27,15,15,282,35,7*7F
$GAGSV,2,2,08,18,70,307,45,30,37,267,46,34,58,319,37,36,48,059,44,7*76
$GAGSV,1,1,04,03,03,182,,04,05,033,,11,05,085,,27,12,320,,0*75
$GBGSV,3,1,09,01,43,152,36,02,28,236,42,03,44,206,39,07,59,215,23,1*70
$GBGSV,3,2,09,08,53,271,47,10,61,242,40,13,45,263,41,14,63,098,42,1*77
$GBGSV,3,3,09,28,55,320,47,1*47
$GBGSV,3,1,09,01,43,152,37,02,28,236,34,03,44,206,37,07,59,215,32,3*7C
$GBGSV,3,2,09,08,53,271,43,10,61,242,39,11,31,101,18,13,45,263,35,3*70
$GBGSV,3,3,09,14,63,098,44,3*4C
$GNRMC,050223.00,A,3726.9323250,N,12639.3475389,E,0.007,,220622,,,R,V*04
$GNVTG,,T,,M,0.007,N,0.013,K,D*3D
$GNGNS,050223.00,3726.9323250,N,12639.3475389,E,RRRR,27,0.59,20.675,17.841,,4095,V*2C
$GNGGA,050223.00,3726.9323250,N,12639.3475389,E,4,12,0.59,20.675,M,17.841,M,,4095*7F
$GNGSA,A,3,06,03,19,17,14,02,11,,,,,,1.13,0.59,0.96,1*0D
$GNGSA,A,3,78,87,88,71,65,72,,,,,,,1.13,0.59,0.96,2*02
$GNGSA,A,3,15,36,34,02,30,,,,,,,,1.13,0.59,0.96,3*04
$GNGSA,A,3,03,07,10,28,08,02,14,01,13,,,,1.13,0.59,0.96,4*07
$GPGSV,4,1,13,02,22,282,39,03,22,044,38,06,59,315,45,09,32,118,27,1*62
$GPGSV,4,2,13,11,26,277,41,12,20,313,30,14,15,184,35,17,67,117,43,1*6D
$GPGSV,4,3,13,19,82,020,44,20,18,228,20,28,,,38,41,27,238,46,1*5A
$GPGSV,4,4,13,50,47,179,36,1*5A
$GPGSV,2,1,07,03,22,044,38,06,59,315,28,09,32,118,18,11,26,277,40,6*63
$GPGSV,2,2,07,12,20,313,28,14,15,184,29,17,67,117,36,6*5C
$GPGSV,1,1,03,01,00,079,,04,27,080,,40,06,259,,0*5C
$GLGSV,2,1,06,65,46,161,36,71,17,030,28,72,55,071,47,78,22,278,29,1*7F
$GLGSV,2,2,06,87,54,037,43,88,40,324,39,1*78
$GLGSV,2,1,05,65,46,161,29,71,17,030,30,72,55,071,40,78,22,278,39,3*7F
$GLGSV,2,2,05,88,40,324,39,3*44
$GLGSV,1,1,03,77,08,225,,79,10,329,,86,13,095,,0*40
$GAGSV,2,1,08,02,25,208,34,05,33,140,18,09,34,077,25,15,15,282,29,2*76
$GAGSV,2,2,08,18,70,307,46,30,37,267,45,34,58,319,40,36,48,059,45,2*72
$GAGSV,2,1,08,02,25,208,32,05,33,140,19,09,34,077,27,15,15,282,35,7*7B
$GAGSV,2,2,08,18,70,307,46,30,37,267,46,34,58,319,36,36,48,059,44,7*74
$GAGSV,1,1,04,03,03,182,,04,05,033,,11,05,085,,27,12,320,,0*75
$GBGSV,3,1,09,01,43,152,37,02,28,236,42,03,44,206,39,07,59,215,23,1*71
$GBGSV,3,2,09,08,53,271,47,10,61,242,40,13,45,263,41,14,63,098,44,1*71
$GBGSV,3,3,09,28,55,320,47,1*47
$GBGSV,3,1,09,01,43,152,37,02,28,236,34,03,44,206,37,07,59,215,31,3*7F
$GBGSV,3,2,09,08,53,271,43,10,61,242,39,11,31,101,19,13,45,263,35,3*71
$GBGSV,3,3,09,14,63,098,45,3*4D
$GNRMC,050224.00,A,3726.9323214,N,12639.3475414,E,0.006,,220622,,,R,V*01
$GNVTG,,T,,M,0.006,N,0.011,K,D*3E
$GNGNS,050224.00,3726.9323214,N,12639.3475414,E,RRRR,27,0.59,20.674,17.841,,4095,V*29
$GNGGA,050224.00,3726.9323214,N,12639.3475414,E,4,12,0.59,20.674,M,17.841,M,,4095*7A
$GNGSA,A,3,06,03,19,17,14,02,11,,,,,,1.13,0.59,0.96,1*0D
$GNGSA,A,3,78,87,88,71,65,72,,,,,,,1.13,0.59,0.96,2*02
$GNGSA,A,3,15,36,34,02,30,,,,,,,,1.13,0.59,0.96,3*04
$GNGSA,A,3,03,07,10,28,08,02,14,01,13,,,,1.13,0.59,0.96,4*07
$GPGSV,4,1,13,02,22,282,36,03,22,044,38,06,59,315,43,09,32,118,27,1*6B
$GPGSV,4,2,13,11,26,277,41,12,20,313,29,14,15,184,34,17,67,117,43,1*64
$GPGSV,4,3,13,19,82,020,44,20,18,228,30,28,,,38,41,27,238,46,1*5B
$GPGSV,4,4,13,50,47,179,35,1*59
$GPGSV,2,1,07,03,22,044,38,06,59,315,26,09,32,118,18,11,26,277,40,6*6D
$GPGSV,2,2,07,12,20,313,28,14,15,184,29,17,67,117,36,6*5C
$GPGSV,1,1,03,01,00,079,,04,27,080,,40,06,259,,0*5C
$GLGSV,2,1,06,65,46,161,38,71,17,030,27,72,55,071,47,78,22,278,28,1*7F
$GLGSV,2,2,06,87,54,037,43,88,40,324,38,1*79
$GLGSV,2,1,05,65,46,161,28,71,17,030,30,72,55,071,39,78,22,278,41,3*7F
$GLGSV,2,2,05,88,40,324,40,3*4A
$GLGSV,1,1,03,77,08,225,,79,10,329,,86,13,095,,0*40
$GAGSV,2,1,08,02,25,208,34,05,33,140,18,09,34,076,25,15,15,282,30,2*7F
$GAGSV,2,2,08,18,70,307,46,30,37,267,45,34,58,319,39,36,48,059,45,2*7C
$GAGSV,2,1,08,02,25,208,32,05,33,140,17,09,34,076,26,15,15,282,35,7*75
$GAGSV,2,2,08,18,70,307,46,30,37,267,46,34,58,319,35,36,48,059,45,7*76
$GAGSV,1,1,04,03,03,182,,04,05,033,,11,05,085,,27,12,320,,0*75
$GBGSV,3,1,09,01,43,152,36,02,28,236,41,03,44,206,39,07,59,215,24,1*74
$GBGSV,3,2,09,08,53,271,46,10,61,242,40,13,45,263,40,14,63,098,44,1*71
$GBGSV,3,3,09,28,55,320,48,1*48
$GBGSV,3,1,09,01,43,152,38,02,28,236,37,03,44,206,40,07,59,215,30,3*72
$GBGSV,3,2,09,08,53,271,44,10,61,242,40,11,31,101,21,13,45,263,37,3*71
$GBGSV,3,3,09,14,63,098,45,3*4D
$GBGSV,2,1,05,04,35,132,,05,08,256,,21,02,035,,23,03,216,,0*7F
$GBGSV,2,2,05,23,03,216,,0*45
$GNRMC,050225.00,A,3726.9323236,N,12639.3475428,E,0.012,,220622,,,R,V*0A
$GNVTG,,T,,M,0.012,N,0.023,K,D*3A
$GNGNS,050225.00,3726.9323236,N,12639.3475428,E,RRRR,27,0.59,20.669,17.841,,4095,V*2B
$GNGGA,050225.00,3726.9323236,N,12639.3475428,E,4,12,0.59,20.669,M,17.841,M,,4095*78
$GNGSA,A,3,06,03,19,17,14,02,11,,,,,,1.13,0.59,0.96,1*0D
$GNGSA,A,3,78,87,88,71,65,72,,,,,,,1.13,0.59,0.96,2*02
$GNGSA,A,3,15,36,34,02,30,,,,,,,,1.13,0.59,0.96,3*04
$GNGSA,A,3,03,07,10,28,08,02,14,01,13,,,,1.13,0.59,0.96,4*07
$GPGSV,4,1,13,02,22,282,38,03,22,044,38,06,59,315,42,09,32,118,26,1*65
$GPGSV,4,2,13,11,26,277,42,12,20,313,29,14,15,184,34,17,67,117,44,1*60
$GPGSV,4,3,13,19,82,020,44,20,18,228,32,28,,,39,41,27,238,46,1*58
$GPGSV,4,4,13,50,47,179,34,1*58
$GPGSV,2,1,07,03,22,044,37,06,59,315,27,09,32,118,18,11,26,277,40,6*63
$GPGSV,2,2,07,12,20,313,27,14,15,184,29,17,67,117,36,6*53
$GPGSV,1,1,03,01,00,079,,04,27,080,,40,06,259,,0*5C
$GLGSV,2,1,06,65,46,161,38,71,17,030,27,72,55,071,47,78,22,278,28,1*7F
$GLGSV,2,2,06,87,54,037,44,88,40,324,39,1*7F
$GLGSV,2,1,05,65,46,161,28,71,17,030,31,72,55,071,39,78,22,278,41,3*7E
$GLGSV,2,2,05,88,40,324,40,3*4A
$GLGSV,1,1,03,77,08,224,,79,10,329,,86,13,095,,0*41
$GAGSV,2,1,08,02,25,208,34,05,33,140,17,09,34,076,25,15,15,282,30,2*70
$GAGSV,2,2,08,18,70,307,46,30,37,267,45,34,58,319,40,36,48,059,45,2*72
$GAGSV,2,1,07,02,25,208,33,09,34,076,26,15,15,282,36,18,70,307,46,7*76
$GAGSV,2,2,07,30,37,267,46,34,58,319,35,36,48,059,45,7*41
$GAGSV,1,1,04,03,03,182,,04,05,033,,11,05,085,,27,13,320,,0*74
$GBGSV,3,1,09,01,43,152,36,02,28,236,41,03,44,206,40,07,59,215,26,1*78
$GBGSV,3,2,09,08,53,271,46,10,61,242,40,13,45,263,41,14,63,098,44,1*70
$GBGSV,3,3,09,28,55,320,48,1*48
$GBGSV,3,1,09,01,43,152,38,02,28,236,37,03,44,206,40,07,59,215,30,3*72
$GBGSV,3,2,09,08,53,271,44,10,61,242,40,11,31,101,22,13,45,263,36,3*73
$GBGSV,3,3,09,14,63,098,45,3*4D
$GBGSV,2,1,05,04,35,132,,05,08,256,,21,02,035,,23,03,216,,0*7F
$GBGSV,2,2,05,23,03,216,,0*45
$GNRMC,050226.00,A,3726.9323240,N,12639.3475388,E,0.013,,220622,,,R,V*04
$GNVTG,,T,,M,0.013,N,0.024,K,D*3C
$GNGNS,050226.00,3726.9323240,N,12639.3475388,E,RRRR,27,0.59,20.675,17.841,,4095,V*29
$GNGGA,050226.00,3726.9323240,N,12639.3475388,E,4,12,0.59,20.675,M,17.841,M,,4095*7A
$GNGSA,A,3,06,03,19,17,14,02,11,,,,,,1.13,0.59,0.96,1*0D
$GNGSA,A,3,78,87,88,71,65,72,,,,,,,1.13,0.59,0.96,2*02
$GNGSA,A,3,15,36,34,02,30,,,,,,,,1.13,0.59,0.96,3*04
$GNGSA,A,3,03,07,10,28,08,02,14,01,13,,,,1.13,0.59,0.96,4*07
$GPGSV,4,1,13,02,22,282,39,03,22,044,38,06,59,315,43,09,32,118,25,1*66
$GPGSV,4,2,13,11,26,277,42,12,20,313,33,14,15,184,34,17,67,117,44,1*6B
$GPGSV,4,3,13,19,82,020,44,20,18,228,32,28,,,39,41,27,238,46,1*58
$GPGSV,4,4,13,50,47,179,34,1*58
$GPGSV,2,1,07,03,22,044,37,06,59,315,28,09,32,118,18,11,26,277,40,6*6C
$GPGSV,2,2,07,12,20,313,28,14,15,184,29,17,67,117,36,6*5C
$GPGSV,1,1,03,01,00,079,,04,27,080,,40,06,259,,0*5C
$GLGSV,2,1,06,65,46,161,38,71,17,030,28,72,55,071,47,78,21,278,28,1*73
$GLGSV,2,2,06,87,54,037,44,88,40,324,39,1*7F
$GLGSV,2,1,05,65,46,161,28,71,17,030,31,72,55,071,40,78,21,278,41,3*73
$GLGSV,2,2,05,88,40,324,40,3*4A
$GLGSV,1,1,03,77,08,224,,79,10,329,,86,13,095,,0*41
$GAGSV,2,2,08,18,70,307,46,30,37,267,45,34,58,319,40,36,48,059,45,2*72
$GAGSV,2,1,07,02,25,208,34,09,34,076,26,15,15,282,35,18,70,307,46,7*72
$GAGSV,2,2,07,30,37,267,46,34,58,319,36,36,48,059,45,7*42
$GAGSV,1,1,04,03,03,182,,04,05,033,,11,05,085,,27,13,320,,0*74
$GBGSV,3,1,09,01,43,152,36,02,28,236,41,03,44,206,39,07,59,215,27,1*77
$GNRMC,050227.00,A,3726.9323256,N,12639.3475447,E,0.018,,220622,,,R,V*0D
$GNVTG,,T,,M,0.018,N,0.033,K,D*31
$GNGNS,050227.00,3726.9323256,N,12639.3475447,E,RRRR,27,0.59,20.677,17.841,,4095,V*29
$GNGGA,050227.00,3726.9323256,N,12639.3475447,E,4,12,0.59,20.677,M,17.841,M,,4095*7A
$GNGSA,A,3,06,03,19,17,14,02,11,,,,,,1.13,0.59,0.96,1*0D
$GNGSA,A,3,78,87,88,71,65,72,,,,,,,1.13,0.59,0.96,2*02
$GNGSA,A,3,15,36,34,02,30,,,,,,,,1.13,0.59,0.96,3*04
$GNGSA,A,3,03,07,10,28,08,02,14,01,13,,,,1.13,0.59,0.96,4*07
$GPGSV,4,1,13,02,22,282,39,03,22,044,39,06,59,315,43,09,32,118,25,1*67
$GPGSV,4,2,13,11,26,277,42,12,20,313,32,14,15,184,34,17,67,117,43,1*6D
$GPGSV,4,3,13,19,82,020,44,20,18,228,31,28,,,41,41,27,238,46,1*54
$GPGSV,4,4,13,50,47,179,34,1*58
$GPGSV,2,1,07,03,22,044,37,06,59,315,30,09,32,118,19,11,26,277,40,6*64
$GPGSV,2,2,07,12,20,313,29,14,15,184,29,17,67,117,36,6*5D
$GPGSV,1,1,03,01,00,079,,04,27,080,,40,06,259,,0*5C
$GLGSV,2,1,06,65,46,161,38,71,17,030,29,72,55,071,47,78,21,278,31,1*7A
$GLGSV,2,2,06,87,54,037,43,88,40,324,40,1*76
$GLGSV,2,1,05,65,46,161,27,71,17,030,31,72,55,071,40,78,21,278,42,3*7F
$GLGSV,2,2,05,88,40,324,39,3*44
$GLGSV,1,1,03,77,08,224,,79,10,328,,86,13,095,,0*40
$GAGSV,2,1,08,02,25,208,35,05,33,140,17,09,34,076,25,15,15,282,30,2*71
$GAGSV,2,2,08,18,70,307,46,30,37,267,45,34,58,319,40,36,48,059,45,2*72
$GAGSV,2,1,07,02,25,208,33,09,34,076,26,15,15,282,35,18,70,307,46,7*75
$GAGSV,2,2,07,30,37,267,46,34,58,319,36,36,48,059,45,7*42
$GAGSV,1,1,04,03,03,182,,04,05,033,,11,05,085,,27,13,320,,0*74
$GBGSV,3,1,09,01,43,152,36,02,28,236,41,03,44,206,39,07,59,215,27,1*77
$GBGSV,3,2,09,08,53,271,46,10,61,242,40,13,45,263,41,14,63,098,44,1*70
$GBGSV,3,3,09,28,55,320,47,1*47
$GBGSV,3,1,09,01,43,152,38,02,28,236,37,03,44,206,39,07,59,215,29,3*74
$GBGSV,3,2,09,08,53,271,44,10,61,242,39,11,31,101,21,13,45,263,36,3*7E
$GBGSV,3,3,09,14,63,098,46,3*4E
$GBGSV,2,1,05,04,35,132,,05,08,256,,21,02,035,,23,03,216,,0*7F
$GBGSV,2,2,05,23,03,216,,0*45
$GNRMC,050228.00,A,3726.9323247,N,12639.3475429,E,0.010,,220622,,,R,V*02
$GNVTG,,T,,M,0.010,N,0.018,K,D*30
$GNGNS,050228.00,3726.9323247,N,12639.3475429,E,RRRR,27,0.59,20.690,17.841,,4095,V*27
$GNGGA,050228.00,3726.9323247,N,12639.3475429,E,4,12,0.59,20.690,M,17.841,M,,4095*74
$GNGSA,A,3,06,03,19,17,14,02,11,,,,,,1.12,0.59,0.96,1*0C
$GNGSA,A,3,78,87,88,71,65,72,,,,,,,1.12,0.59,0.96,2*03
$GNGSA,A,3,15,36,34,02,30,,,,,,,,1.12,0.59,0.96,3*05
$GNGSA,A,3,03,07,10,28,08,02,14,01,13,,,,1.12,0.59,0.96,4*06
$GPGSV,4,1,13,02,22,282,38,03,22,044,39,06,59,315,43,09,32,118,25,1*66
$GPGSV,4,2,13,11,26,277,41,12,20,313,33,14,15,184,35,17,67,117,43,1*6E
$GPGSV,4,3,13,19,82,020,44,20,18,228,31,28,,,41,41,27,238,46,1*54
$GPGSV,4,4,13,50,47,179,36,1*5A
$GPGSV,2,1,07,03,22,044,37,06,59,315,31,09,32,118,20,11,26,277,39,6*61
$GPGSV,2,2,07,12,20,313,28,14,15,184,29,17,67,117,36,6*5C
$GPGSV,1,1,03,01,00,079,,04,27,080,,40,06,259,,0*5C
$GLGSV,2,1,06,65,46,161,38,71,17,030,30,72,55,071,47,78,21,278,33,1*70
$GLGSV,2,2,06,87,54,037,44,88,40,324,38,1*7E
$GLGSV,2,1,05,65,46,161,26,71,17,030,31,72,55,071,40,78,21,278,42,3*7E
$GLGSV,2,2,05,88,40,324,38,3*45
$GLGSV,1,1,03,77,08,224,,79,10,328,,86,13,095,,0*40
$GAGSV,2,1,08,02,25,208,35,05,33,140,16,09,34,076,24,15,15,282,30,2*71
$GAGSV,2,2,08,18,70,307,46,30,37,267,45,34,58,319,39,36,48,059,44,2*7D
$GAGSV,2,1,07,02,25,208,33,09,34,076,26,15,15,282,36,18,70,307,46,7*76
$GAGSV,2,2,07,30,37,267,46,34,58,319,37,36,48,059,45,7*43
$GAGSV,1,1,04,03,03,182,,04,05,033,,11,05,085,,27,13,320,,0*74
$GBGSV,3,1,09,01,43,152,35,02,28,236,41,03,44,206,39,07,59,215,26,1*75
$GBGSV,3,2,09,08,53,271,46,10,61,242,40,13,45,263,41,14,63,097,43,1*78
$GBGSV,3,3,09,28,55,320,46,1*46
$GBGSV,3,1,09,01,43,152,38,02,28,236,37,03,44,206,39,07,59,215,28,3*75
$GBGSV,3,2,09,08,53,271,43,10,61,242,40,11,31,101,20,13,45,263,36,3*76
$GNRMC,050229.00,A,3726.9323227,N,12639.3475392,E,0.016,,220622,,,R,V*04
$GNVTG,,T,,M,0.016,N,0.029,K,D*34
$GNGNS,050229.00,3726.9323227,N,12639.3475392,E,RRRR,27,0.59,20.692,17.841,,4095,V*25
$GNGGA,050229.00,3726.9323227,N,12639.3475392,E,4,12,0.59,20.692,M,17.841,M,,4095*76
$GNGSA,A,3,06,03,19,17,14,02,11,,,,,,1.12,0.59,0.96,1*0C
$GNGSA,A,3,78,87,88,71,65,72,,,,,,,1.12,0.59,0.96,2*03
$GNGSA,A,3,15,36,34,02,30,,,,,,,,1.12,0.59,0.96,3*05
$GNGSA,A,3,03,07,10,28,08,02,14,01,13,,,,1.12,0.59,0.96,4*06
$GPGSV,4,1,13,02,22,282,39,03,22,044,39,06,59,315,44,09,32,118,25,1*60
$GPGSV,4,2,13,11,26,277,43,12,20,313,27,14,15,184,35,17,67,117,44,1*6E
$GPGSV,4,3,13,19,82,020,44,20,18,228,30,28,,,41,41,27,238,46,1*55
$GPGSV,4,4,13,50,47,179,35,1*59
$GPGSV,2,1,07,03,22,044,37,06,59,315,31,09,32,118,20,11,26,277,39,6*61
$GPGSV,2,2,07,12,20,313,28,14,15,184,28,17,67,117,37,6*5C
$GPGSV,1,1,03,01,00,079,,04,27,080,,40,06,259,,0*5C
$GLGSV,2,1,06,65,46,161,38,71,17,030,32,72,55,071,46,78,21,278,35,1*75
$GLGSV,2,2,06,87,54,037,44,88,40,324,39,1*7F
$GLGSV,2,1,05,65,46,161,25,71,17,030,31,72,55,071,40,78,21,278,42,3*7D
$GLGSV,2,2,05,88,40,324,38,3*45
$GLGSV,1,1,03,77,08,224,,79,10,328,,86,13,095,,0*40
$GAGSV,2,1,08,02,25,208,34,05,33,140,15,09,34,076,23,15,15,282,31,2*75
$GAGSV,2,2,08,18,70,307,46,30,37,267,44,34,58,319,39,36,48,059,44,2*7C
$GAGSV,2,1,07,02,25,208,34,09,34,076,26,15,15,282,35,18,70,307,46,7*72
$GAGSV,2,2,07,30,37,267,46,34,58,319,37,36,48,059,45,7*43
$GAGSV,1,1,04,03,03,182,,04,05,033,,11,05,085,,27,13,320,,0*74
$GBGSV,3,1,09,01,43,152,35,02,28,236,42,03,44,206,39,07,59,215,26,1*76
$GBGSV,3,2,09,08,53,271,46,10,61,242,39,13,45,263,41,14,63,097,43,1*76
$GBGSV,3,3,09,28,55,320,46,1*46
$GBGSV,3,1,09,01,43,152,38,02,28,236,37,03,44,206,37,07,59,215,29,3*7A
$GBGSV,3,2,09,08,53,271,43,10,61,242,39,11,31,101,19,13,45,263,36,3*72
$GBGSV,3,3,09,14,63,097,46,3*41
$GBGSV,2,1,05,04,35,132,,05,08,256,,21,02,035,,23,03,216,,0*7F
$GNRMC,050230.00,A,3726.9323249,N,12639.3475385,E,0.003,,220622,,,R,V*06
$GNVTG,,T,,M,0.003,N,0.006,K,D*3D
$GNGNS,050230.00,3726.9323249,N,12639.3475385,E,RRRR,27,0.59,20.674,17.841,,4095,V*2B
$GNGGA,050230.00,3726.9323249,N,12639.3475385,E,4,12,0.59,20.674,M,17.841,M,,4095*78
$GNGSA,A,3,06,03,19,17,14,02,11,,,,,,1.12,0.59,0.96,1*0C
$GNGSA,A,3,78,87,88,71,65,72,,,,,,,1.12,0.59,0.96,2*03
$GNGSA,A,3,15,36,34,02,30,,,,,,,,1.12,0.59,0.96,3*05
$GNGSA,A,3,03,07,10,28,08,02,14,01,13,,,,1.12,0.59,0.96,4*06
$GPGSV,4,1,13,02,22,282,38,03,22,044,39,06,59,315,44,09,32,118,25,1*61
$GPGSV,4,2,13,11,26,277,44,12,20,313,26,14,15,184,34,17,67,117,44,1*69
$GPGSV,4,3,13,19,82,020,44,20,18,228,29,28,,,40,41,27,238,46,1*5C
$GPGSV,4,4,13,50,47,179,35,1*59
$GPGSV,2,1,07,03,22,044,37,06,59,315,30,09,32,118,19,11,26,277,39,6*6A
$GPGSV,2,2,07,12,20,313,30,14,15,184,27,17,67,117,37,6*5A
$GPGSV,1,1,03,01,00,079,,04,27,080,,40,06,259,,0*5C
$GLGSV,2,1,06,65,46,161,38,71,17,030,32,72,55,071,46,78,21,278,37,1*77
$GLGSV,2,2,06,87,54,037,44,88,40,324,39,1*7F
$GLGSV,2,1,05,65,46,161,25,71,17,030,30,72,55,071,40,78,21,278,42,3*7C
$GLGSV,2,2,05,88,40,324,38,3*45
$GLGSV,1,1,03,77,08,224,,79,10,328,,86,13,095,,0*40
$GBGSV,3,1,09,01,43,152,38,02,28,236,37,03,44,206,37,07,59,215,30,3*72
$GBGSV,3,2,09,08,53,271,43,10,61,242,39,11,31,101,18,13,45,263,37,3*72
$GBGSV,3,3,09,14,63,097,46,3*41
$GBGSV,2,1,05,04,35,132,,05,08,256,,21,02,035,,23,03,216,,0*7F
$GBGSV,2,2,05,23,03,216,,0*45
$GNRMC,050231.00,A,3726.9323247,N,12639.3475399,E,0.001,,220622,,,R,V*06
$GNVTG,,T,,M,0.001,N,0.002,K,D*3B
$GNGNS,050231.00,3726.9323247,N,12639.3475399,E,RRRR,27,0.59,20.672,17.841,,4095,V*2F
$GNGGA,050231.00,3726.9323247,N,12639.3475399,E,4,12,0.59,20.672,M,17.841,M,,4095*7C
$GNGSA,A,3,06,03,19,17,14,02,11,,,,,,1.12,0.59,0.96,1*0C
$GNGSA,A,3,78,87,88,71,65,72,,,,,,,1.12,0.59,0.96,2*03
$GNGSA,A,3,15,36,34,02,30,,,,,,,,1.12,0.59,0.96,3*05
$GNGSA,A,3,03,07,10,28,08,02,14,01,13,,,,1.12,0.59,0.96,4*06
$GPGSV,4,1,13,02,22,282,36,03,22,044,38,06,59,315,43,09,32,118,26,1*6A
$GPGSV,4,2,13,11,26,277,43,12,20,313,27,14,15,184,32,17,67,117,44,1*69
$GPGSV,4,3,13,19,82,020,44,20,18,228,30,28,,,39,41,27,238,45,1*59
$GPGSV,4,4,13,50,47,179,36,1*5A
$GPGSV,2,1,07,03,22,044,37,06,59,315,29,09,32,118,19,11,26,277,39,6*62
$GPGSV,2,2,07,12,20,313,30,14,15,184,26,17,67,117,36,6*5A
$GPGSV,1,1,03,01,00,079,,04,27,080,,40,06,259,,0*5C
$GLGSV,2,1,06,65,46,161,38,71,17,030,33,72,55,071,46,78,21,278,37,1*76
$GLGSV,2,2,06,87,54,037,43,88,40,324,40,1*76
$GLGSV,2,1,05,65,46,161,25,71,17,030,31,72,55,071,40,78,21,278,42,3*7D
$GLGSV,2,2,05,88,40,324,39,3*44
$GLGSV,1,1,03,77,08,224,,79,10,328,,86,13,095,,0*40
$GAGSV,2,1,08,02,25,208,33,05,33,140,18,09,34,076,22,15,15,282,32,2*7D
$GAGSV,2,2,08,18,70,307,46,30,37,267,44,34,58,319,40,36,48,059,44,2*72
$GAGSV,2,1,07,02,25,208,35,09,34,076,25,15,15,282,33,18,70,307,46,7*76
$GAGSV,2,2,07,30,37,267,46,34,58,319,39,36,48,059,46,7*4E
$GAGSV,1,1,04,03,03,182,,04,05,033,,11,05,085,,27,13,320,,0*74
$GBGSV,3,1,09,01,43,152,36,02,28,236,41,03,44,206,39,07,59,215,28,1*78
$GBGSV,3,2,09,08,53,271,46,10,61,242,39,13,45,263,42,14,63,097,44,1*72
$GBGSV,3,3,09,28,55,320,47,1*47
$GBGSV,3,1,09,01,43,152,38,02,28,236,37,03,44,206,38,07,59,215,30,3*7D
$GBGSV,3,2,09,08,53,271,43,10,61,242,39,11,31,101,18,13,45,263,37,3*72
$GBGSV,3,3,09,14,63,097,46,3*41
$GBGSV,2,1,05,04,35,132,,05,08,256,,21,02,035,,23,03,216,,0*7F
$GBGSV,2,2,05,23,03,216,,0*45
$GNRMC,050232.00,A,3726.9323246,N,12639.3475400,E,0.020,,220622,,,R,V*00
$GNVTG,,T,,M,0.020,N,0.036,K,D*3F
$GNGNS,050232.00,3726.9323246,N,12639.3475400,E,RRRR,27,0.59,20.677,17.841,,4095,V*2F
$GNGGA,050232.00,3726.9323246,N,12639.3475400,E,4,12,0.59,20.677,M,17.841,M,,4095*7C
$GNGSA,A,3,06,03,19,17,14,02,11,,,,,,1.12,0.59,0.96,1*0C
$GNGSA,A,3,78,87,88,71,65,72,,,,,,,1.12,0.59,0.96,2*03
$GNGSA,A,3,15,36,34,02,30,,,,,,,,1.12,0.59,0.96,3*05
$GNGSA,A,3,03,07,10,28,08,02,14,01,13,,,,1.12,0.59,0.96,4*06
$GPGSV,4,1,13,02,22,282,36,03,22,044,38,06,59,315,43,09,32,118,25,1*69
$GPGSV,4,2,13,11,26,277,41,12,20,313,29,14,15,184,32,17,67,117,44,1*65
$GPGSV,4,3,13,19,82,020,44,20,18,228,30,28,,,39,41,27,238,45,1*59
$GPGSV,4,4,13,50,47,179,36,1*5A
$GPGSV,2,1,07,03,22,044,37,06,59,315,30,09,32,118,20,11,26,277,38,6*61
$GPGSV,2,2,07,12,20,313,31,14,15,184,26,17,67,117,36,6*5B
$GPGSV,1,1,03,01,00,079,,04,27,080,,40,06,259,,0*5C
$GLGSV,2,1,06,65,46,161,38,71,17,030,33,72,55,071,46,78,21,278,37,1*76
$GLGSV,2,2,06,87,54,037,43,88,40,324,40,1*76
$GLGSV,2,1,05,65,46,161,26,71,17,030,31,72,55,071,40,78,21,278,42,3*7E
$GLGSV,2,2,05,88,40,324,39,3*44
$GLGSV,1,1,03,77,08,224,,79,10,328,,86,13,095,,0*40
$GBGSV,3,2,09,08,53,271,46,10,61,242,39,13,45,263,42,14,63,097,43,1*75
$GBGSV,3,3,09,28,55,320,47,1*47
$GBGSV,3,1,09,01,43,152,38,02,28,236,37,03,44,206,38,07,59,215,30,3*7D
$GBGSV,3,2,09,08,53,271,43,10,61,242,39,11,31,101,17,13,45,263,37,3*7D
$GBGSV,3,3,09,14,63,097,46,3*41
$GBGSV,2,1,05,04,35,132,,05,08,256,,21,02,035,,23,03,216,,0*7F
$GBGSV,2,2,05,23,03,216,,0*45
$GNRMC,050233.00,A,3726.9323248,N,12639.3475372,E,0.005,,220622,,,R,V*0A
$GNVTG,,T,,M,0.005,N,0.010,K,D*3C
$GNGNS,050233.00,3726.9323248,N,12639.3475372,E,RRRR,27,0.59,20.660,17.841,,4095,V*24
$GNGGA,050233.00,3726.9323248,N,12639.3475372,E,4,12,0.59,20.660,M,17.841,M,,4095*77
$GNGSA,A,3,06,03,19,17,14,02,11,,,,,,1.12,0.59,0.96,1*0C
$GNGSA,A,3,78,87,88,71,65,72,,,,,,,1.12,0.59,0.96,2*03
$GNGSA,A,3,15,36,34,02,30,,,,,,,,1.12,0.59,0.96,3*05
$GNGSA,A,3,03,07,10,28,08,02,14,01,13,,,,1.12,0.59,0.96,4*06
$GPGSV,4,1,13,02,22,282,36,03,22,044,36,06,59,315,44,09,32,118,25,1*60
$GPGSV,4,2,13,11,26,277,43,12,20,313,17,14,15,184,33,17,67,117,44,1*6B
$GPGSV,4,3,13,19,82,020,44,20,18,228,30,28,,,38,41,27,238,46,1*5B
$GPGSV,4,4,13,50,47,179,37,1*5B
$GPGSV,2,1,07,03,22,044,37,06,59,315,31,09,32,118,20,11,26,277,37,6*6F
$GPGSV,2,2,07,12,20,313,32,14,15,184,25,17,67,117,37,6*5A
$GPGSV,1,1,03,01,00,079,,04,27,080,,40,06,259,,0*5C
$GLGSV,2,1,06,65,46,161,38,71,17,030,33,72,55,071,45,78,21,278,37,1*75
$GLGSV,2,2,06,87,54,037,43,88,40,324,40,1*76
$GLGSV,2,1,05,65,46,161,25,71,17,030,30,72,55,071,40,78,21,278,42,3*7C
$GLGSV,2,2,05,88,40,324,39,3*44
$GLGSV,1,1,03,77,08,224,,79,10,328,,86,13,095,,0*40
$GAGSV,2,1,08,02,25,208,33,05,33,140,18,09,34,076,22,15,15,282,31,2*7E
$GAGSV,2,2,08,18,70,307,46,30,37,267,44,34,58,319,40,36,48,059,44,2*72
$GAGSV,2,1,06,02,25,208,35,15,15,282,34,18,70,307,46,30,37,267,46,7*7E
$GAGSV,2,2,06,34,58,319,39,36,48,059,46,7*79
$GAGSV,1,1,04,03,03,182,,04,05,033,,11,05,085,,27,13,320,,0*74
$GBGSV,3,1,09,01,43,152,37,02,28,236,41,03,44,206,38,07,59,215,28,1*78
$GBGSV,3,2,09,08,53,271,46,10,61,242,39,13,45,263,43,14,63,097,43,1*74
$GBGSV,3,3,09,28,55,320,46,1*46
$GBGSV,3,1,09,01,43,152,38,02,28,236,38,03,44,206,36,07,59,215,31,3*7D
$GBGSV,3,2,09,08,53,271,43,10,61,242,38,11,31,101,16,13,45,263,37,3*7D
$GBGSV,3,3,09,14,63,097,46,3*41
$GBGSV,2,1,05,04,35,132,,05,08,256,,21,02,035,,23,03,216,,0*7F
$GBGSV,2,2,05,23,03,216,,0*45
$GNRMC,050234.00,A,3726.9323244,N,12639.3475367,E,0.004,,220622,,,R,V*04
$GNVTG,,T,,M,0.004,N,0.007,K,D*3B
$GNGNS,050234.00,3726.9323244,N,12639.3475367,E,RRRR,27,0.59,20.659,17.841,,4095,V*21
$GNGGA,050234.00,3726.9323244,N,12639.3475367,E,4,12,0.59,20.659,M,17.841,M,,4095*72
$GNGSA,A,3,06,03,19,17,14,02,11,,,,,,1.12,0.59,0.96,1*0C
$GNGSA,A,3,78,87,88,71,65,72,,,,,,,1.12,0.59,0.96,2*03
$GNGSA,A,3,15,36,34,02,30,,,,,,,,1.12,0.59,0.96,3*05
$GNGSA,A,3,03,07,10,28,08,02,14,01,13,,,,1.12,0.59,0.96,4*06
$GPGSV,4,1,13,02,22,282,35,03,22,044,36,06,59,315,44,09,32,118,26,1*60
$GPGSV,4,2,13,11,26,277,43,12,20,313,15,14,15,184,33,17,67,117,44,1*69
$GPGSV,4,3,13,19,82,020,44,20,18,228,30,28,,,40,41,27,238,45,1*57
$GPGSV,4,4,13,50,47,179,37,1*5B
$GPGSV,2,1,07,03,22,044,37,06,59,315,31,09,32,118,20,11,26,277,37,6*6F
$GPGSV,2,2,07,12,20,313,33,14,15,184,24,17,67,117,36,6*5B
$GPGSV,1,1,03,01,00,079,,04,27,080,,40,06,259,,0*5C
$GLGSV,2,1,06,65,46,161,38,71,17,030,33,72,55,071,45,78,21,278,37,1*75
$GLGSV,2,2,06,87,54,037,43,88,40,324,40,1*76
$GLGSV,2,1,05,65,46,161,25,71,17,030,29,72,55,071,40,78,21,278,41,3*77
$GLGSV,2,2,05,88,40,324,39,3*44
$GLGSV,1,1,03,77,08,224,,79,10,328,,86,12,096,,0*42
$GAGSV,2,1,08,02,25,208,32,05,33,140,19,09,34,076,22,15,15,282,32,2*7D
$GAGSV,2,2,08,18,70,307,47,30,37,267,44,34,58,319,41,36,48,059,44,2*72
$GAGSV,2,1,06,02,25,208,35,15,15,282,35,18,70,307,46,30,37,267,46,7*7F
$GAGSV,2,2,06,34,58,319,38,36,48,059,46,7*78
$GAGSV,1,1,04,03,03,182,,04,05,033,,11,05,085,,27,13,320,,0*74
$GBGSV,3,1,09,01,43,152,37,02,28,236,41,03,44,206,38,07,59,215,29,1*79
$GBGSV,3,2,09,08,53,271,46,10,61,242,39,13,45,263,43,14,63,097,43,1*74
$GBGSV,3,3,09,28,55,320,46,1*46
$GBGSV,2,1,08,01,43,152,38,02,28,236,38,03,44,206,36,07,59,215,31,3*7D
$GBGSV,2,2,08,08,53,271,43,10,61,242,38,13,45,263,37,14,63,097,46,3*74
$GBGSV,2,1,06,04,35,132,,05,08,256,,11,31,101,,21,02,035,,0*79
$GBGSV,2,2,06,21,02,035,,23,03,216,,0*71
$GNRMC,050235.00,A,3726.9323265,N,12639.3475377,E,0.003,,220622,,,R,V*00
$GNVTG,,T,,M,0.003,N,0.006,K,D*3D
$GNGNS,050235.00,3726.9323265,N,12639.3475377,E,RRRR,27,0.59,20.678,17.841,,4095,V*21
$GNGGA,050235.00,3726.9323265,N,12639.3475377,E,4,12,0.59,20.678,M,17.841,M,,4095*72
$GNGSA,A,3,06,03,19,17,14,02,11,,,,,,1.12,0.59,0.95,1*0F
$GNGSA,A,3,78,87,88,71,65,72,,,,,,,1.12,0.59,0.95,2*00
$GNGSA,A,3,15,36,34,02,30,,,,,,,,1.12,0.59,0.95,3*06
$GNGSA,A,3,03,07,10,28,08,02,14,01,13,,,,1.12,0.59,0.95,4*05
$GPGSV,4,1,13,02,22,282,36,03,22,044,38,06,59,315,44,09,32,118,25,1*6E
$GPGSV,4,2,13,11,26,277,43,12,20,313,18,14,15,184,33,17,67,117,44,1*64
$GPGSV,4,3,13,19,82,020,44,20,18,228,30,28,,,40,41,27,238,45,1*57
$GPGSV,4,4,13,50,47,179,36,1*5A
$GPGSV,2,1,07,03,22,044,37,06,59,315,31,09,32,118,20,11,26,277,37,6*6F
$GPGSV,2,2,07,12,20,313,32,14,15,184,25,17,67,117,37,6*5A
$GPGSV,1,1,03,01,00,079,,04,27,080,,40,06,259,,0*5C
$GLGSV,2,1,06,65,46,161,38,71,17,030,33,72,55,071,46,78,21,278,35,1*74
$GLGSV,2,2,06,87,54,039,43,88,40,324,41,1*79
$GLGSV,2,1,05,65,46,161,25,71,17,030,29,72,55,071,40,78,21,278,41,3*77
$GLGSV,2,2,05,88,40,324,39,3*44
$GLGSV,1,1,03,77,08,224,,79,10,328,,86,12,096,,0*42
$GAGSV,2,1,08,02,25,208,33,05,33,140,18,09,34,076,21,15,15,282,32,2*7E
$GAGSV,2,2,08,18,70,307,46,30,37,267,44,34,58,319,40,36,48,059,44,2*72
$GAGSV,2,1,06,02,25,208,36,15,15,282,34,18,70,307,47,30,37,267,46,7*7C
$GAGSV,2,2,06,34,58,319,36,36,48,059,46,7*76
$GAGSV,1,1,04,03,03,182,,04,05,033,,11,05,085,,27,13,320,,0*74
$GBGSV,3,1,09,01,43,152,37,02,28,236,41,03,44,206,38,07,59,215,28,1*78
$GBGSV,3,2,09,08,53,271,46,10,61,242,39,13,45,263,43,14,63,097,42,1*75
$GBGSV,3,3,09,28,55,320,46,1*46
$GBGSV,2,1,08,01,43,152,38,02,28,236,37,03,44,206,36,07,59,215,32,3*71
$GBGSV,2,2,08,08,53,271,43,10,61,242,39,13,45,263,37,14,63,097,46,3*75
$GBGSV,2,1,06,04,35,132,,05,08,256,,11,31,101,,21,02,035,,0*79
$GBGSV,2,2,06,21,02,035,,23,03,216,,0*71
$GNRMC,050236.00,A,3726.9323289,N,12639.3475377,E,0.009,,220622,,,R,V*0B
$GNVTG,,T,,M,0.009,N,0.017,K,D*37
$GNGNS,050236.00,3726.9323289,N,12639.3475377,E,RRRR,27,0.59,20.683,17.841,,4095,V*24
$GNGGA,050236.00,3726.9323289,N,12639.3475377,E,4,12,0.59,20.683,M,17.841,M,,4095*77
$GNGSA,A,3,06,03,19,17,14,02,11,,,,,,1.12,0.59,0.95,1*0F
$GNGSA,A,3,78,87,88,71,65,72,,,,,,,1.12,0.59,0.95,2*00
$GNGSA,A,3,15,36,34,02,30,,,,,,,,1.12,0.59,0.95,3*06
$GNGSA,A,3,03,07,10,28,08,02,14,01,13,,,,1.12,0.59,0.95,4*05
$GPGSV,4,1,13,02,22,282,33,03,22,044,38,06,59,315,43,09,32,118,25,1*6C
$GPGSV,4,2,13,11,26,277,42,12,20,313,23,14,15,184,32,17,67,117,44,1*6C
$GPGSV,4,3,13,19,82,020,44,20,18,228,31,28,,,40,41,27,238,45,1*56
$GPGSV,4,4,13,50,47,179,36,1*5A
$GPGSV,2,1,07,03,22,044,37,06,59,315,31,09,32,118,19,11,26,277,37,6*65
$GPGSV,2,2,07,12,20,313,30,14,15,184,25,17,67,117,36,6*59
$GPGSV,1,1,03,01,00,079,,04,27,080,,40,06,259,,0*5C
$GLGSV,2,2,06,87,54,039,43,88,40,325,41,1*78
$GLGSV,2,1,05,65,46,161,25,71,17,030,29,72,55,071,40,78,21,278,41,3*77
$GLGSV,2,2,05,88,40,325,39,3*45
$GLGSV,1,1,03,77,08,224,,79,10,328,,86,12,096,,0*42
$GAGSV,2,1,08,02,25,208,35,05,33,140,18,09,34,076,20,15,15,282,31,2*7A
$GAGSV,2,2,08,18,70,307,46,30,37,267,44,34,58,319,40,36,48,059,44,2*72
$GAGSV,2,1,06,02,25,208,36,15,15,282,34,18,70,307,47,30,37,267,46,7*7C
$GAGSV,2,2,06,34,58,319,36,36,48,059,46,7*76
$GAGSV,1,1,04,03,03,182,,04,05,033,,11,05,085,,27,13,320,,0*74
$GBGSV,3,1,09,01,43,152,38,02,28,236,41,03,44,206,39,07,59,215,27,1*79
$GBGSV,3,2,09,08,53,271,46,10,61,242,39,13,45,263,43,14,63,097,42,1*75
$GBGSV,3,3,09,28,55,320,46,1*46
$GBGSV,3,1,09,01,43,152,37,02,28,236,37,03,44,206,37,07,59,215,31,3*7C
$GBGSV,3,2,09,08,53,271,43,10,61,242,39,11,31,101,16,13,45,263,37,3*7C
$GBGSV,3,3,09,14,63,097,45,3*42
$GBGSV,2,1,05,04,35,132,,05,08,256,,21,02,035,,23,03,216,,0*7F
$GBG$GNRMC,050237.00,A,3726.9323286,N,12639.3475404,E,0.013,,220622,,,R,V*0D
$GNVTG,,T,,M,0.013,N,0.024,K,D*3C
$GNGNS,050237.00,3726.9323286,N,12639.3475404,E,RRRR,27,0.59,20.672,17.841,,4095,V*27
$GNGGA,050237.00,3726.9323286,N,12639.3475404,E,4,12,0.59,20.672,M,17.841,M,,4095*74
$GNGSA,A,3,06,03,19,17,14,02,11,,,,,,1.12,0.59,0.95,1*0F
$GNGSA,A,3,78,87,88,71,65,72,,,,,,,1.12,0.59,0.95,2*00
$GNGSA,A,3,15,36,34,02,30,,,,,,,,1.12,0.59,0.95,3*06
$GNGSA,A,3,03,07,10,28,08,02,14,01,13,,,,1.12,0.59,0.95,4*05
$GPGSV,4,1,13,02,22,282,34,03,22,044,38,06,59,315,43,09,32,118,25,1*6B
$GPGSV,4,2,13,11,26,277,40,12,20,313,31,14,15,184,32,17,67,117,43,1*6A
$GPGSV,4,3,13,19,82,020,44,20,18,228,32,28,,,39,41,27,238,44,1*5A
$GPGSV,4,4,13,50,47,179,36,1*5A
$GPGSV,2,1,07,03,22,044,37,06,59,315,31,09,32,118,17,11,26,277,37,6*6B
$GPGSV,2,2,07,12,20,313,30,14,15,184,26,17,67,117,36,6*5A
$GPGSV,1,1,03,01,00,079,,04,27,080,,40,06,259,,0*5C
$GLGSV,2,1,06,65,46,161,35,71,17,030,31,72,55,071,45,78,21,278,31,1*7C
$GLGSV,2,2,06,87,54,039,42,88,40,325,41,1*79
$GLGSV,2,1,05,65,46,161,25,71,17,030,29,72,55,071,40,78,21,278,41,3*77
$GLGSV,2,2,05,88,40,325,39,3*45
$GLGSV,1,1,03,77,08,224,,79,10,328,,86,12,096,,0*42
$GAGSV,2,1,08,02,25,208,34,05,33,140,17,09,34,076,21,15,15,282,31,2*75
$GAGSV,2,2,08,18,70,307,46,30,37,267,45,34,58,319,40,36,48,059,44,2*73
$GAGSV,2,1,06,02,25,208,35,15,15,282,34,18,70,307,46,30,37,267,46,7*7E
$GAGSV,2,2,06,34,58,319,36,36,48,059,46,7*76
$GAGSV,1,1,04,03,03,182,,04,05,033,,11,05,085,,27,13,320,,0*74
$GBGSV,3,1,09,01,43,152,38,02,28,236,41,03,44,206,40,07,59,215,26,1*76
$GBGSV,3,2,09,08,53,271,46,10,61,242,40,13,45,263,43,14,63,097,42,1*7B
$GBGSV,3,3,09,28,55,320,46,1*46
$GBGSV,3,1,09,01,43,152,37,02,28,236,37,03,44,206,39,07,59,215,30,3*73
$GBGSV,3,2,09,08,53,271,43,10,61,242,39,11,31,101,17,13,45,263,37,3*7D
$GBGSV,3,3,09,14,63,097,45,3*42
$GBGSV,2,1,05,04,35,132,,05,08,256,,21,02,035,,23,03,216,,0*7F
$GBGSV,2,2,05,23,03,216,,0*45
$GNRMC,050238.00,A,3726.9323256,N,12639.3475385,E,0.006,,220622,,,R,V*05
$GNVTG,,T,,M,0.006,N,0.011,K,D*3E
$GNGNS,050238.00,3726.9323256,N,12639.3475385,E,RRRR,27,0.59,20.674,17.841,,4095,V*2D
$GNGGA,050238.00,3726.9323256,N,12639.3475385,E,4,12,0.59,20.674,M,17.841,M,,4095*7E
$GNGSA,A,3,06,03,19,17,14,02,11,,,,,,1.12,0.59,0.95,1*0F
$GNGSA,A,3,78,87,88,71,65,72,,,,,,,1.12,0.59,0.95,2*00
$GNGSA,A,3,15,36,34,02,30,,,,,,,,1.12,0.59,0.95,3*06
$GNGSA,A,3,03,07,10,28,08,02,14,01,13,,,,1.12,0.59,0.95,4*05
$GPGSV,4,1,13,02,22,282,36,03,22,044,37,06,59,315,44,09,32,118,25,1*61
$GPGSV,4,2,13,11,26,277,42,12,20,313,31,14,15,184,32,17,67,117,44,1*6F
$GPGSV,4,3,13,19,82,020,44,20,18,228,29,28,,,38,41,27,238,46,1*53
$GPGSV,4,4,13,50,47,179,37,1*5B
$GPGSV,2,1,07,03,22,044,36,06,59,315,30,09,32,118,15,11,26,277,36,6*68
$GPGSV,2,2,07,12,20,313,31,14,15,184,26,17,67,117,36,6*5B
$GPGSV,1,1,03,01,00,080,,04,27,080,,40,06,259,,0*5A
$GLGSV,2,1,06,65,46,161,36,71,17,030,32,72,55,071,45,78,21,278,34,1*79
$GLGSV,2,2,06,87,54,039,42,88,40,325,41,1*79
$GLGSV,2,1,05,65,46,161,25,71,17,030,29,72,55,071,40,78,21,278,41,3*77
$GLGSV,2,2,05,88,40,325,39,3*45
$GLGSV,1,1,03,77,08,224,,79,10,328,,86,12,096,,0*42
$GAGSV,2,1,08,02,25,208,33,05,33,140,18,09,34,076,20,15,15,282,32,2*7F
$GAGSV,2,2,08,18,70,307,45,30,37,267,43,34,58,319,40,36,48,059,44,2*76
$GAGSV,2,1,06,02,25,208,37,15,15,282,34,18,70,307,46,30,37,267,46,7*7C
$GAGSV,2,2,06,34,58,319,36,36,48,059,46,7*76
$GAGSV,1,1,04,03,03,182,,04,05,033,,11,05,085,,27,13,320,,0*74
$GBGSV,3,1,09,01,43,152,38,02,28,236,41,03,44,206,39,07,59,215,27,1*79
$GNRMC,050239.00,A,3726.9323265,N,12639.3475393,E,0.018,,220622,,,R,V*0C
$GNVTG,,T,,M,0.018,N,0.034,K,D*36
$GNGNS,050239.00,3726.9323265,N,12639.3475393,E,RRRR,27,0.59,20.675,17.841,,4095,V*2A
$GNGGA,050239.00,3726.9323265,N,12639.3475393,E,4,12,0.59,20.675,M,17.841,M,,4095*79
$GNGSA,A,3,06,03,19,17,14,02,11,,,,,,1.12,0.59,0.95,1*0F
$GNGSA,A,3,78,87,88,71,65,72,,,,,,,1.12,0.59,0.95,2*00
$GNGSA,A,3,15,36,34,02,30,,,,,,,,1.12,0.59,0.95,3*06
$GNGSA,A,3,03,07,10,28,08,02,14,01,13,,,,1.12,0.59,0.95,4*05
$GPGSV,4,1,13,02,23,283,36,03,22,044,38,06,59,315,44,09,32,118,25,1*6E
$GPGSV,4,2,13,11,26,277,42,12,20,313,29,14,15,184,34,17,67,117,44,1*60
$GPGSV,4,3,13,19,82,020,45,20,18,228,29,28,,,39,41,27,238,46,1*53
$GPGSV,4,4,13,50,47,179,37,1*5B
$GPGSV,2,1,06,03,22,044,36,06,59,315,29,11,26,277,36,12,20,313,33,6*65
$GPGSV,2,2,06,14,15,184,25,17,67,117,36,6*6B
$GPGSV,1,1,03,01,00,080,,04,27,080,,40,06,259,,0*5A
$GLGSV,2,1,06,65,46,161,37,71,17,030,29,72,55,071,45,78,21,278,34,1*72
$GLGSV,2,2,06,87,54,039,42,88,40,325,41,1*79
$GLGSV,2,1,05,65,46,161,26,71,17,030,29,72,55,071,39,78,21,278,41,3*7A
$GLGSV,2,2,05,88,40,325,39,3*45
$GLGSV,1,1,03,77,08,224,,79,10,328,,86,12,096,,0*42
$GAGSV,2,1,08,02,25,208,32,05,33,140,18,09,34,076,19,15,15,282,33,2*75
$GAGSV,2,2,08,18,70,307,46,30,37,267,43,34,58,319,40,36,48,059,44,2*75
$GAGSV,2,1,06,02,25,208,38,15,15,282,35,18,70,307,46,30,37,267,45,7*71
$GAGSV,2,2,06,34,58,319,36,36,48,059,46,7*76
$GAGSV,1,1,04,03,03,182,,04,05,033,,11,05,085,,27,13,320,,0*74
$GBGSV,3,1,09,01,43,152,38,02,28,236,41,03,44,206,38,07,59,215,28,1*77
$GBGSV,3,2,09,08,53,271,46,10,61,242,39,13,45,263,43,14,63,097,44,1*73
$GBGSV,3,3,09,28,55,320,46,1*46
$GBGSV,3,1,09,01,43,152,38,02,28,236,37,03,44,206,35,07,59,215,31,3*71
$GBGSV,3,2,09,08,53,271,42,10,61,242,38,11,31,101,19,13,45,263,37,3*73
$GBGSV,3,3,09,14,63,097,45,3*42
$GBGSV,2,1,05,04,35,132,,05,08,256,,21,02,035,,23,03,216,,0*7F
$GBGSV,2,2,05,23,03,216,,0*45
$GNRMC,050240.00,A,3726.9323271,N,12639.3475408,E,0.009,,220622,,,R,V*02
$GNVTG,,T,,M,0.009,N,0.018,K,D*38
$GNGNS,050240.00,3726.9323271,N,12639.3475408,E,RRRR,27,0.59,20.680,17.841,,4095,V*2E
$GNGGA,050240.00,3726.9323271,N,12639.3475408,E,4,12,0.59,20.680,M,17.841,M,,4095*7D
$GNGSA,A,3,06,03,19,17,14,02,11,,,,,,1.12,0.59,0.95,1*0F
$GNGSA,A,3,78,87,88,71,65,72,,,,,,,1.12,0.59,0.95,2*00
$GNGSA,A,3,15,36,34,02,30,,,,,,,,1.12,0.59,0.95,3*06
$GNGSA,A,3,03,07,10,28,08,02,14,01,13,,,,1.12,0.59,0.95,4*05
$GPGSV,4,1,13,02,23,283,34,03,21,044,38,06,59,315,44,09,32,118,25,1*6F
$GPGSV,4,2,13,11,26,277,41,12,20,313,31,14,15,184,33,17,67,117,45,1*6C
$GPGSV,4,3,13,19,82,020,45,20,18,228,30,28,,,38,41,27,238,46,1*5A
$GPGSV,4,4,13,50,47,179,37,1*5B
$GPGSV,2,1,06,03,21,044,36,06,59,315,28,11,26,277,37,12,20,313,32,6*67
$GPGSV,2,2,06,14,15,184,25,17,67,117,36,6*6B
$GPGSV,1,1,03,01,00,080,,04,27,080,,40,06,259,,0*5A
$GLGSV,2,1,06,65,46,161,36,71,17,030,30,72,55,071,45,78,21,278,34,1*7B
$GLGSV,2,2,06,87,54,039,42,88,40,325,42,1*7A
$GLGSV,2,1,05,65,46,161,25,71,17,030,29,72,55,071,39,78,21,278,39,3*76
$GLGSV,2,2,05,88,40,325,38,3*44
$GLGSV,1,1,03,77,08,224,,79,10,328,,86,12,096,,0*42
$GAGSV,2,1,08,02,25,208,33,05,33,140,18,09,34,076,19,15,15,282,32,2*75
$GAGSV,2,2,08,18,70,307,46,30,37,267,44,34,58,319,40,36,48,059,44,2*72
$GAGSV,2,1,06,02,25,208,37,15,15,282,35,18,70,307,46,30,37,267,45,7*7E
$GAGSV,2,2,06,34,58,319,37,36,48,059,46,7*77
$GAGSV,1,1,04,03,03,182,,04,05,033,,11,05,085,,27,13,320,,0*74
$GBGSV,3,1,09,01,43,152,37,02,28,236,40,03,44,206,38,07,59,215,29,1*78
$GBGSV,3,2,09,08,53,271,46,10,61,242,39,13,45,263,42,14,63,097,43,1*75
$GBGSV,3,3,09,28,55,320,46,1*46
$GBGSV,3,1,09,01,43,152,38,02,28,236,37,03,44,206,38,07,59,215,31,3*7C
$GBGSV,3,2,09,08,53,271,43,10,61,242,39,11,31,101,18,13,45,263,37,3*72
$GBGSV,3,3,09,14,63,097,45,3*42
$GBGSV,2,1,05,04,35,132,,05,08,256,,21,02,035,,23,03,216,,0*7F
$GBGSV,2,2,05,23,03,216,,0*45
$GNRMC,050241.00,A,3726.9323273,N,12639.3475412,E,0.007,,220622,,,R,V*04
$GNVTG,,T,,M,0.007,N,0.013,K,D*3D
$GNGNS,050241.00,3726.9323273,N,12639.3475412,E,RRRR,27,0.59,20.686,17.841,,4095,V*20
$GNGGA,050241.00,3726.9323273,N,12639.3475412,E,4,12,0.59,20.686,M,17.841,M,,4095*73
$GNGSA,A,3,06,03,19,17,14,02,11,,,,,,1.12,0.59,0.95,1*0F
$GNGSA,A,3,78,87,88,71,65,72,,,,,,,1.12,0.59,0.95,2*00
$GNGSA,A,3,15,36,34,02,30,,,,,,,,1.12,0.59,0.95,3*06
$GNGSA,A,3,03,07,10,28,08,02,14,01,13,,,,1.12,0.59,0.95,4*05
$GPGSV,4,1,13,02,23,283,35,03,21,044,38,06,59,315,44,09,32,118,24,1*6F
$GPGSV,4,2,13,11,26,277,41,12,20,313,32,14,15,184,31,17,67,117,45,1*6D
$GPGSV,4,3,13,19,82,020,45,20,18,228,31,28,,,40,41,27,238,46,1*54
$GPGSV,4,4,13,50,47,179,36,1*5A
$GPGSV,2,1,06,03,21,044,36,06,59,315,28,11,26,277,37,12,20,313,31,6*64
$GPGSV,2,2,06,14,15,184,25,17,67,117,36,6*6B
$GPGSV,1,1,03,01,00,080,,04,27,079,,40,06,259,,0*5C
$GLGSV,2,1,06,65,46,161,36,71,17,030,29,72,55,071,45,78,21,278,35,1*72
$GLGSV,2,2,06,87,54,039,42,88,40,325,42,1*7A
$GLGSV,2,1,05,65,46,161,24,71,17,030,29,72,55,071,38,78,21,278,40,3*78
$GLGSV,2,2,05,88,40,325,38,3*44
$GLGSV,1,1,03,77,08,224,,79,10,328,,86,12,096,,0*42
$GAGSV,2,1,08,02,25,208,33,05,33,140,19,09,34,076,21,15,15,282,32,2*7F
$GAGSV,2,2,08,18,70,307,46,30,37,267,43,34,58,319,40,36,48,059,44,2*75
$GAGSV,2,1,06,02,25,208,37,15,15,282,35,18,70,307,46,30,37,267,45,7*7E
$GAGSV,2,2,06,34,58,319,36,36,48,059,46,7*76
$GAGSV,1,1,04,03,03,182,,04,05,033,,11,05,085,,27,13,320,,0*74
$GBGSV,3,1,09,01,43,152,37,02,28,236,40,03,44,206,39,07,59,215,29,1*79
$GBGSV,3,2,09,08,53,271,46,10,61,242,39,13,45,263,42,14,63,097,43,1*75
$GBGSV,3,3,09,28,55,320,46,1*46
$GBGSV,3,1,09,01,43,152,37,02,28,236,37,03,44,206,36,07,59,215,31,3*7D
$GBGSV,3,2,09,08,53,271,42,10,61,242,38,11,31,101,17,13,45,263,36,3*7C
$GBGSV,3,3,09,14,63,097,45,3*42
$GBGSV,2,1,05,04,35,132,,05,08,256,,21,02,035,,23,03,216,,0*7F
$GBGSV,2,2,05,23,03,216,,0*45
$GNRMC,050242.00,A,3726.9323269,N,12639.3475398,E,0.019,,220622,,,R,V*06
$GNVTG,,T,,M,0.019,N,0.035,K,D*36
$GNGNS,050242.00,3726.9323269,N,12639.3475398,E,RRRR,27,0.59,20.679,17.841,,4095,V*2D
$GNGGA,050242.00,3726.9323269,N,12639.3475398,E,4,12,0.59,20.679,M,17.841,M,,4095*7E
$GNGSA,A,3,06,03,19,17,14,02,11,,,,,,1.12,0.59,0.95,1*0F
$GNGSA,A,3,78,87,88,71,65,72,,,,,,,1.12,0.59,0.95,2*00
$GNGSA,A,3,15,36,34,02,30,,,,,,,,1.12,0.59,0.95,3*06
$GNGSA,A,3,03,07,10,28,08,02,14,01,13,,,,1.12,0.59,0.95,4*05
$GPGSV,4,1,13,02,23,283,35,03,21,044,38,06,59,315,45,09,32,118,23,1*69
$GPGSV,4,2,13,11,26,277,41,12,20,313,31,14,15,184,30,17,67,117,46,1*6C
$GPGSV,4,3,13,19,82,020,45,20,18,228,31,28,,,39,41,27,238,46,1*5A
$GPGSV,4,4,13,50,47,179,36,1*5A
$GPGSV,2,1,06,03,21,044,36,06,59,315,28,11,26,277,37,12,20,313,33,6*66
$GPGSV,2,2,06,14,15,184,26,17,67,117,36,6*68
$GPGSV,1,1,03,01,00,080,,04,27,079,,40,06,259,,0*5C
$GLGSV,2,1,06,65,46,161,37,71,17,030,26,72,55,071,46,78,21,278,34,1*7E
$GLGSV,2,2,06,87,54,039,43,88,40,325,43,1*7A
$GLGSV,2,1,05,65,46,161,24,71,17,030,29,72,55,071,38,78,21,278,40,3*78
$GLGSV,2,2,05,88,40,325,38,3*44
$GLGSV,1,1,03,77,08,224,,79,10,328,,86,12,096,,0*42
$GAGSV,2,1,08,02,25,208,32,05,33,140,18,09,34,076,21,15,15,282,31,2*7C
$GAGSV,2,2,08,18,70,307,46,30,37,267,43,34,58,319,41,36,48,059,44,2*74
$GAGSV,2,1,06,02,25,208,37,15,15,282,34,18,70,307,46,30,37,267,46,7*7C
$GAGSV,2,2,06,34,58,319,36,36,48,059,46,7*76
$GNRMC,050243.00,A,3726.9323290,N,12639.3475360,E,0.013,,220622,,,R,V*0C
$GNVTG,,T,,M,0.013,N,0.024,K,D*3C
$GNGNS,050243.00,3726.9323290,N,12639.3475360,E,RRRR,27,0.59,20.687,17.841,,4095,V*2C
$GNGGA,050243.00,3726.9323290,N,12639.3475360,E,4,12,0.59,20.687,M,17.841,M,,4095*7F
$GNGSA,A,3,06,03,19,17,14,02,11,,,,,,1.12,0.59,0.95,1*0F
$GNGSA,A,3,78,87,88,71,65,72,,,,,,,1.12,0.59,0.95,2*00
$GNGSA,A,3,15,36,34,02,30,,,,,,,,1.12,0.59,0.95,3*06
$GNGSA,A,3,03,07,10,28,08,02,14,01,13,,,,1.12,0.59,0.95,4*05
$GPGSV,4,1,13,02,23,283,35,03,21,044,38,06,59,316,45,09,32,118,23,1*6A
$GPGSV,4,2,13,11,26,277,41,12,20,313,30,14,15,184,31,17,67,117,44,1*6E
$GPGSV,4,3,13,19,82,020,45,20,18,228,32,28,,,39,41,27,238,46,1*59
$GPGSV,4,4,13,50,47,179,35,1*59
$GPGSV,2,1,06,03,21,044,36,06,59,316,30,11,26,277,37,12,20,313,32,6*6D
$GPGSV,2,2,06,14,15,184,26,17,67,117,37,6*69
$GPGSV,1,1,03,01,00,080,,04,27,079,,40,06,259,,0*5C
$GLGSV,2,1,06,65,46,161,37,71,17,030,28,72,55,071,46,78,21,278,33,1*77
$GLGSV,2,2,06,87,54,039,44,88,40,325,43,1*7D
$GLGSV,2,1,05,65,46,161,25,71,17,030,29,72,55,071,38,78,21,278,41,3*78
$GLGSV,2,2,05,88,40,325,38,3*44
$GLGSV,1,1,03,77,08,224,,79,10,328,,86,12,096,,0*42
$GAGSV,2,1,08,02,25,208,33,05,33,140,18,09,34,076,22,15,15,282,31,2*7E
$GAGSV,2,2,08,18,70,307,46,30,37,267,44,34,58,319,40,36,48,059,44,2*72
$GAGSV,2,1,06,02,25,208,37,15,15,282,33,18,70,307,46,30,37,267,45,7*78
$GAGSV,2,2,06,34,58,319,36,36,48,059,46,7*76
$GAGSV,1,1,04,03,03,182,,04,05,033,,11,05,085,,27,13,320,,0*74
$GBGSV,3,1,09,01,43,152,36,02,28,236,40,03,44,206,39,07,59,215,29,1*78
$GBGSV,3,2,09,08,53,271,46,10,61,242,39,13,45,263,42,14,63,097,43,1*75
$GBGSV,3,3,09,28,55,320,46,1*46
$GBGSV,3,1,09,01,43,152,38,02,28,236,37,03,44,206,36,07,59,215,32,3*71
$GBGSV,3,2,09,08,53,271,42,10,61,242,39,11,31,101,15,13,45,263,37,3*7E
$GBGSV,3,3,09,14,63,097,45,3*42
$GBGSV,2,1,05,04,35,132,,05,08,256,,21,02,035,,23,03,216,,0*7F
$GBGSV,2,2,05,23,03,216,,0*45
$GNRMC,050244.00,A,3726.9323309,N,12639.3475361,E,0.007,,220622,,,R,V*0E
$GNVTG,,T,,M,0.007,N,0.012,K,D*3C
$GNGNS,050244.00,3726.9323309,N,12639.3475361,E,RRRR,27,0.59,20.689,17.841,,4095,V*25
$GNGGA,050244.00,3726.9323309,N,12639.3475361,E,4,12,0.59,20.689,M,17.841,M,,4095*76
$GNGSA,A,3,06,03,19,17,14,02,11,,,,,,1.12,0.59,0.95,1*0F
$GNGSA,A,3,78,87,88,71,65,72,,,,,,,1.12,0.59,0.95,2*00
$GNGSA,A,3,15,36,34,02,30,,,,,,,,1.12,0.59,0.95,3*06
$GNGSA,A,3,03,07,10,28,08,02,14,01,13,,,,1.12,0.59,0.95,4*05
$GPGSV,4,1,13,02,23,283,35,03,21,044,39,06,59,316,45,09,32,118,22,1*6A
$GPGSV,4,2,13,11,26,277,41,12,20,313,34,14,15,184,31,17,67,117,44,1*6A
$GPGSV,4,3,13,19,82,020,45,20,18,228,33,28,,,37,41,27,238,45,1*55
$GPGSV,4,4,13,50,47,179,36,1*5A
$GPGSV,2,1,06,03,21,044,36,06,59,316,31,11,26,277,37,12,20,313,31,6*6F
$GPGSV,1,1,03,01,00,080,,04,27,079,,40,06,259,,0*5C
$GLGSV,2,1,06,65,46,161,36,71,17,030,28,72,55,071,46,78,21,278,33,1*76
$GLGSV,2,2,06,87,54,039,43,88,40,325,43,1*7A
$GLGSV,2,1,05,65,46,161,26,71,17,030,29,72,55,071,40,78,21,278,42,3*77
$GLGSV,2,2,05,88,40,325,40,3*4B
$GLGSV,1,1,03,77,08,224,,79,10,328,,86,12,096,,0*42
$GAGSV,2,1,08,02,25,208,34,05,33,140,17,09,34,076,20,15,15,282,32,2*77
$GAGSV,2,2,08,18,70,307,46,30,37,267,44,34,58,319,40,36,48,059,44,2*72
$GAGSV,2,1,07,02,25,208,37,05,33,140,20,15,15,282,33,18,70,307,47,7*7F
$GAGSV,2,2,07,30,37,267,45,34,58,319,35,36,48,059,45,7*42
$GAGSV,1,1,04,03,03,182,,04,05,033,,11,05,085,,27,13,320,,0*74
$GBGSV,3,1,09,01,43,152,37,02,28,236,40,03,44,206,38,07,59,215,30,1*70
$GBGSV,3,2,09,08,53,271,45,10,61,242,40,13,45,263,42,14,63,097,43,1*78
$GBGSV,3,3,09,28,55,320,46,1*46
$GBGSV,3,1,09,01,43,152,38,02,28,236,37,03,44,206,36,07,59,215,32,3*71
$GBGSV,3,2,09,08,53,271,42,10,61,242,39,11,31,101,15,13,45,26$GBGSV,3,3,09,14,63,097,45,3*42
$GBGSV,2,1,05,04,35,132,,05,08,256,,21,02,035,,23,03,216,,0*7F
$GBGSV,2,2,05,23,03,216,,0*45
$GNRMC,050245.00,A,3726.9323309,N,12639.3475383,E,0.016,,220622,,,R,V*03
$GNVTG,,T,,M,0.016,N,0.030,K,D*3C
$GNGNS,050245.00,3726.9323309,N,12639.3475383,E,RRRR,27,0.59,20.685,17.841,,4095,V*24
$GNGGA,050245.00,3726.9323309,N,12639.3475383,E,4,12,0.59,20.685,M,17.841,M,,4095*77
$GNGSA,A,3,06,03,19,17,14,02,11,,,,,,1.12,0.59,0.95,1*0F
$GNGSA,A,3,78,87,88,71,65,72,,,,,,,1.12,0.59,0.95,2*00
$GNGSA,A,3,15,36,34,02,30,,,,,,,,1.12,0.59,0.95,3*06
$GPGSV,4,1,13,02,23,283,36,03,21,044,39,06,59,316,45,09,32,118,23,1*68
$GPGSV,4,2,13,11,26,277,41,12,20,313,34,14,15,184,32,17,67,117,44,1*69
$GPGSV,4,3,13,19,82,020,46,20,18,228,34,28,,,37,41,27,238,45,1*51
$GPGSV,4,4,13,50,47,179,35,1*59
$GPGSV,2,1,06,03,21,044,36,06,59,316,32,11,26,277,38,12,20,313,31,6*63
$GPGSV,2,2,06,14,15,184,29,17,67,117,38,6*69
$GPGSV,1,1,03,01,00,080,,04,27,079,,40,06,259,,0*5C
$GLGSV,2,1,06,65,46,161,36,71,17,030,28,72,55,071,46,78,21,278,34,1*71
$GLGSV,2,2,06,87,54,039,43,88,40,325,43,1*7A
$GLGSV,2,1,05,65,46,161,26,71,17,030,29,72,55,071,40,78,21,278,42,3*77
$GLGSV,2,2,05,88,40,325,39,3*45
$GLGSV,1,1,03,77,08,224,,79,10,328,,86,12,096,,0*42
$GAGSV,2,1,08,02,25,208,35,05,33,140,18,09,34,076,19,15,15,282,32,2*73
$GAGSV,2,2,08,18,70,307,46,30,37,267,44,34,58,319,39,36,48,059,44,2*7C
$GAGSV,2,1,06,02,25,208,37,15,15,282,34,18,70,307,47,30,37,267,45,7*7E
$GAGSV,2,2,06,34,58,319,35,36,48,059,45,7*76
$GAGSV,1,$GBGSV,3,1,09,01,43,152,37,02,28,236,41,03,44,206,39,07,59,215,29,1*78
$GBGSV,3,2,09,08,53,271,45,10,61,242,40,13,45,263,42,14,63,097,43,1*78
$GBGSV,3,3,09,28,55,320,46,1*46
$GBGSV,3,1,09,01,43,152,38,02,28,236,37,03,44,206,38,07,59,215,31,3*7C
$GBGSV,3,2,09,08,53,271,42,10,61,242,39,11,31,101,17,13,45,263,37,3*7C
$GBGSV,3,3,09,14,63,097,44,3*43
$GBGSV,2,1,05,04,35,132,,05,08,256,,21,02,035,,23,03,216,,0*7F
$GBGSV,2,2,05,23,03,216,,0*45
$GNRMC,050246.00,A,3726.9323268,N,12639.3475381,E,0.003,,220622,,,R,V*00
$GNVTG,,T,,M,0.003,N,0.006,K,D*3D
$GNGNS,050246.00,3726.9323268,N,12639.3475381,E,RRRR,27,0.59,20.679,17.841,,4095,V*20
$GNGGA,050246.00,3726.9323268,N,12639.3475381,E,4,12,0.59,20.679,M,17.841,M,,4095*73
$GNGSA,A,3,06,03,19,17,14,02,11,,,,,,1.12,0.59,0.95,1*0F
$GNGSA,A,3,78,87,88,71,65,72,,,,,,,1.12,0.59,0.95,2*00
$GNGSA,A,3,15,36,34,02,30,,,,,,,,1.12,0.59,0.95,3*06
$GNGSA,A,3,03,07,10,28,08,02,14,01,13,,,,1.12,0.59,0.95,4*05
$GPGSV,4,1,13,02,23,283,36,03,21,044,39,06,59,316,45,09,32,117,23,1*67
$GPGSV,4,2,13,11,26,277,42,12,20,313,33,14,15,184,32,17,67,117,45,1*6C
$GPGSV,4,3,13,19,82,020,46,20,18,228,34,28,,,37,41,27,238,45,1*51
$GPGSV,4,4,13,50,47,179,36,1*5A
$GPGSV,2,1,06,03,21,044,36,06,59,316,31,11,26,277,38,12,20,313,32,6*63
$GPGSV,2,2,06,14,15,184,29,17,67,117,38,6*69
$GLGSV,2,1,06,65,46,161,36,71,17,030,28,72,55,071,46,78,21,278,34,1*71
$GLGSV,2,2,06,87,54,039,42,88,40,325,42,1*7A
$GLGSV,2,1,05,65,46,161,26,71,17,030,29,72,55,071,40,78,21,278,42,3*77
$GLGSV,2,2,05,88,40,325,39,3*45
$GLGSV,1,1,03,77,08,224,,79,10,328,,86,12,096,,0*42
$GAGSV,2,1,08,02,25,208,35,05,33,140,20,09,34,076,18,15,15,282,32,2*79
$GAGSV,2,2,08,18,70,307,47,30,37,267,44,34,58,319,41,36,48,059,44,2*72
$GAGSV,2,1,07,02,25,208,37,09,34,076,26,15,15,282,33,18,70,307,47,7*76
$GAGSV,2,2,07,30,37,267,45,34,58,319,36,36,48,059,45,7*41
$GAGSV,1,1,04,03,03,182,,04,05,033,,11,05,085,,27,13,320,,0*74
$GBGSV,3,1,09,01,43,152,38,02,28,236,40,03,44,206,37,07,59,215,29,1*78
$GBGSV,3,2,09,08,53,271,46,10,61,242,40,13,45,263,42,14,63,097,43,1*7B
$GBGSV,3,3,09,28,55,320,46,1*46
$GBGSV,2,1,08,01,43,152,38,02,28,236,37,03,44,206,36,07,59,215,31,3*72
$GBGSV,2,2,08,08,53,271,42,10,61,242,39,13,45,263,37,14,63,097,45,3*77
$GBGSV,2,1,06,04,35,132,,05,08,256,$GBGSV,2,2,06,21,02,035,,23,03,216,,0*71
$GNRMC,050247.00,A,3726.9323260,N,12639.3475396,E,0.011,,220622,,,R,V*0C
$GNVTG,,T,,M,0.011,N,0.020,K,D*3A
$GNGNS,050247.00,3726.9323260,N,12639.3475396,E,RRRR,27,0.59,20.676,17.841,,4095,V*20
$GNGGA,050247.00,3726.9323260,N,12639.3475396,E,4,12,0.59,20.676,M,17.841,M,,4095*73
$GNGSA,A,3,06,03,19,17,14,02,11,,,,,,1.12,0.59,0.95,1*0F
$GNGSA,A,3,78,87,88,71,65,72,,,,,,,1.12,0.59,0.95,2*00
$GNGSA,A,3,15,36,34,02,30,,,,,,,,1.12,0.59,0.95,3*06
$GNGSA,A,3,03,07,10,28,08,02,14,01,13,,,,1.12,0.59,0.95,4*05
$GPGSV,4,1,13,02,23,283,35,03,21,044,40,06,59,316,43,09,32,117,23,1*6C
$GPGSV,4,2,13,11,26,277,43,12,20,313,26,14,15,184,31,17,67,117,45,1*6A
$GPGSV,4,3,13,19,82,020,45,20,18,228,32,28,,,36,41,27,238,45,1*55
$GPGSV,4,4,13,50,47,179,39,1*55
$GPGSV,2,1,06,03,21,044,36,06,59,316,30,11,26,277,38,12,20,313,33,6*63
$GPGSV,2,2,06,14,15,184,29,17,67,117,37,6*66
$GPGSV,1,1,03,01,00,080,,04,27,079,,40,06,259,,0*5C
$GLGSV,2,1,06,65,46,161,37,71,17,030,27,72,55,071,46,78,21,278,34,1*7F
$GLGSV,2,2,06,87,54,039,42,88,40,325,42,1*7A
$GLGSV,2,1,05,65,46,161,26,71,17,030,29,72,55,071,39,78,21,278,42,3*79
$GLGSV,2,2,05,88,40,325,38,3*44
$GLGSV,1,1,03,77,08,224,,79,10,328,,86,12,096,,0*42
$GAGSV,2,1,08,02,25,208,34,05,33,140,23,09,34,076,18,15,15,282,32,2*7B
$GAGSV,2,2,08,18,70,307,47,30,37,267,43,34,58,319,40,36,48,059,44,2*74
$GAGSV,2,1,06,02,25,208,34,15,15,282,32,18,70,307,47,30,37,267,44,7*7A
$GAGSV,2,2,06,34,58,319,37,36,48,059,45,7*74
$GAGSV,1,1,04,03,03,182,,04,05,033,,11,05,085,,27,13,320,,0*74
$GBGSV,3,1,09,01,43,152,38,02,28,236,40,03,44,206,38,07,59,215,31,1*7E
$GBGSV,3,2,09,08,53,271,46,10,61,242,40,13,45,263,42,14,63,097,44,1*7C
$GBGSV,3,3,09,28,55,320,46,1*46
$GBGSV,2,1,08,01,43,152,38,02,28,236,36,03,44,206,37,07,59,215,31,3*72
$GBGSV,2,2,08,08,53,271,42,10,61,242,39,13,45,263,37,14,63,097,45,3*77
$GBGSV,2,1,06,04,35,132,,05,08,256,,11,31,101,,21,02,035,,0*79
$GBGSV,2,2,06,21,02,035,,23,03,216,,0*71
$GNRMC,050248.00,A,3726.9323240,N,12639.3475408,E,0.007,,220622,,,R,V*06
$GNVTG,,T,,M,0.007,N,0.012,K,D*3C
$GNGNS,050248.00,3726.9323240,N,12639.3475408,E,RRRR,27,0.59,20.671,17.841,,4095,V*2A
$GNGGA,050248.00,3726.9323240,N,12639.3475408,E,4,12,0.59,20.671,M,17.841,M,,4095*79
$GNGSA,A,3,06,03,19,17,14,02,11,,,,,,1.12,0.59,0.95,1*0F
$GNGSA,A,3,78,87,88,71,65,72,,,,,,,1.12,0.59,0.95,2*00
$GNGSA,A,3,15,36,34,02,30,,,,,,,,1.12,0.59,0.95,3*06
$GNGSA,A,3,03,07,10,28,08,02,14,01,13,,,,1.12,0.59,0.95,4*05
$GPGSV,4,1,13,02,23,283,35,03,21,044,40,06,59,316,43,09,32,117,23,1*6C
$GPGSV,4,2,13,11,27,278,42,12,20,313,27,14,15,184,32,17,67,117,46,1*64
$GPGSV,4,3,13,19,82,020,45,20,18,228,31,28,,,39,41,27,238,45,1*59
$GPGSV,4,4,13,50,47,179,37,1*5B
$GPGSV,2,1,06,03,21,044,37,06,59,316,30,11,27,278,38,12,20,313,32,6*6D
$GPGSV,2,2,06,14,15,184,28,17,67,117,38,6*68
$GPGSV,1,1,03,01,00,080,,04,27,079,,40,06,259,,0*5C
$GLGSV,2,1,06,65,46,161,37,71,17,030,25,72,55,071,47,78,21,278,37,1*7F
$GLGSV,2,2,06,87,54,039,42,88,40,325,42,1*7A
$GLGSV,2,1,05,65,46,161,25,71,17,030,28,72,55,071,40,78,21,278,42,3*75
$GLGSV,2,2,05,88,40,325,39,3*45
$GLGSV,1,1,03,77,08,224,,79,10,328,,86,12,096,,0*42
$GAGSV,2,1,08,02,25,208,32,05,33,140,22,09,34,076,19,15,15,282,32,2*7D
$GAGSV,2,2,08,18,70,307,48,30,37,267,44,34,58,319,41,36,48,059,43,2*7A
$GAGSV,2,1,07,02,25,208,37,09,34,076,25,15,15,282,30,18,70,307,47,7*76
$GAGSV,2,2,07,30,37,267,45,34,58,319,37,36,48,059,44,7*41
$GAGSV,1,1,04,03,03,182,,04,05,033,,11,05,085,,27,13,320,,0*74
$GBGSV,3,1,09,01,43,152,37,02,28,236,40,03,44,206,37,07,59,215,30,1*7F
$GBGSV,3,2,09,08,53,271,46,10,61,242,40,13,45,263,42,14,63,097,44,1*7C
$GNRMC,050249.00,A,3726.9323278,N,12639.3475404,E,0.013,,220622,,,R,V*05
$GNVTG,,T,,M,0.013,N,0.024,K,D*3C
$GNGNS,050249.00,3726.9323278,N,12639.3475404,E,RRRR,27,0.59,20.675,17.841,,4095,V*28
$GNGGA,050249.00,3726.9323278,N,12639.3475404,E,4,12,0.59,20.675,M,17.841,M,,4095*7B
$GNGSA,A,3,06,03,19,17,14,02,11,,,,,,1.12,0.59,0.95,1*0F
$GNGSA,A,3,15,36,34,02,30,,,,,,,,1.12,0.59,0.95,3*06
$GNGSA,A,3,03,07,10,28,08,02,14,01,13,,,,1.12,0.59,0.95,4*05
$GPGSV,4,1,13,02,23,283,35,03,21,044,40,06,59,316,44,09,32,117,22,1*6A
$GPGSV,4,2,13,11,27,278,43,12,21,312,27,14,15,184,31,17,67,117,47,1*67
$GPGSV,4,3,13,19,82,020,45,20,18,228,30,28,,,37,41,27,238,46,1*55
$GPGSV,4,4,13,50,47,179,39,1*55
$GPGSV,2,1,06,03,21,044,36,06,59,316,30,11,27,278,38,12,21,312,33,6*6D
$GPGSV,2,2,06,14,15,184,28,17,67,117,38,6*68
$GPGSV,1,1,03,01,00,080,,04,27,079,,40,06,259,,0*5C
$GLGSV,2,1,06,65,46,161,37,71,17,030,25,72,55,071,47,78,21,278,35,1*7D
$GLGSV,2,2,06,87,54,039,42,88,40,325,41,1*79
$GLGSV,2,1,05,65,46,161,25,71,17,030,28,72,55,071,40,78,21,278,41,3*76
$GLGSV,2,2,05,88,40,325,39,3*45
$GLGSV,1,1,03,77,08,224,,79,10,328,,86,12,096,,0*42
$GAGSV,2,1,08,02,25,208,32,05,33,140,21,09,34,076,20,15,15,282,33,2*75
$GAGSV,2,2,08,18,70,307,48,30,37,267,44,34,58,319,41,36,48,059,44,2*7D
$GAGSV,2,1,06,02,$GAGSV,2,2,06,34,58,319,38,36,48,059,45,7*7B
$GAGSV,1,1,04,03,03,182,,04,05,033,,11,05,085,,27,13,320,,0*74
$GBGSV,3,1,09,01,43,152,38,02,28,236,40,03,44,206,38,07,59,215,29,1*77
$GBGSV,3,2,09,08,53,271,45,10,61,242,40,13,45,263,42,14,63,097,44,1*7F
$GBGSV,3,3,09,28,55,320,46,1*46
$GBGSV,3,1,09,01,43,152,39,02,28,236,38,03,44,206,38,07,59,215,32,3*71
$GBGSV,3,2,09,08,53,271,44,10,61,242,39,11,31,101,18,13,45,263,39,3*7B
$GBGSV,3,3,09,14,63,097,46,3*41
$GBGSV,2,1,05,04,35,132,,05,08,256,,21,02,035,,23,03,216,,0*7F
$GBGSV,2,2,05,23,03,216,,0*45
$GNRMC,050250.00,A,3726.9323267,N,12639.3475415,E,0.019,,220622,,,R,V*09
$GNVTG,,T,,M,0.019,N,0.036,K,D*35
$GNGNS,050250.00,3726.9323267,N,12639.3475415,E,RRRR,27,0.59,20.671,17.841,,4095,V*2A
$GNGGA,050250.00,3726.9323267,N,12639.3475415,E,4,12,0.59,20.671,M,17.841,M,,4095*79
$GNGSA,A,3,06,03,19,17,14,02,11,,,,,,1.12,0.59,0.95,1*0F
$GNGSA,A,3,78,87,88,71,65,72,,,,,,,1.12,0.59,0.95,2*00
$GNGSA,A,3,15,36,34,02,30,,,,,,,,1.12,0.59,0.95,3*06
$GNGSA,A,3,03,07,10,28,08,02,14,01,13,,,,1.12,0.59,0.95,4*05
$GPGSV,4,1,13,02,23,283,32,03,21,044,39,06,59,316,44,09,32,117,22,1*63
$GPGSV,4,2,13,11,27,278,42,12,21,312,35,14,15,184,31,17,67,117,46,1*64
$GPGSV,4,3,13,19,82,020,44,20,18,228,29,28,,,35,41,27,238,46,1*5E
$GPGSV,4,4,13,50,47,179,38,1*54
$GPGSV,2,1,06,03,21,044,35,06,59,316,29,11,27,278,38,12,21,312,32,6*67
$GPGSV,2,2,06,14,15,184,30,17,67,117,37,6*6E
$GPGSV,1,1,03,01,00,080,,04,27,079,,40,06,259,,0*5C
$GLGSV,2,1,06,65,46,161,37,71,17,030,31,72,55,071,47,78,21,278,38,1*75
$GLGSV,2,2,06,87,54,039,42,88,40,325,42,1*7A
$GLGSV,2,1,05,65,46,161,26,71,17,030,28,72,55,071,40,78,21,278,41,3*75
$GLGSV,2,2,05,88,40,325,39,3*45
$GLGSV,1,1,03,77,08,224,,79,10,328,,86,12,096,,0*42
$GNRMC,050251.00,A,3726.9323298,N,12639.3475390,E,0.010,,220622,,,R,V*0B
$GNVTG,,T,,M,0.010,N,0.018,K,D*30
$GNGNS,050251.00,3726.9323298,N,12639.3475390,E,RRRR,27,0.59,20.676,17.841,,4095,V*26
$GNGGA,050251.00,3726.9323298,N,12639.3475390,E,4,12,0.59,20.676,M,17.841,M,,4095*75
$GNGSA,A,3,06,03,19,17,14,02,11,,,,,,1.12,0.59,0.95,1*0F
$GNGSA,A,3,78,87,88,71,65,72,,,,,,,1.12,0.59,0.95,2*00
$GNGSA,A,3,15,36,34,02,30,,,,,,,,1.12,0.59,0.95,3*06
$GNGSA,A,3,03,07,10,28,08,02,14,01,13,,,,1.12,0.59,0.95,4*05
$GPGSV,4,1,13,02,23,283,31,03,21,044,39,06,59,316,44,09,32,117,23,1*61
$GPGSV,4,2,13,11,27,278,42,12,21,312,31,14,14,183,30,17,67,117,46,1*67
$GPGSV,4,3,13,19,82,020,44,20,18,228,29,28,,,35,41,27,238,46,1*5E
$GPGSV,4,4,13,50,47,179,38,1*54
$GPGSV,2,1,06,03,21,044,34,06,59,316,29,11,27,278,38,12,21,312,32,6*66
$GPGSV,2,2,06,14,14,183,30,17,67,117,37,6*68
$GPGSV,1,1,03,01,00,080,,04,27,079,,40,06,259,,0*5C
$GLGSV,2,1,06,65,46,161,38,71,17,030,32,72,55,071,48,78,21,278,38,1*76
$GLGSV,2,2,06,87,54,039,41,88,40,325,42,1*79
$GLGSV,2,1,05,65,46,161,26,71,17,030,30,72,55,071,39,78,21,278,41,3*72
$GLGSV,2,2,05,88,40,325,39,3*45
$GLGSV,1,1,03,77,08,224,,79,10,328,,86,12,096,,0*42
$GAGSV,2,1,08,02,25,208,32,05,33,140,23,09,34,076,21,15,15,282,31,2*74
$GAGSV,2,2,08,18,70,307,47,30,37,267,45,34,58,319,39,36,48,059,44,2*7C
