$GNRMC,045006.00,A,3726.8312612,N,12639.2756142,E,0.016,,210622,,,F,V*15
$GNVTG,,T,,M,0.016,N,0.029,K,D*34
$GNGNS,045006.00,3726.8312612,N,12639.2756142,E,FFFF,28,0.58,17.938,17.840,2.0,4095,V*0B
$GNGGA,045006.00,3726.8312612,N,12639.2756142,E,5,12,0.58,17.938,M,17.840,M,2.0,4095*56
$GNGSA,A,3,19,09,06,17,14,12,03,04,,,,,1.16,0.58,1.00,1*0B
$GNGSA,A,3,71,72,87,,,,,,,,,,1.16,0.58,1.00,2*04
$GNGSA,A,3,14,03,10,08,28,33,01,27,13,07,,,1.16,0.58,1.00,4*0A
$GPGSV,3,1,11,02,18,277,17,03,28,044,35,04,25,088,36,06,55,303,43,1*61
$GPGSV,3,2,11,09,27,124,32,11,22,271,29,12,16,318,37,14,21,186,38,1*68
$GPGSV,3,3,11,17,72,100,45,19,76,350,44,50,47,179,40,1*55
$GPGSV,2,1,07,03,28,044,33,04,25,088,30,06,55,303,39,09,27,124,31,6*6B
$GPGSV,2,2,07,12,16,318,37,14,21,186,39,17,72,100,40,6*5B
$GPGSV,1,1,02,01,05,074,,20,11,224,,0*66
$GLGSV,2,1,07,70,26,036,23,71,56,096,48,72,32,165,41,77,25,283,06,1*76
$GLGSV,2,2,07,78,07,336,21,85,22,085,37,87,29,312,39,1*48
$GLGSV,1,1,04,71,56,096,42,72,32,165,40,77,25,283,09,85,22,085,25,3*70
$GLGSV,1,1,02,76,17,232,,86,53,036,,0*72
$GAGSV,2,1,07,01,24,307,40,03,25,062,25,08,34,121,30,13,65,351,38,2*71
$GAGSV,2,2,07,15,33,068,35,21,41,251,46,26,27,284,27,2*45
$GAGSV,2,1,07,01,24,307,39,03,25,062,35,08,34,121,19,13,65,351,34,7*7C
$GAGSV,2,2,07,15,33,068,38,21,41,251,43,26,27,284,31,7*4F
$GAGSV,1,1,03,07,11$GNRMC,045007.00,A,3726.8313725,N,12639.2756913,E,0.008,,210622,,,F,V*13
$GNVTG,,T,,M,0.008,N,0.014,K,D*35
$GNGNS,045007.00,3726.8313725,N,12639.2756913,E,FFFF,28,0.58,17.496,17.840,2.0,4095,V*0B
$GNGSA,A,3,19,09,06,17,14,12,03,04,,,,,1.16,0.58,1.00,1*0B
$GNGSA,A,3,71,72,87,,,,,,,,,,1.16,0.58,1.00,2*04
$GNGSA,A,3,15,01,26,03,21,08,13,,,,,,1.16,0.58,1.00,3*02
$GNGSA,A,3,14,03,10,08,28,33,01,27,13,07,,,1.16,0.58,1.00,4*0A
$GPGSV,3,1,11,02,18,277,18,03,28,044,36,04,25,088,36,06,55,303,44,1*6A
$GPGSV,3,2,11,09,27,124,33,11,22,271,30,12,16,318,38,14,21,186,39,1*6F
$GPGSV,3,3,11,17,72,100,45,19,76,350,44,50,47,179,40,1*55
$GPGSV,1,1,01,11,22,271,20,5*57
$GPGSV,2,1,07,03,28,044,33,04,25,088,31,06,55,303,40,09,27,124,32,6*67
$GPGSV,2,2,07,12,16,318,37,14,21,186,38,17,72,100,41,6*5B
$GPGSV,1,1,02,01,05,074,,20,11,224,,0*66
$GLGSV,2,1,07,70,26,036,23,71,56,096,48,72,32,165,40,77,25,283,06,1*77
$GLGSV,2,2,07,78,07,336,22,85,22,085,36,87,29,312,40,1*44
$GLGSV,1,1,04,71,56,096,42,72,32,165,39,77,25,283,11,85,22,085,25,3*77
$GLGSV,1,1,02,76,17,232,,86,53,036,,0*72
$GAGSV,2,1,07,01,24,307,40,03,25,062,26,08,34,121$GAGSV,2,2,07,15,33,068,36,21,41,251,46,26,27,284,27,2*46
$GAGSV,2,1,07,01,24,307,38,03,25,062,35,08,34,121,17,13,65,351,33,7*74
$GAGSV,2,2,07,15,33,068,39,21,41,251,43,26,27,284,31,7*4E
$GAGSV,1,1,03,07,11,170,,18,25,122,,27,20,194,,0*42
$GBGSV,3,1,10,01,43,152,38,03,44,206,36,07,63,216,32,08,53,264,39,1*7E
$GBGSV,3,2,10,10,63,247,42,13,44,258,35,14,22,044,32,27,57,322,43,1*79
$GBGSV,3,3,10,28,57,080,50,33,45,062,42,1*71
$GBGSV,2,1,08,01,43,152,43,03,44,206,39,04,35,132,30,07,63,216,37,3*77
$GBGSV,2,2,08,08,53,264,37,10,63,247,41,13,44,258,37,14,22,044,43,3*7D
$GBGSV,2,1,05,02,28,236,,05,08,256,,15,31,189,,30,10,299,,0*74
$GBGSV,2,2,05,30,10,299,,0*42
$GNRMC,045008.00,A,3726.8314672,N,12639.2757536,E,0.010,,210622,,,F,V*1B
$GNVTG,,T,,M,0.010,N,0.018,K,D*30
$GNGNS,045008.00,3726.8314672,N,12639.2757536,E,FFFF,28,0.58,17.070,17.840,2.0,4095,V*06
$GNGGA,045008.00,3726.8314672,N,12639.2757536,E,5,12,0.58,17.070,M,17.840,M,2.0,4095*5B
$GNGSA,A,3,19,09,06,17,14,12,03,04,,,,,1.16,0.58,1.00,1*0B
$GNGSA,A,3,71,72,87,,,,,,,,,,1.16,0.58,1.00,2*04
$GNGSA,A,3,15,01,26,03,21,08,13,,,,,,1.16,0.58,1.00,3*02
$GNGSA,A,3,14,03,10,08,28,33,01,27,13,07,,,1.16,0.58,1.00,4*0A
$GPGSV,3,2,11,09,27,124,32,11,22,271,31,12,16,318,39,14,21,186,40,1*60
$GPGSV,3,3,11,17,72,100,45,19,76,350,44,50,47,179,40,1*55
$GPGSV,2,1,08,03,28,044,33,04,25,088,32,06,55,303,40,09,27,124,31,6*68
$GPGSV,2,2,08,11,22,271,19,12,16,318,35,14,21,186,38,17,72,100,41,6*6A
$GPGSV,1,1,02,01,05,074,,20,11,224,,0*66
$GLGSV,2,1,07,70,26,036,23,71,56,096,48,72,32,165,41,77,25,283,09,1*79
$GLGSV,2,2,07,78,07,336,23,85,22,085,36,87,29,312,41,1*44
$GLGSV,1,1,04,71,56,096,42,72,32,165,39,77,25,283,13,85,22,085,24,3*74
$GLGSV,1,1,02,76,17,232,,86,53,036,,0*72
$GAGSV,2,1,07,01,24,307,40,03,25,062,26,08,34,121,29,13,65,351,38,2*7A
$GAGSV,2,2,07,15,33,068,35,21,41,251,46,26,27,284,26,2*44
$GAGSV,2,1,07,01,24,307,37,03,25,062,34,08,34,121,19,13,65,351,34,7*73
$GAGSV,2,2,07,15,33,068,39,21,41,251,43,26,27,284,30,7*4F
$GAGSV,1,1,03,07,11,170,,18,25,122,,27,20,194,,0*42
$GBGSV,3,1,10,01,43,152,39,03,44,206,36,07,63,216,32,08,53,264,39,1*7F
$GB$GNRMC,045009.00,A,3726.8315515,N,12639.2758095,E,0.011,,210622,,,F,V*1B
$GNVTG,,T,,M,0.011,N,0.020,K,D*3A
$GNGNS,045009.00,3726.8315515,N,12639.2758095,E,FFFF,28,0.58,16.710,17.840,2.0,4095,V*07
$GNGGA,045009.00,3726.8315515,N,12639.2758095,E,5,12,0.58,16.710,M,17.840,M,2.0,4095*5A
$GNGSA,A,3,19,09,06,17,14,12,03,04,,,,,1.16,0.58,1.00,1*0B
$GNGSA,A,3,71,72,87,,,,,,,,,,1.16,0.58,1.00,2*04
$GNGSA,A,3,15,01,26,03,21,08,13,,,,,,1.16,0.58,1.00,3*02
$GNGSA,A,3,14,03,10,08,28,33,01,27,13,07,,,1.16,0.58,1.00,4*0A
$GPGSV,3,1,11,02,18,277,22,03,28,044,35,04,25,088,36,06,55,303,44,1*60
$GPGSV,3,2,11,09,27,124,32,11,22,271,32,12,16,318,39,14,21,186,40,1*63
$GPGSV,3,3,11,17,72,100,45,19,76,350,44,50,47,179,41,1*54
$GPGSV,2,1,08,03,28,044,33,04,25,088,32,06,55,303,41,09,27,124,30,6*68
$GPGSV,2,2,08,11,22,271,16,12,16,318,36,14,21,186,38,17,72,100,41,6*66
$GPGSV,1,1,02,01,05,074,,20,11,224,,0*66
$GLGSV,2,1,07,70,26,036,24,71,56,096,48,72,32,165,41,77,25,283,11,1*77
$GLGSV,2,2,07,78,07,336,22,85,22,085,37,87,29,312,42,1*47
$GLGSV,1,1,04,71,56,096,41,72,32,165,39,77,25,283,13,85,22,085,24,3*77
$GLGSV,1,1,02,76,17,232,,86,53,036,,0*72
$GAGSV,2,1,07,01,24,307,40,03,25,062,26,08,34,121,28,13,65,351,38,2*7B
$GAGSV,2,2,07,15,33,068,35,21,41,251,46,26,27,284,25,2*47
$GAGSV,2,1,07,01,24,307,37,03,25,062,34,08,34,121,22,13,65,351,34,7*7B
$GAGSV,2,2,07,15,33,068,39,21,41,251,43,26,27,284,30,7*4F
$GAGSV,1,1,03,07,11,170,,18,25,122,,27,20,194,,0*42
$GBGSV,3,1,10,01,43,152,39,03,44,206,36,07,63,216,33,08,53,264,39,1*7E
$GBGSV,3,2,10,10,63,247,42,13,44,258,35,14,21,043,32,27,57,322,43,1*7D
$GBGSV,3,3,10,28,57,080,50,33,45,062,42,1*71
$GBGSV,2,1,08,01,43,152,43,03,44,206,39,04,35,132,30,07,63,216,38,3*78
$GBGSV,2,2,08,08,53,264,37,10,63,247,41,13,44,258,37,14,21,043,43,3*79
$GBGSV,2,1,05,02,28,236,,05,08,256,,15,31,189,,30,10,299,,0*74
$GBGSV,2,2,05,30,10,299,,0*42
$GNRMC,045010.00,A,3726.8316175,N,12639.2758487,E,0.013,,210622,,,F,V*17
$GNVTG,,T,,M,0.013,N,0.025,K,D*3D
$GNGGA,045010.00,3726.8316175,N,12639.2758487,E,5,12,0.58,16.408,M,17.840,M,2.0,4095*5E
$GNGSA,A,3,19,09,06,17,14,12,03,04,,,,,1.16,0.58,1.00,1*0B
$GNGSA,A,3,71,72,87,,,,,,,,,,1.16,0.58,1.00,2*04
$GNGSA,A,3,15,01,26,03,21,08,13,,,,,,1.16,0.58,1.00,3*02
$GNGSA,A,3,14,03,10,08,28,33,01,27,13,07,,,1.16,0.58,1.00,4*0A
$GPGSV,3,1,11,02,18,277,24,03,28,044,36,04,25,088,36,06,55,303,44,1*65
$GPGSV,3,2,11,09,27,124,34,11,22,271,32,12,16,318,39,14,21,186,40,1*65
$GPGSV,3,3,11,17,72,100,46,19,76,350,45,50,47,179,41,1*56
$GPGSV,1,1,01,11,22,271,21,5*56
$GPGSV,2,1,07,03,28,044,34,04,25,088,32,06,55,303,40,09,27,124,29,6*69
$GPGSV,2,2,07,12,16,318,36,14,21,186,39,17,72,100,41,6*5B
$GPGSV,1,1,02,01,05,074,,20,11,224,,0*66
$GLGSV,2,1,07,70,26,036,24,71,56,096,48,72,32,165,42,77,25,283,09,1*7D
$GLGSV,2,2,07,78,07,336,22,85,22,085,37,87,29,312,40,1*45
$GLGSV,1,1,04,71,56,096,41,72,32,165,40,77,25,283,14,85,22,085,23,3*79
$$GAGSV,2,1,07,01,24,307,38,03,25,062,27,08,34,121,29,13,65,351,38,2*74
$GAGSV,2,2,07,15,33,068,35,21,41,251,46,26,27,284,24,2*46
$GAGSV,2,1,07,01,24,307,37,03,25,062,33,08,34,121,24,13,65,351,34,7*7A
$GAGSV,2,2,07,15,33,068,39,21,41,251,43,26,27,284,29,7*47
$GAGSV,1,1,03,07,11,170,,18,25,122,,27,20,194,,0*42
$GBGSV,3,1,10,01,43,152,38,03,44,206,36,07,63,216,34,08,53,264,39,1*78
$GBGSV,3,2,10,10,63,247,42,13,44,258,35,14,21,043,31,27,57,322,43,1*7E
$GBGSV,3,3,10,28,57,080,50,33,45,062,42,1*71
$GBGSV,2,1,08,01,43,152,43,03,44,206,39,04,35,132,30,07,63,216,38,3*78
$GBGSV,2,2,08,08,53,264,38,10,63,247,41,13,44,258,36,14,21,043,43,3*77
$GBGSV,2,1,05,02,28,236,,05,08,256,,15,31,189,,30,10,299,,0*74
$GBGSV,2,2,05,30,10,299,,0*42
$GNRMC,045011.00,A,3726.8316656,N,12639.2758832,E,0.009,,210622,,,F,V*19
$GNVTG,,T,,M,0.009,N,0.017,K,D*37
$GNGNS,045011.00,3726.8316656,N,12639.2758832,E,FFFF,28,0.58,16.156,17.840,2.0,4095,V*08
$GNGGA,045011.00,3726.8316656,N,12639.2758832,E,5,12,0.58,16.156,M,17.840,M,2.0,4095*55
$GNGSA,A,3,19,09,06,17,14,12,03,04,,,,,1.16,0.58,1.00,1*0B
$GNGSA,A,3,71,72,87,,,,,,,,,,1.16,0.58,1.00,2*04
$GNGSA,A,3,15,01,26,03,21,08,13,,,,,,1.16,0.58,1.00,3*02
$GNGSA,A,3,14,03,10,08,28,33,01,27,13,07,,,1.16,0.58,1.00,4*0A
$GPGSV,3,1,12,02,18,277,25,03,28,044,35,04,25,088,35,06,55,303,44,1*67
$GPGSV,3,2,12,09,27,124,34,11,22,271,32,12,16,318,38,14,21,186,39,1*69
$GPGSV,3,3,12,17,72,100,46,19,76,350,45,28,,,37,50,47,179,41,1*5B
$GPGSV,2,1,08,03,28,044,34,04,25,088,32,06,55,303,41,09,27,124,29,6*67
$GPGSV,2,2,08,11,22,271,21,12,16,318,36,14,21,186,39,17,72,100,41,6*63
$GPGSV,1,1,02,01,05,074,,20,11,224,,0*66
$GLGSV,2,1,07,70,26,036,23,71,56,096,48,72,32,165,42,77,25,283,09,1*7A
$GLGSV,2,2,07,78,07,336,22,85,22,085,38,87,29,312,41,1*4B
$GLGSV,1,1,04,71,56,096,42,72,32,165,40,77,25,283,16,85,22,085,23,3*78
$GLGSV,1,1,02,76,17,232,,86,53,036,,0*72
$GAGSV,2,1,07,01,24,307,38,03,25,062,28,08,34,121,33,13,65,351,38,2*70
$GAGSV,2,2,07,15,33,068,36,21,41,251,46,26,27,284,25,2*44
$GAGSV,2,1,07,01,24,307,36,03,25,062,33,08,34,121,25,13,65,351,35,7*7B
$GAGSV,2,2,07,15,33,068,38,21,41,251,43,26,27,284,27,7*48
$GAGSV,1,1,03,07,11,170,,18,25,122,,27,20,194,,0*42
$GBGSV,3,1,10,01,43,152,38,03,44,206,36,07,63,216,34,08,53,264,39,1*78
$GBGSV,3,2,10,10,63,247,42,13,44,258,34,14,21,043,30,27,57,322,43,1*7E
$GBGSV,3,3,10,28,57,080,50,33,45,062,43,1*70
$GBGSV,2,1,08,01,43,152,43,03,44,206,40,04,35,132,29,07,63,216,37,3*71
$GBGSV,2,2,08,08,53,264,38,10,63,247,41,13,44,258,37,14,21,043,43,3*76
$GBGSV,2,1,05,02,28,236,,05,08,256,,15,31,189,,30,10,299,,0*74
$GBGSV,2,2,05,30,10,299,,0*42
$GNRMC,045012.00,A,3726.8316923,N,12639.2759133,E,0.009,,210622,,,F,V*1E
$GNVTG,,T,,M,0.009,N,0.016,K,D*36
$GNGNS,045012.00,3726.8316923,N,12639.2759133,E,FFFF,28,0.58,15.974,17.840,2.0,4095,V*04
$GNGGA,045012.00,3726.8316923,N,12639.2759133,E,5,12,0.58,15.974,M,17.840,M,2.0,4095*59
$GNGSA,A,3,19,09,06,17,14,12,03,04,,,,,1.16,0.58,1.00,1*0B
$GNGSA,A,3,71,72,87,,,,,,,,,,1.16,0.58,1.00,2*04
$GNGSA,A,3,15,01,26,03,21,08,13,,,,,,1.16,0.58,1.00,3*02
$GNGSA,A,3,14,03,10,08,28,33,01,27,13,07,,,1.16,0.58,1.00,4*0A
$GPGSV,3,1,12,02,18,277,26,03,28,044,35,04,25,088,35,06,55,303,44,1*64
$GPGSV,3,2,12,09,27,124,34,11,22,271,31,12,16,318,40,14,21,186,39,1*65
$GPGSV,3,3,12,17,72,100,46,19,76,350,45,28,,,37,50,47,179,41,1*5B
$GPGSV,2,1,08,03,28,044,33,04,25,088,32,06,55,303,41,09,27,124,28,6*61
$GPGSV,2,2,08,11,22,271,21,12,16,318,36,14,21,186,39,17,72,100,41,6*63
$GPGSV,1,1,02,01,05,074,,20,11,224,,0*66
$GLGSV,2,1,07,70,26,036,22,71,56,096,48,72,32,165,42,77,25,283,08,1*7A
$GLGSV,2,2,07,78,07,336,22,85,22,085,38,87,29,312,41,1*4B
$GNRMC,045013.00,A,3726.8317013,N,12639.2759512,E,0.003,,210622,,,F,V*19
$GNVTG,,T,,M,0.003,N,0.006,K,D*3D
$GNGGA,045013.00,3726.8317013,N,12639.2759512,E,5,12,0.58,15.834,M,17.840,M,1.0,4095*52
$GNGSA,A,3,19,09,06,17,14,12,03,04,,,,,1.16,0.58,1.00,1*0B
$GNGSA,A,3,71,72,87,,,,,,,,,,1.16,0.58,1.00,2*04
$GNGSA,A,3,15,01,26,03,21,08,13,,,,,,1.16,0.58,1.00,3*02
$GNGSA,A,3,14,03,10,08,28,33,01,27,13,07,,,1.16,0.58,1.00,4*0A
$GPGSV,3,1,12,02,18,277,27,03,28,044,36,04,25,088,35,06,55,303,44,1*66
$GPGSV,3,2,12,09,27,124,36,11,22,271,29,12,16,318,38,14,21,186,39,1*61
$GPGSV,3,3,12,17,72,100,46,19,76,350,45,28,,,38,50,47,179,41,1*54
$GPGSV,2,1,08,03,28,044,33,04,25,088,32,06,55,303,41,09,27,124,27,6*6E
$GPGSV,2,2,08,11,22,271,22,12,16,318,38,14,21,186,39,17,72,100,41,6*6E
$GPGSV,1,1,02,01,05,074,,20,11,224,,0*66
$GLGSV,2,1,07,70,26,036,23,71,56,096,49,72,32,165,42,77,25,283,12,1*71
$GLGSV,2,2,07,78,07,336,20,85,22,085,37,87,29,312,37,1*47
$GLGSV,1,1,04,71,56,096,42,72,32,165,40,77,25,283,17,85,22,085,26,3*7C
$GLGSV,1,1,02$GAGSV,2,1,07,01,24,307,40,03,25,062,28,08,34,121,33,13,65,351,39,2*7E
$GAGSV,2,2,07,15,33,068,37,21,41,251,47,26,27,284,25,2*44
$GAGSV,2,1,07,01,24,307,37,03,25,062,34,08,34,121,24,13,65,351,35,7*7C
$GAGSV,2,2,07,15,33,068,37,21,41,251,43,26,27,284,25,7*45
$GAGSV,1,1,03,07,11,170,,18,25,122,,27,20,194,,0*42
$GBGSV,3,1,10,01,43,152,37,03,44,206,36,07,63,216,33,08,53,264,39,1*70
$GBGSV,3,2,10,10,63,247,41,13,44,258,32,14,21,043,29,27,57,322,43,1*73
$GBGSV,3,3,10,28,57,080,49,33,45,062,42,1*79
$GBGSV,2,1,08,01,43,152,43,03,44,206,40,04,35,132,30,07,63,216,37,3*79
$GBGSV,2,2,08,08,53,264,38,10,63,247,40,13,44,258,36,14,21,043,43,3*76
$GBGSV,2,1,05,02,28,236,,05,08,256,,15,31,189,,30,10,299,,0*74
$GBGSV,2,2,05,30,10,299,,0*42
$GNRMC,045014.00,A,3726.8316984,N,12639.2759815,E,0.009,,210622,,,F,V*18
$GNVTG,,T,,M,0.009,N,0.017,K,D*37
$GNGNS,045014.00,3726.8316984,N,12639.2759815,E,FFFF,28,0.58,15.732,17.840,2.0,4095,V*0E
$GNGGA,045014.00,3726.8316984,N,12639.2759815,E,5,12,0.58,15.732,M,17.840,M,2.0,4095*53
$GNGSA,A,3,19,09,06,17,14,12,03,04,,,,,1.16,0.58,1.00,1*0B
$GNGSA,A,3,71,72,87,,,,,,,,,,1.16,0.58,1.00,2*04
$GNGSA,A,3,15,01,26,03,21,08,13,,,,,,1.16,0.58,1.00,3*02
$GNGSA,A,3,14,03,10,08,28,33,01,27,13,07,,,1.16,0.58,1.00,4*0A
$GPGSV,3,1,12,02,18,277,28,03,28,044,36,04,25,088,35,06,55,303,44,1*69
$GPGSV,3,2,12,09,27,124,35,11,22,271,29,12,16,318,40,14,21,186,39,1*6D
$GPGSV,3,3,12,17,72,100,46,19,76,350,45,28,,,39,50,47,179,41,1*55
$GPGSV,2,1,08,03,28,044,33,04,25,088,32,06,55,303,40,09,27,124,28,6*60
$GPGSV,2,2,08,11,22,271,21,12,16,318,38,14,21,186,38,17,72,100,41,6*6C
$GPGSV,1,1,02,01,05,074,,20,11,224,,0*66
$GLGSV,2,1,07,70,26,036,23,71,56,096,49,72,32,165,41,77,25,283,08,1*79
$GLGSV,2,2,07,78,07,336,18,85,22,085,37,87,29,312,39,1*42
$GLGSV,1,1,04,71,56,096,42,72,32,165,41,77,25,283,17,85,22,085,26,3*7D
$GLGSV,1,1,02,76,17,232,,86,53,036,,0*72
$GAGSV,2,1,07,01,24,307,41,03,25,062,28,08,34,121,32,13,65,351,39,2*7E
$GAGSV,2,2,07,15,33,068,37,21,41,251,46,26,27,284,25,2*45
$GAGSV,2,1,07,01,24,307,39,03,25,062,34,08,34,121,26,13,65,351,34,7*71
$GAGSV,2,2,07,15,33,068,37,21,41,251,43,26,27,284,26,7*46
$GAGSV,1,1,03,07,11,170,,18,25,122,,27,20,194,,0*42
$GBGSV,3,1,10,01,43,152,37,03,44,206,36,07,63,216,34,08,53,264,39,1*77
$GBGSV,3,2,10,10,63,247,42,13,44,258,32,14,21,043,29,27,57,322,43,1*70
$GBGSV,3,3,10,28,57,080,49,33,45,062,42,1*79
$GBGSV,2,1,08,01,43,152,43,03,44,206,40,04,35,132,30,07,63,216,37,3*79
$GBGSV,2,2,08,08,53,264,38,10,63,247,41,13,44,258,36,14,21,043,42,3*76
$GBGSV,2,1,05,02,28,236,,05,08,256,,15,31,189,,30,10,299,,0*74
$GBGSV,2,2,05,30,10,299,,0*42
$GNRMC,045015.00,A,3726.8316983,N,12639.2760099,E,0.009,,210622,,,F,V*18
$GNVTG,,T,,M,0.009,N,0.016,K,D*36
$GNGNS,045015.00,3726.8316983,N,12639.2760099,E,FFFF,28,0.58,15.683,17.840,2.0,4095,V*05
$GNGGA,045015.00,3726.8316983,N,12639.2760099,E,5,12,0.58,15.683,M,17.840,M,2.0,4095*58
$GNGSA,A,3,19,11,09,06,17,14,12,03,04,,,,1.13,0.58,0.97,1*01
$GNGSA,A,3,71,72,87,,,,,,,,,,1.13,0.58,0.97,2*0E
$GNGSA,A,3,15,01,03,21,08,13,,,,,,,1.13,0.58,0.97,3*0C
$GNGSA,A,3,14,03,10,08,28,33,01,27,13,07,,,1.13,0.58,0.97,4*00
$GPGSV,3,1,12,02,18,277,27,03,28,044,35,04,25,088,35,06,55,303,44,1*65
$GPGSV,3,2,12,09,27,124,35,11,22,271,33,12,16,318,40,14,21,186,39,1*66
$GPGSV,3,3,12,17,72,100,46,19,76,350,45,28,,,38,50,47,179,42,1*57
$GPGSV,2,1,08,03,28,044,32,04,25,088,32,06,55,303,39,09,27,124,28,6*6F
$GPGSV,2,2,08,11,22,271,19,12,16,318,35,14,21,186,36,17,72,100,39,6*6B
$GPGSV,1,1,02,01,05,074,,20,11,224,,0*66
$GLGSV,2,1,07,70,26,036,23,71,56,096,48,72,32,165,41,77,25,283,10,1*71
$GLGSV,2,2,07,78,07,336,19,85,22,085,37,87,29,312,37,1*4D
$GLGSV,1,1,04,71,56,096,38,72,32,165,38,77,25,283,17,85,22,085,26,3*7E
$GLGSV,1,1,02,76,17,232,,86,53,036,,0*72
$GAGSV,2,1,07,01,24,307,40,03,25,062,29,08,34,121,33,13,65,351,37,2*71
$GAGSV,2,2,07,15,33,068,36,21,41,251,44,26,27,284,26,2*45
$GAGSV,2,1,07,01,24,307,39,03,25,062,34,08,34,121,27,13,65,351,35,7*71
$GAGSV,2,2,07,15,33,068,37,21,41,251,44,26,27,284,25,7*42
$GAGSV,1,1,03,07,11,170,,18,25,122,,27,20,194,,0*42
$GBGSV,3,1,10,01,43,152,39,03,44,206,36,07,63,216,33,08,53,264,39,1*7E
$GBGSV,3,2,10,10,63,247,42,13,44,258,32,14,21,043,31,27,57,322,44,1*7E
$GBGSV,3,3,10,28,57,080,50,33,45,062,42,1*71
$GBGSV,2,1,08,01,43,152,41,03,44,206,38,04,35,132,30,07,63,216,35,3*76
$GBGSV,2,2,08,08,53,264,36,10,63,247,39,13,44,258,37,14,21,043,39,3*7A
$GBGSV,2,1,05,02,28,236,,05,08,256,,15,31,189,,30,10,299,,0*74
$GBGSV,2,2,05,30,10,299,,0*42
$GNRMC,045016.00,A,3726.8317075,N,12639.2760369,E,0.014,,210622,,,F,V*1A
$GNVTG,,T,,M,0.014,N,0.026,K,D*39
$GNGNS,045016.00,3726.8317075,N,12639.2760369,E,FFFF,28,0.58,15.684,17.840,3.0,4095,V*0D
$GNGSA,A,3,19,11,09,06,17,14,12,03,04,,,,1.13,0.58,0.97,1*01
$GNGSA,A,3,71,72,87,,,,,,,,,,1.13,0.58,0.97,2*0E
$GNGSA,A,3,15,01,03,21,08,13,,,,,,,1.13,0.58,0.97,3*0C
$GNGSA,A,3,14,03,10,08,28,33,01,27,13,07,,,1.13,0.58,0.97,4*00
$GPGSV,3,1,12,02,18,277,27,03,28,044,36,04,25,088,35,06,55,303,43,1*61
$GPGSV,3,2,12,09,27,124,35,11,22,271,31,12,16,318,40,14,21,186,39,1*64
$GPGSV,3,3,12,17,72,100,46,19,76,350,45,28,,,39,50,47,179,41,1*55
$GPGSV,2,1,08,03,28,044,31,04,25,088,32,06,55,303,40,09,27,124,29,6*63
$GPGSV,2,2,08,11,22,271,18,12,16,318,37,14,21,186,37,17,72,100,40,6*67
$GPGSV,1,1,02,01,05,074,,20,11,224,,0*66
$GLGSV,2,1,07,70,26,036,23,71,56,096,48,72,32,165,42,77,25,283,09,1*7A
$GLGSV,2,2,07,78,07,336,19,85,22,085,36,87,29,312,38,1*43
$GLGSV,1,1,04,71,56,096,41,72,32,165,39,77,25,283,16,85,22,085,26,3*70
$GLGSV,1,1,02,76,17,232,,86,53,036,,0*72
$GAGSV,2,1,07,01,24,307,40,03,25,062,29,08,34,121,32,13,65,35$GNRMC,045017.00,A,3726.8317153,N,12639.2760606,E,0.006,,210622,,,F,V*11
$GNVTG,,T,,M,0.006,N,0.010,K,D*3F
$GNGNS,045017.00,3726.8317153,N,12639.2760606,E,FFFF,28,0.58,15.611,17.840,2.0,4095,V*08
$GNGGA,045017.00,3726.8317153,N,12639.2760606,E,5,12,0.58,15.611,M,17.840,M,2.0,4095*55
$GNGSA,A,3,19,11,09,06,17,14,12,03,04,,,,1.13,0.58,0.97,1*01
$GNGSA,A,3,71,72,87,,,,,,,,,,1.13,0.58,0.97,2*0E
$GNGSA,A,3,15,01,03,21,08,13,,,,,,,1.13,0.58,0.97,3*0C
$GNGSA,A,3,14,03,10,08,28,33,01,27,13,07,,,1.13,0.58,0.97,4*00
$GPGSV,3,1,12,02,18,277,27,03,28,044,36,04,25,088,35,06,55,303,43,1*61
$GPGSV,3,2,12,09,27,124,35,11,22,271,30,12,16,318,41,14,21,186,40,1*6A
$GPGSV,3,3,12,17,72,100,46,19,76,350,44,28,,,39,50,47,179,41,1*54
$GPGSV,2,1,08,03,28,044,33,04,25,088,32,06,55,303,43,09,27,124,30,6*6A
$GPGSV,2,2,08,11,22,271,18,12,16,318,41,14,21,186,40,17,72,100,43,6*65
$GPGSV,1,1,02,01,05,074,,20,11,224,,0*66
$GLGSV,2,1,07,70,26,036,24,71,56,096,48,72,32,165,40,77,25,283,10,1*77
$GLGSV,2,2,07,78,07,336,22,85,22,085,38,87,29,312,38,1*45
$GLGSV,1,1,04,71,56,096,44,72,32,165,41,77,25,283,16,85,22,085,26,3*7A
$GLGSV,1,1,02,76,17,232,,86,53,036,,0*72
$GAGSV,2,1,07,01,24,307,41,03,25,062,28,08,34,121,30,13,65,351,37,2*72
$GAGSV,2,2,07,15,33,068,35,21,41,251,46,26,27,284,26,2*44
$GAGSV,2,1,07,01,24,307,36,03,25,062,35,08,34,121,29,13,65,351,36,7*72
$GAGSV,2,2,07,15,33,068,37,21,41,251,43,26,27,284,25,7*45
$GAGSV,1,1,03,07,11,170,,18,25,122,,27,20,194,,0*42
$GBGSV,3,1,10,01,43,152,38,03,44,206,37,07,63,216,33,08,53,264,40,1*70
$GBGSV,3,2,10,10,63,247,42,13,44,258,34,14,21,043,32,27,57,322,44,1*7B
$GBGSV,3,3,10,28,57,080,50,33,45,062,41,1*72
$GBGSV,2,1,08,01,43,152,47,03,44,206,41,04,35,132,32,07,63,216,41,3*7F
$GBGSV,2,2,08,08,53,264,40,10,63,247,44,13,44,258,40,14,21,043,44,3*7B
$GBGSV,2,1,05,02,28,236,,05,08,256,,15,31,189,,30,10,299,,0*74
$GBGSV,2,2,05,30,10,299,,0*42
$GNRMC,045018.00,A,3726.8317202,N,12639.2760822,E,0.005,,210622,,,F,V*12
$GNVTG,,T,,M,0.005,N,0.009,K,D*34
$GNGNS,045018.00,3726.8317202,N,12639.2760822,E,FFFF,28,0.58,15.485,17.840,2.0,4095,V*07
$GNGGA,045018.00,3726.8317202,N,12639.2760822,E,5,12,0.58,15.485,M,17.840,M,2.0,4095*5A
$GNGSA,A,3,19,11,09,06,17,14,12,03,04,,,,1.13,0.58,0.97,1*01
$GNGSA,A,3,71,72,87,,,,,,,,,,1.13,0.58,0.97,2*0E
$GNGSA,A,3,15,01,03,21,08,13,,,,,,,1.13,0.58,0.97,3*0C
$GNGSA,A,3,14,03,10,08,28,33,01,27,13,07,,,1.13,0.58,0.97,4*00
$GPGSV,3,1,12,02,18,277,27,03,28,044,37,04,25,088,34,06,55,303,43,1*61
$GPGSV,3,2,12,09,27,124,34,11,22,271,31,12,16,318,41,14,21,186,41,1*6B
$GPGSV,3,3,12,17,72,100,46,19,76,350,46,28,,,38,50,47,179,41,1*57
$GPGSV,2,1,08,03,28,044,33,04,25,088,33,06,55,303,42,09,27,124,30,6*6A
$GPGSV,2,2,08,11,22,271,19,12,16,318,40,14,21,186,39,17,72,100,42,6*6A
$GPGSV,1,1,02,01,05,074,,20,11,224,,0*66
$GLGSV,2,1,07,70,26,036,25,71,56,096,49,72,32,165,39,77,25,283,10,1*79
$GLGSV,2,2,07,78,07,336,22,85,22,085,39,87,29,312,39,1*45
$GLGSV,1,1,04,71,56,096,43,72,32,165,41,77,25,283,15,85,22,085,26,3*7E
$GLGSV,1,1,02,76,17,232,,86,53,036,,0*72
$GAGSV,2,1,07,01,24,307,41,03,25,062,28,08,34,121,30,13,65,351,37,2*72
$GAGSV,2,2,07,15,33,068,36,21,41,251,46,26,27,284,26,2*47
$GNRMC,045019.00,A,3726.8317131,N,12639.2761017,E,0.009,,210622,,,F,V*13
$GNVTG,,T,,M,0.009,N,0.016,K,D*36
$GNGNS,045019.00,3726.8317131,N,12639.2761017,E,FFFF,28,0.60,15.368,17.840,2.0,4095,V*05
$GNGGA,045019.00,3726.8317131,N,12639.2761017,E,5,12,0.60,15.368,M,17.840,M,2.0,4095*58
$GNGSA,A,3,19,09,06,17,14,12,03,04,,,,,1.19,0.60,1.03,1*0C
$GNGSA,A,3,71,72,85,87,,,,,,,,,1.19,0.60,1.03,2*0E
$GNGSA,A,3,15,01,03,21,08,13,,,,,,,1.19,0.60,1.03,3*01
$GNGSA,A,3,14,03,10,08,28,33,01,27,13,07,,,1.19,0.60,1.03,4*0D
$GPGSV,3,1,11,02,18,277,28,03,28,044,37,04,25,088,35,06,55,303,44,1*6B
$GPGSV,3,2,11,09,27,124,33,12,16,318,39,14,21,186,40,17,72,100,47,1*66
$GPGSV,3,3,11,19,76,350,45,28,,,37,50,47,179,40,1*69
$GPGSV,2,1,08,03,28,044,31,04,25,088,33,06,55,303,41,09,27,124,30,6*6B
$GPGSV,2,2,08,11,22,271,16,12,16,318,39,14,21,186,39,17,72,100,41,6*68
$GPGSV,1,1,02,01,05,074,,20,11,224,,0*66
$GLGSV,2,1,07,70,26,036,24,71,56,096,48,72,32,165,42,77,25,283,10,1*75
$GLGSV,2,2,07,78,07,336,23,85,22,085,39,87,29,312,36,1*4B
$GLGSV,1,1,04,71,56,096,42,72,32,165,41,77,25,283,16,85,22,085,25,3*7F
$GLGSV,1,1,02,76,17,232,,86,53,036,,0*72
$GAGSV,2,1,07,01,24,307,39,03,25,062,29,08,34,121,30,13,65,351,37,2*7C
$GAGSV,2,2,07,15,33,068,36,21,41,251,46,26,27,284,27,2*46
$GAGSV,2,1,07,01,24,307,38,03,25,062,35,08,34,121,31,13,65,351,34,7*77
$GAGSV,2,2,07,15,33,068,38,21,41,251,43,26,27,284,24,7*4B
$GAGSV,1,1,03,07,11,170,,18,25,122,,27,20,194,,0*42
$GBGSV,3,1,11,01,43,152,39,03,44,206,37,04,35,132,32,07,63,216,34,1*7E
$GBGSV,3,2,11,08,53,264,39,10,63,247,42,13,44,258,35,14,21,043,30,1*79
$GBGSV,3,3,11,27,57,323,43,28,57,080,49,33,45,062,40,1*48
$GBGSV,2,1,08,01,43,152,44,03,44,206,40,04,35,132,34,07,63,216,38,3*75
$GBGSV,2,2,08,08,53,264,39,10,63,247,42,13,44,258,39,14,21,043,42,3*7B
$GBGSV,2,1,05,02,28,236,,05,08,256,,15,31,189,,30,10,299,,0*74
$GBGSV,2,2,05,30,10,299,,0*42
$GNRMC,045020.00,A,3726.8316989,N,12639.2761116,E,0.011,,210622,,,F,V*1A
$GNVTG,,T,,M,0.011,N,0.021,K,D*3B
$GNGNS,045020.00,3726.8316989,N,12639.2761116,E,FFFF,28,0.60,15.295,17.840,2.0,4095,V*06
$GNGGA,045020.00,3726.8316989,N,12639.2761116,E,5,12,0.60,15.295,M,17.840,M,2.0,4095*5B
$GNGSA,A,3,19,09,06,17,14,12,03,04,,,,,1.19,0.60,1.03,1*0C
$GNGSA,A,3,71,72,85,87,,,,,,,,,1.19,0.60,1.03,2*0E
$GNGSA,A,3,15,01,03,21,08,13,,,,,,,1.19,0.60,1.03,3*01
$GNGSA,A,3,14,03,10,08,28,33,01,27,13,07,,,1.19,0.60,1.03,4*0D
$GPGSV,3,1,11,02,18,277,28,03,28,044,37,04,25,088,36,06,55,303,43,1*6F
$GPGSV,3,2,11,09,27,124,32,12,16,318,39,14,21,186,40,17,72,100,46,1*66
$GPGSV,3,3,11,19,76,350,45,28,,,37,50,47,179,40,1*69
$GPGSV,2,1,08,03,28,044,31,04,25,088,33,06,55,303,41,09,27,124,29,6*63
$GPGSV,2,2,08,11,22,271,14,12,16,318,38,14,21,186,39,17,72,100,41,6*6B
$GPGSV,1,1,02,01,05,074,,20,11,224,,0*66
$GLGSV,2,1,07,70,26,036,24,71,56,096,48,72,32,165,42,77,25,283,12,1*77
$GLGSV,2,2,07,78,07,336,23,85,22,085,39,87,29,312,36,1*4B
$GLGSV,1,1,04,71,56,096,43,72,32,165,41,77,25,283,17,85,22,085,25,3*7F
$GLGSV,1,1,02,76,17,232,,86,53,036,,0*72
$GAGSV,2,1,07,01,24,307,39,03,25,062,29,08,34,121,31,13,65,351,39,2*73
$GAGSV,2,2,07,15,33,068,35,21,41,251,46,26,27,284,27,2*45
$GAGSV,2,1,07,01,24,307,38,03,25,062,35,08,34,121,30,13,65,351,33,7*71
$GAGSV,2,2,07,15,33,068,39,21,41,251,43,26,27,284,23,7*4D
$GAGSV,1,1,03,07,11,170,,18,25,122,,27,20,194,,0*42
$GBGSV,3,1,11,01,43,152,39,03,44,206,37,04,35,132,32,07,63,216,34,1*7E
$GBGSV,3,2,11,08,53,264,39,10,63,247,42,13,44,258,35,14,21,043,30,1*79
$GBGSV,3,3,11,27,57,323,43,28,57,081,49,33,45,062,39,1*47
$GBGSV,2,1,08,01,43,152,44,03,44,206,40,04,35,132,32,07,63,216,38,3*73
$GNRMC,045021.00,A,3726.8316828,N,12639.2761240,E,0.011,,210622,,,F,V*11
$GNVTG,,T,,M,0.011,N,0.020,K,D*3A
$GNGNS,045021.00,3726.8316828,N,12639.2761240,E,FFFF,28,0.60,15.285,17.840,2.0,4095,V*0C
$GNGGA,045021.00,3726.8316828,N,12639.2761240,E,5,12,0.60,15.285,M,17.840,M,2.0,4095*51
$GNGSA,A,3,19,09,06,17,14,12,03,04,,,,,1.19,0.60,1.03,1*0C
$GNGSA,A,3,71,72,85,87,,,,,,,,,1.19,0.60,1.03,2*0E
$GNGSA,A,3,15,01,03,21,08,13,,,,,,,1.19,0.60,1.03,3*01
$GNGSA,A,3,14,03,10,08,28,33,01,27,13,07,,,1.19,0.60,1.03,4*0D
$GPGSV,3,1,11,02,18,277,28,03,28,044,33,04,25,088,36,06,55,303,43,1*6B
$GPGSV,3,2,11,09,27,124,33,12,16,318,39,14,21,186,40,17,72,100,46,1*67
$GPGSV,3,3,11,19,76,350,45,28,,,37,50,47,179,40,1*69
$GPGSV,2,1,08,03,28,044,31,04,25,088,33,06,55,303,41,09,27,124,30,6*6B
$GPGSV,2,2,08,11,22,271,13,12,16,318,37,14,21,186,39,17,72,100,41,6*63
$GPGSV,1,1,02,01,05,074,,20,11,224,,0*66
$GLGSV,2,1,07,70,26,036,23,71,56,096,49,72,32,165,41,77,25,283,07,1*76
$GLGSV,2,2,07,78,07,336,21,85,22,085,37,87,29,312,37,1*46
$GLGSV,1,1,04,71,56,096,43,72,32,165,41,77,25,283,16,85,22,085,25,3*7E
$GLGSV,1,1,02,76,17,232,,86,53,036,,0*72
$GAGSV,2,1,07,01,24,307,40,03,25,062,29,08,34,121,32,13,65,351,39,2*7E
$GAGSV,2,2,07,15,33,068,35,21,41,251,46,26,27,284,28,2*4A
$GAGSV,2,1,07,01,24,307,38,03,25,062,35,08,34,121,30,13,65,351,32,7*70
$GAGSV,2,2,07,15,33,068,38,21,41,251,43,26,27,284,24,7*4B
$GAGSV,1,1,03,07,11,170,,18,25,122,,27,20,194,,0*42
$GBGSV,3,1,11,01,43,152,39,03,44,206,36,04,35,132,32,07,63,216,35,1*7E
$GBGSV,3,2,11,08,53,264,39,10,63,247,42,13,44,258,34,14,21,043,29,1*70
$GBGSV,3,3,11,27,57,323,44,28,57,081,49,33,45,062,39,1*40
$GBGSV,2,1,08,01,43,152,43,03,44,206,40,04,35,132,32,07,63,216,38,3*74
$GBGSV,2,2,08,08,53,264,37,10,63,247,42,13,44,258,37,14,21,043,43,3*7A
$GBGSV,2,1,05,02,28,236,,05,08,256,,15,31,189,,30,10,299,,0*74
$GBGSV,2,2,05,30,10,299,,0*42
$GNRMC,045022.00,A,3726.8316622,N,12639.2761411,E,0.012,,210622,,,F,V*17
$GNVTG,,T,,M,0.012,N,0.022,K,D*3B
$GNGNS,045022.00,3726.8316622,N,12639.2761411,E,FFFF,28,0.60,15.300,17.840,2.0,4095,V*05
$GNGGA,045022.00,3726.8316622,N,12639.2761411,E,5,12,0.60,15.300,M,17.840,M,2.0,4095*58
$GNGSA,A,3,19,09,06,17,14,12,03,04,,,,,1.19,0.60,1.03,1*0C
$GNGSA,A,3,71,72,85,87,,,,,,,,,1.19,0.60,1.03,2*0E
$GNGSA,A,3,15,01,03,21,08,13,,,,,,,1.19,0.60,1.03,3*01
$GNGSA,A,3,14,03,10,08,28,33,01,27,13,07,,,1.19,0.60,1.03,4*0D
$GPGSV,3,1,11,02,18,277,27,03,28,044,34,04,25,088,35,06,55,303,44,1*67
$GPGSV,3,2,11,09,27,124,33,12,16,318,40,14,21,186,40,17,72,100,47,1*68
$GPGSV,3,3,11,19,76,350,46,28,,,38,50,47,179,40,1*65
$GPGSV,2,1,08,03,28,044,33,04,25,088,33,06,55,303,41,09,27,124,32,6*6B
$GPGSV,2,2,08,11,22,271,11,12,16,318,37,14,21,186,38,17,72,100,41,6*60
$GPGSV,1,1,02,01,05,074,,20,11,224,,0*66
$GLGSV,2,1,06,70,26,036,25,71,56,096,49,72,32,165,42,77,25,283,12,1*76
$GLGSV,2,2,06,85,22,085,38,87,29,312,36,1*74
$GLGSV,1,1,04,71,56,096,43,72,32,165,41,77,25,283,16,85,22,085,24,3*7F
$GLGSV,1,1,03,76,17,232,,78,07,336,,86,53,036,,0*4D
$GAGSV,2,1,07,01,24,307,41,03,25,062,29,08,34,121,32,13,65,351,39,2*7F
$GAGSV,2,2,07,15,33,068,36,21,41,251,47,26,27,284,28,2*48
$GAGSV,2,1,07,01,24,307,38,03,25,062,34,08,34,121,30,13,65,351,33,7*70
$GAGSV,2,2,07,15,33,068,38,21,41,251,43,26,27,284,23,7*4C
$GAGSV,1,1,03,07,11,170,,18,25,122,,27,20,194,,0*42
$GBGSV,3,1,11,01,43,152,38,03,44,206,35,04,35,132,32,07,63,216,34,1*7D
$GBGSV,3,2,11,08,53,264,39,10,63,247,42,13,44,258,33,14,21,043,28,1*76
$GBGSV,3,3,11,27,57,323,44,28,57,081,49,33,45,062,41,1*4F
$GBGSV,2,1,08,01,43,152,42,03,44,206,39,04,35,132,32,07,63,216,38,3*7B
$GBGSV,2,2,08,08,53,264,37,10,63,247,41,13,44,258,38,14,21,043,42,3*77
$GBGSV,2,1,05,02,28,236,,05,08,256,,15,31,189,,30,10,299,,0*74
$GBGSV,2,2,05,30,10,299,,0*42
$GNRMC,045023.00,A,3726.8316431,N,12639.2761566,E,0.006,,210622,,,F,V*12
$GNVTG,,T,,M,0.006,N,0.011,K,D*3E
$GNGNS,045023.00,3726.8316431,N,12639.2761566,E,FFFF,28,0.60,15.272,17.840,1.0,4095,V*02
$GNGGA,045023.00,3726.8316431,N,12639.2761566,E,5,12,0.60,15.272,M,17.840,M,1.0,4095*5F
$GNGSA,A,3,19,09,06,17,14,12,03,04,,,,,1.19,0.60,1.03,1*0C
$GNGSA,A,3,71,72,85,87,,,,,,,,,1.19,0.60,1.03,2*0E
$GNGSA,A,3,15,01,03,21,08,13,,,,,,,1.19,0.60,1.03,3*01
$GNGSA,A,3,14,03,10,08,28,33,01,27,13,07,,,1.19,0.60,1.03,4*0D
$GPGSV,3,1,11,02,18,277,28,03,28,044,35,04,25,088,35,06,55,303,43,1*6E
$GPGSV,3,2,11,09,27,124,34,12,16,318,40,14,21,186,39,17,72,100,47,1*61
$GPGSV,3,3,11,19,76,350,46,28,,,39,50,47,179,40,1*64
$GPGSV,2,1,07,03,28,044,33,04,25,088,34,06,55,303,41,09,27,124,32,6*63
$GPGSV,2,2,07,12,16,318,37,14,21,186,39,17,72,100,41,6*5A
$GPGSV,1,1,03,01,05,074,,11,22,271,,20,11,224,,0*53
$GLGSV,2,1,06,70,26,036,25,71,56,096,49,72,32,165,42,77,25,283,07,1*72
$GLGSV,2,2,06,85,22,085,38,87,29,312,37,1*75
$GLGSV,1,1,04,71,56,096,43,72,32,165,41,77,25,283,15,85,22,085,26,3*7E
$GLGSV,1,1,03,76,17,232,,78,07,336,,86,53,036,,0*4D
$GAGSV,2,1,07,01,24,307,41,03,25,062,28,08,34,121,33,13,65,351,39,2*7F
$GAGSV,2,2,07,15,33,068,36,21,41,251,46,26,27,284,27,2*46
$GAGSV,2,1,07,01,24,307,38,03,25,062,34,08,34,121,31,13,65,351,33,7*71
$GAGSV,2,2,07,15,33,068,38,21,41,251,42,26,27,284,23,7*4D
$GAGSV,1,1,03,07,11,170,,18,25,122,,27,20,194,,0*42
$GBGSV,3,1,11,01,43,152,39,03,44,206,35,04,35,132,32,07,63,216,34,1*7C
$GBGSV,3,2,11,08,53,264,39,10,63,247,42,13,44,258,34,14,21,043,28,1*71
$GBGSV,3,3,11,27,57,323,44,28,57,081,49,33,44,061,38,1*43
$GBGSV,2,1,08,01,43,152,43,03,44,206,39,04,35,132,33,07,63,216,38,3*7B
$GBGSV,2,2,08,08,53,264,37,10,63,247,41,13,44,258,37,14,21,043,41,3*7B
$GNRMC,045024.00,A,3726.8316230,N,12639.2761721,E,0.003,,210622,,,F,V*16
$GNVTG,,T,,M,0.003,N,0.006,K,D*3D
$GNGNS,045024.00,3726.8316230,N,12639.2761721,E,FFFF,28,0.60,15.198,17.840,2.0,4095,V*07
$GNGGA,045024.00,3726.8316230,N,12639.2761721,E,5,12,0.60,15.198,M,17.840,M,2.0,4095*5A
$GNGSA,A,3,19,09,06,17,14,12,03,04,,,,,1.19,0.60,1.03,1*0C
$GNGSA,A,3,71,72,85,87,,,,,,,,,1.19,0.60,1.03,2*0E
$GNGSA,A,3,15,01,03,21,08,13,,,,,,,1.19,0.60,1.03,3*01
$GNGSA,A,3,14,03,10,08,28,33,01,27,13,07,,,1.19,0.60,1.03,4*0D
$GPGSV,3,1,11,02,18,277,29,03,28,044,36,04,25,088,36,06,55,303,43,1*6F
$GPGSV,3,2,11,09,27,124,33,12,16,318,41,14,21,186,39,17,72,100,46,1*66
$GPGSV,3,3,11,19,76,350,45,28,,,39,50,47,179,40,1*67
$GPGSV,2,1,07,03,28,044,32,04,25,088,34,06,55,303,41,09,27,124,33,6*63
$GPGSV,2,2,07,12,16,318,38,14,21,186,39,17,72,100,41,6*55
$GPGSV,1,1,03,01,05,074,,11,22,271,,20,11,224,,0*53
$GLGSV,2,1,06,70,26,036,25,71,56,096,49,72,32,165,41,77,25,283,11,1*76
$GLGSV,2,2,06,85,22,085,39,87,29,312,41,1*75
$GLGSV,1,1,04,71,56,096,43,72,32,165,41,77,25,283,16,85,22,085,27,3*7C
$GLGSV,1,1,03,76,17,232,,78,07,336,,86,53,036,,0*4D
$GAGSV,2,1,07,01,24,307,40,03,25,062,29,08,34,121,33,13,65,351,39,2*7F
$GAGSV,2,2,07,15,33,068,37,21,41,251,46,26,27,284,27,2*47
$GAGSV,2,2,07,15,33,068,38,21,41,251,42,26,27,284,23,7*4D
$GAGSV,1,1,03,07,11,170,,18,25,122,,27,20,194,,0*42
$GBGSV,3,1,11,01,43,152,39,03,44,206,35,04,35,132,32,07,63,216,34,1*7C
$GBGSV,3,2,11,08,53,264,39,10,63,247,42,13,44,258,34,14,21,043,28,1*71
$GBGSV,3,3,11,27,57,323,43,28,57,081,49,33,44,061,39,1*45
$GBGSV,2,1,08,01,43,152,43,03,44,206,39,04,35,132,33,07,63,216,38,3*7B
$GBGSV,2,2,08,08,53,264,37,10,63,247,41,13,44,258,37,14,21,043,41,3*7B
$GBGSV,2,1,05,02,28,236,,05,08,256,,15,31,189,,30,10,299,,0*74
$GBGSV,2,2,05,30,10,299,,0*42
$GNRMC,045025.00,A,3726.8316100,N,12639.2761917,E,0.010,,210622,,,F,V*1E
$GNVTG,,T,,M,0.010,N,0.019,K,D*31
$GNGNS,045025.00,3726.8316100,N,12639.2761917,E,FFFF,28,0.60,15.066,17.840,2.0,4095,V*0D
$GNGGA,045025.00,3726.8316100,N,12639.2761917,E,5,12,0.60,15.066,M,17.840,M,2.0,4095*50
$GNGSA,A,3,19,09,06,17,14,12,03,04,,,,,1.19,0.60,1.03,1*0C
$GNGSA,A,3,71,72,85,87,,,,,,,,,1.19,0.60,1.03,2*0E
$GNGSA,A,3,15,01,03,21,08,13,,,,,,,1.19,0.60,1.03,3*01
$GNGSA,A,3,14,03,10,08,28,33,01,27,13,07,,,1.19,0.60,1.03,4*0D
$GPGSV,3,1,11,02,18,277,28,03,28,044,35,04,25,088,36,06,55,303,43,1*6D
$GPGSV,3,2,11,09,27,124,33,12,16,318,39,14,21,186,39,17,72,100,46,1*69
$GPGSV,3,3,11,19,76,350,45,28,,,38,50,47,179,41,1*67
$GPGSV,1,1,01,11,22,271,21,5*56
$GPGSV,2,1,07,03,28,044,31,04,25,088,34,06,55,303,40,09,27,124,33,6*61
$GPGSV,2,2,07,12,16,318,35,14,21,186,39,17,72,100,41,6*58
$GPGSV,1,1,02,01,05,074,,20,11,224,,0*66
$GLGSV,2,1,06,70,26,036,26,71,56,096,48,72,32,165,41,77,25,283,13,1*76
$GLGSV,2,2,06,85,22,085,39,87,29,312,40,1*74
$GLGSV,1,1,04,71,56,096,42,72,32,165,41,77,25,283,15,85,22,085,27,3*7E
$GLGSV,1,1,03,76,17,232,,78,07,336,,86,53,036,,0*4D
$GAGSV,2,1,07,01,24,307,40,03,25,062,30,08,34,121,34,13,65,351,38,2*71
$GAGSV,2,2,07,15,33,068,35,21,41,251,46,26,27,284,27,2*45
$GAGSV,2,1,07,01,24,307,37,03,25,062,35,08,34,121,27,13,65,351,33,7*78
$GAGSV,2,2,07,15,33,068,38,21,41,251,43,26,27,284,24,7*4B
$GAGSV,1,1,03,07,11,170,,18,25,122,,27,20,194,,0*42
$GBGSV,3,1,11,01,43,152,38,03,44,206,35,04,35,132,30,07,63,216,33,1*78
$GBGSV,3,2,11,08,53,264,39,10,63,247,42,13,44,258,34,14,21,043,29,1*70
$GBGSV,3,3,11,27,57,323,43,28,57,081,49,33,44,061,38,1*44
$GBGSV,2,1,08,01,43,152,43,03,44,206,39,04,35,132,33,07,63,216,37,3*74
$GBGSV,2,2,08,08,53,264,38,10,63,247,41,13,44,258,37,14,21,043,41,3*74
$GBGSV,2,1,05,02,28,236,,05,08,256,,15,31,189,,30,10,299,,0*74
$GBGSV,2,2,05,30,10,299,,0*42
$GNRMC,045026.00,A,3726.8316010,N,12639.2762064,E,0.009,,210622,,,F,V*1B
$GNVTG,,T,,M,0.009,N,0.017,K,D*37
$GNGNS,045026.00,3726.8316010,N,12639.2762064,E,FFFF,28,0.60,14.927,17.840,2.0,4095,V*0D
$GNGGA,045026.00,3726.8316010,N,12639.2762064,E,5,12,0.60,14.927,M,17.840,M,2.0,4095*50
$GNGSA,A,3,19,09,06,17,14,12,03,04,,,,,1.19,0.60,1.03,1*0C
$GNGSA,A,3,71,72,85,87,,,,,,,,,1.19,0.60,1.03,2*0E
$GNGSA,A,3,15,01,03,21,08,13,,,,,,,1.19,0.60,1.03,3*01
$GNGSA,A,3,14,03,10,08,28,33,01,27,13,07,,,1.19,0.60,1.03,4*0D
$GPGSV,3,1,11,02,18,277,28,03,28,044,35,04,25,088,35,06,55,303,43,1*6E
$GPGSV,3,2,11,09,27,124,33,12,16,318,39,14,21,186,40,17,72,100,46,1*67
$GPGSV,3,3,11,19,76,350,46,28,,,36,50,47,179,41,1*6A
$GPGSV,2,1,08,03,28,044,31,04,25,088,33,06,55,303,40,09,27,124,33,6*69
$GPGSV,2,2,08,11,22,271,20,12,16,318,35,14,21,186,40,17,72,100,41,6*6F
$GPGSV,1,1,02,01,05,074,,20,11,224,,0*66
$GLGSV,2,1,06,70,26,036,25,71,56,096,48,72,32,165,41,77,25,283,11,1*77
$GLGSV,2,2,06,85,22,085,39,87,29,312,41,1*75
$GLGSV,1,1,04,71,56,096,42,72,32,165,41,77,25,283,15,85,22,085,28,3*71
$GLGSV,1,1,03,76,17,232,,78,07,336,,86,53,036,,0*4D
$GAGSV,2,1,07,01,24,307,39,03,25,062,30,08,34,121,32,13,65,351,38,2*79
$GAGSV,2,2,07,15,33,068,34,21,41,251,46,26,27,284,29,2*4A
$GAGSV,2,1,07,01,24,307,36,03,25,062,35,08,34,121,29,13,65,351,33,7*77
$GAGSV,2,2,07,15,33,068,39,21,41,251,43,26,27,284,27,7*49
$GAGSV,1,1,03,07,11,170,,18,25,122,,27,20,194,,0*42
$GBGSV,3,1,10,01,43,152,37,03,44,206,35,07,63,216,34,08,53,264,38,1*75
$GBGSV,3,2,10,10,63,247,42,13,44,258,35,14,21,043,31,27,57,323,44,1*78
$GBGSV,3,3,10,28,57,081,49,33,44,061,39,1*76
$GBGSV,2,1,08,01,43,152,43,03,44,206,39,04,35,132,32,07,63,216,37,3*75
$GBGSV,2,2,08,08,53,264,38,10,63,247,41,13,44,258,39,14,21,043,42,3*79
$GBGSV,2,1,05,02,28,236,,05,08,256,,15,31,189,,30,10,299,,0*74
$GBGSV,2,2,05,30,10,299,,0*42
$GNRMC,045027.00,A,3726.8315857,N,12639.2762179,E,0.011,,210622,,,F,V*16
$GNVTG,,T,,M,0.011,N,0.020,K,D*3A
$GNGNS,045027.00,3726.8315857,N,12639.2762179,E,FFFF,28,0.60,14.837,17.840,2.0,4095,V*09
$GNGGA,045027.00,3726.8315857,N,12639.2762179,E,5,12,0.60,14.837,M,17.840,M,2.0,4095*54
$GNGSA,A,3,19,09,06,17,14,12,03,04,,,,,1.19,0.60,1.03,1*0C
$GNGSA,A,3,71,72,85,87,,,,,,,,,1.19,0.60,1.03,2*0E
$GNGSA,A,3,15,01,03,21,08,13,,,,,,,1.19,0.60,1.03,3*01
$GNGSA,A,3,14,03,10,08,28,33,01,27,13,07,,,1.19,0.60,1.03,4*0D
$GPGSV,3,1,12,02,18,277,27,03,28,044,36,04,25,088,34,06,55,303,44,1*67
$GPGSV,3,2,12,09,27,124,35,11,22,271,26,12,16,318,40,14,21,186,40,1*6C
$GPGSV,3,3,12,17,72,100,46,19,76,350,45,28,,,38,50,47,179,40,1*55
$GPGSV,2,1,08,03,28,044,31,04,25,088,33,06,55,303,40,09,27,124,33,6*69
$GPGSV,2,2,08,11,22,271,16,12,16,318,35,14,21,186,39,17,72,100,41,6*64
$GPGSV,1,1,02,01,05,074,,20,11,224,,0*66
$GLGSV,2,1,06,70,26,036,26,71,56,096,48,72,32,165,42,77,25,283,10,1*76
$GLGSV,2,2,06,85,22,085,38,87,29,312,41,1*74
$GLGSV,1,1,04,71,56,096,42,72,32,165,41,77,25,283,15,85,22,085,29,3*70
$GLGSV,1,1,03,76,17,232,,78,07,336,,86,53,036,,0*4D
$GAGSV,2,1,07,01,24,307,39,03,25,062,32,08,34,121,31,13,65,351,38,2*78
$GAGSV,2,2,07,15,33,068,33,21,41,251,46,26,27,284,27,2*43
$GAGSV,2,1,07,01,24,307,36,03,25,062,35,08,34,121,31,13,65,351,33,7*7E
$GAGSV,2,2,07,15,33,068,39,21,41,251,43,26,27,284,27,7*49
$GAGSV,1,1,03,07,11,170,,18,25,122,,27,20,194,,0*42
$GBGSV,3,1,10,01,43,152,37,03,44,206,36,07,63,216,34,08,53,264,39,1*77
$GBGSV,3,2,10,10,63,247,43,13,44,258,35,14,21,043,30,27,57,323,44,1*78
$GBGSV,3,3,10,28,57,081,49,33,44,061,40,1*78
$GBGSV,2,1,08,01,43,152,43,03,44,206,39,04,35,132,32,07,63,216,37,3*75
$GBGSV,2,2,08,08,53,264,38,10,63,247,41,13,44,258,39,14,21,043,41,3*7A
$GBGSV,2,1,05,02,28,236,,05,08,256,,15,31,189,,30,10,299,,0*74
$GBGSV,2,2,05,30,10,299,,0*42
$GNRMC,045028.00,A,3726.8315648,N,12639.2762266,E,0.017,,210622,,,F,V*12
$GNVTG,,T,,M,0.017,N,0.031,K,D*3C
$GNGNS,045028.00,3726.8315648,N,12639.2762266,E,FFFF,28,0.60,14.807,17.840,2.0,4095,V*08
$GNGGA,045028.00,3726.8315648,N,12639.2762266,E,5,12,0.60,14.807,M,17.840,M,2.0,4095*55
$GNGSA,A,3,19,09,06,17,14,12,03,04,,,,,1.19,0.60,1.03,1*0C
$GNGSA,A,3,71,72,85,87,,,,,,,,,1.19,0.60,1.03,2*0E
$GNGSA,A,3,15,01,03,21,08,13,,,,,,,1.19,0.60,1.03,3*01
$GNGSA,A,3,14,03,10,08,28,33,01,27,13,07,,,1.19,0.60,1.03,4*0D
$GPGSV,3,1,11,02,18,277,26,03,28,044,37,04,25,088,35,06,55,303,44,1*65
$GPGSV,3,2,11,09,27,124,33,12,16,318,39,14,21,186,40,17,72,100,46,1*67
$GPGSV,3,3,11,19,76,350,46,28,,,39,50,47,179,40,1*64
$GPGSV,2,1,08,03,28,044,29,04,25,088,33,06,55,303,40,09,27,124,33,6*60
$GPGSV,2,2,08,11,22,271,15,12,16,318,35,14,21,186,40,17,72,100,41,6*69
$GPGSV,1,1,02,01,05,074,,20,11,224,,0*66
$GLGSV,2,1,06,70,26,036,27,71,56,096,48,72,32,165,42,77,25,283,06,1*70
$GLGSV,2,2,06,85,22,085,36,87,29,312,42,1*79
$GLGSV,1,1,04,71,56,096,41,72,32,165,41,77,25,283,13,85,22,085,29,3*75
$GLGSV,1,1,03,76,17,232,,78,07,336,,86,53,036,,0*4D
$GAGSV,2,1,07,01,24,307,40,03,25,062,32,08,34,121,31,13,65,351,38,2*76
$GAGSV,2,2,07,15,33,068,32,21,41,251,46,26,27,284,24,2*41
$GAGSV,2,1,07,01,24,307,36,03,25,062,36,08,34,121,32,13,65,351,33,7*7E
$GAGSV,2,2,07,15,33,068,39,21,41,251,42,26,27,284,28,7*47
$GAGSV,1,1,03,07,11,170,,18,25,122,,27,20,194,,0*42
$GBGSV,3,1,11,01,43,152,37,03,44,206,37,04,35,132,30,07,63,216,34,1*72
$GBGSV,3,2,11,08,53,264,39,10,63,247,43,13,44,258,35,14,21,043,28,1*71
$GBGSV,3,3,11,27,57,323,44,28,57,081,49,33,44,061,40,1*4C
$GBGSV,2,1,08,01,43,152,43,03,44,206,40,04,35,132,32,07,63,216,37,3*7B
$GBGSV,2,2,08,08,53,264,37,10,63,247,41,13,44,258,39,14,21,043,41,3*75
$GBGSV,2,1,05,02,28,236,,05,08,256,,15,31,189,,30,10,299,,0*74
$GBGSV,2,2,05,30,10,299,,0*42
$GNRMC,045029.00,A,3726.8315411,N,12639.2762450,E,0.021,,210622,,,F,V*1B
$GNVTG,,T,,M,0.021,N,0.039,K,D*31
$GNGNS,045029.00,3726.8315411,N,12639.2762450,E,FFFF,28,0.60,14.823,17.840,2.0,4095,V*02
$GNGGA,045029.00,3726.8315411,N,12639.2762450,E,5,12,0.60,14.823,M,17.840,M,2.0,4095*5F
$GNGSA,A,3,19,09,06,17,14,12,03,04,,,,,1.19,0.60,1.03,1*0C
$GNGSA,A,3,71,72,85,87,,,,,,,,,1.19,0.60,1.03,2*0E
$GNGSA,A,3,15,01,03,21,08,13,,,,,,,1.19,0.60,1.03,3*01
$GNGSA,A,3,14,03,10,08,28,33,01,27,13,07,,,1.19,0.60,1.03,4*0D
$GPGSV,3,1,11,02,18,277,26,03,28,044,33,04,25,088,36,06,55,303,44,1*62
$GPGSV,3,2,11,09,27,124,33,12,16,318,39,14,21,186,39,17,72,100,47,1*68
$GPGSV,3,3,11,19,76,350,46,28,,,38,50,47,179,41,1*64
$GPGSV,2,1,08,03,28,044,29,04,25,088,33,06,55,303,40,09,27,124,32,6*61
$GPGSV,2,2,08,11,22,271,13,12,16,318,34,14,21,186,39,17,72,100,42,6*63
$GPGSV,1,1,02,01,05,074,,20,11,224,,0*66
$GLGSV,2,1,06,70,26,036,27,71,56,096,48,72,32,165,41,77,25,283,10,1*74
$GLGSV,2,2,06,85,22,085,37,87,29,312,42,1*78
$GLGSV,1,1,04,71,56,096,41,72,32,165,40,77,25,283,11,85,22,085,28,3*77
$GLGSV,1,1,03,76,17,232,,78,07,336,,86,53,036,,0*4D
$GAGSV,2,1,07,01,24,307,40,03,25,062,31,08,34,121,33,13,65,351,39,2*76
$GAGSV,2,2,07,15,33,068,32,21,41,251,46,26,27,284,23,2*46
$GAGSV,2,1,07,01,24,307,36,03,25,062,36,08,34,121,33,13,65,351,33,7*7F
$GAGSV,2,2,07,15,33,068,39,21,41,251,42,26,27,284,28,7*47
$GAGSV,1,1,03,07,11,170,,18,25,122,,27,20,194,,0*42
$GBGSV,3,1,10,01,43,152,38,03,44,206,37,07,63,216,32,08,53,264,39,1*7F
$GBGSV,3,2,10,10,63,247,42,13,44,258,35,14,21,043,27,27,57,323,44,1*7F
$GBGSV,3,3,10,28,57,081,49,33,44,061,42,1*7A
$GBGSV,2,1,08,01,43,152,43,03,44,206,39,04,35,132,31,07,63,216,37,3*76
$GBGSV,2,2,08,08,53,264,36,10,63,247,40,13,44,258,38,14,21,043,41,3*74
$GNRMC,045030.00,A,3726.8315226,N,12639.2762612,E,0.004,,210622,,,F,V*12
$GNVTG,,T,,M,0.004,N,0.007,K,D*3B
$GNGNS,045030.00,3726.8315226,N,12639.2762612,E,FFFF,28,0.60,14.775,17.840,2.0,4095,V*00
$GNGGA,045030.00,3726.8315226,N,12639.2762612,E,5,12,0.60,14.775,M,17.840,M,2.0,4095*5D
$GNGSA,A,3,19,09,06,17,14,12,03,04,,,,,1.19,0.60,1.03,1*0C
$GNGSA,A,3,71,72,85,87,,,,,,,,,1.19,0.60,1.03,2*0E
$GNGSA,A,3,15,01,03,21,08,13,,,,,,,1.19,0.60,1.03,3*01
$GNGSA,A,3,14,03,10,08,28,33,01,27,13,07,,,1.19,0.60,1.03,4*0D
$GPGSV,3,1,11,02,18,277,26,03,28,044,34,04,25,088,36,06,55,303,42,1*63
$GPGSV,3,2,11,09,27,124,34,12,16,318,40,14,21,186,39,17,72,100,47,1*61
$GPGSV,3,3,11,19,76,350,46,28,,,38,50,47,179,41,1*64
$GPGSV,2,1,08,03,28,044,29,04,25,088,33,06,55,303,40,09,27,124,31,6*62
$GPGSV,2,2,08,11,22,271,17,12,16,318,35,14,21,186,39,17,72,100,41,6*65
$GPGSV,1,1,02,01,05,074,,20,11,224,,0*66
$GLGSV,2,1,06,70,26,036,27,71,56,096,48,72,32,165,41,77,25,283,11,1*75
$GLGSV,2,2,06,85,22,085,38,87,29,312,41,1*74
$GLGSV,1,1,04,71,56,096,41,72,32,165,40,77,25,283,11,85,22,085,28,3*77
$GLGSV,1,1,03,76,17,232,,78,07,336,,86,53,036,,0*4D
$GAGSV,2,1,07,01,24,307,40,03,25,062,31,08,34,121,33,13,65,351,39,2*76
$GAGSV,2,2,07,15,33,068,33,21,41,251,47,26,27,284,23,2*46
$GAGSV,2,1,07,01,24,307,36,03,25,062,36,08,34,121,28,13,65,351,36,7*70
$GAGSV,2,2,07,15,33,068,39,21,41,251,42,26,27,284,27,7*48
$GAGSV,1,1,03,07,11,170,,18,25,122,,27,20,194,,0*42
$GBGSV,3,1,10,01,43,152,38,03,44,206,37,07,63,216,31,08,53,264,39,1*7C
$GBGSV,3,2,10,10,63,247,42,13,44,258,35,14,21,043,28,27,57,323,44,1*70
$GBGSV,3,3,10,28,57,081,48,33,44,061,40,1*79
$GBGSV,2,1,08,01,43,152,43,03,44,206,39,04,35,132,32,07,63,216,37,3*75
$GBGSV,2,2,08,08,53,264,36,10,63,247,41,13,44,258,38,14,21,043,42,3*76
$GBGSV,2,1,05,02,28,236,,05,08,256,,15,31,189,,30,10,299,,0*74
$GBGSV,2,2,05,30,10,299,,0*42
$GNRMC,045031.00,A,3726.8314980,N,12639.2762776,E,0.011,,210622,,,F,V*12
$GNVTG,,T,,M,0.011,N,0.020,K,D*3A
$GNGNS,045031.00,3726.8314980,N,12639.2762776,E,FFFF,28,0.60,14.661,17.840,2.0,4095,V*00
$GNGGA,045031.00,3726.8314980,N,12639.2762776,E,5,12,0.60,14.661,M,17.840,M,2.0,4095*5D
$GNGSA,A,3,19,09,06,17,14,12,03,04,,,,,1.19,0.60,1.03,1*0C
$GNGSA,A,3,71,72,85,87,,,,,,,,,1.19,0.60,1.03,2*0E
$GNGSA,A,3,15,01,03,21,08,13,,,,,,,1.19,0.60,1.03,3*01
$GNGSA,A,3,14,03,10,08,28,33,01,27,13,07,,,1.19,0.60,1.03,4*0D
$GPGSV,3,1,11,02,18,277,25,03,28,044,34,04,25,088,37,06,55,303,44,1*67
$GPGSV,3,2,11,09,27,124,35,12,16,318,42,14,21,186,39,17,72,100,46,1*63
$GPGSV,3,3,11,19,76,350,45,28,,,39,50,47,179,41,1*66
$GPGSV,2,1,08,03,28,044,30,04,25,088,33,06,55,303,40,09,27,124,32,6*69
$GPGSV,2,2,08,11,22,271,17,12,16,318,38,14,21,186,40,17,72,100,41,6*66
$GPGSV,1,1,02,01,05,074,,20,11,224,,0*66
$GLGSV,2,1,06,70,26,036,28,71,56,096,48,72,32,165,41,77,25,283,11,1*7A
$GLGSV,2,2,06,85,22,085,38,87,29,312,41,1*74
$GLGSV,1,1,04,71,56,096,41,72,32,165,40,77,25,283,11,85,22,085,29,3*76
$GLGSV,1,1,03,76,17,232,,78,07,336,,86,53,036,,0*4D
$GAGSV,2,1,07,01,24,307,37,03,25,062,31,08,34,121,33,13,65,351,38,2*77
$GAGSV,2,2,07,15,33,068,34,21,41,251,46,26,27,284,25,2*46
$GAGSV,2,1,07,01,24,307,36,03,25,062,37,08,34,121,29,13,65,351,33,7*75
$GAGSV,2,2,07,15,33,068,39,21,41,251,43,26,27,284,28,7*46
$GAGSV,1,1,03,07,11,170,,18,25,122,,27,20,194,,0*42
$GBGSV,3,1,10,01,43,152,36,03,44,206,37,07,63,216,31,08,53,264,39,1*72
$GBGSV,3,2,10,10,63,247,42,13,44,258,35,14,21,043,29,27,57,323,44,1*71
$GBGSV,3,3,10,28,57,081,49,33,44,061,38,1*77
$GBGSV,2,1,08,01,43,152,44,03,44,206,38,04,35,132,32,07,63,216,37,3*73
$GBGSV,2,2,08,08,53,264,37,10,63,247,41,13,44,258,38,14,21,043,42,3*77
$GBGSV,2,1,05,02,28,236,,05,08,256,,15,31,189,,30,10,299,,0*74
$GBGSV,2,2,05,30,10,299,,0*42
$GNRMC,045032.00,A,3726.8314607,N,12639.2762984,E,0.008,,210622,,,F,V*1A
$GNVTG,,T,,M,0.008,N,0.015,K,D*34
$GNGNS,045032.00,3726.8314607,N,12639.2762984,E,FFFF,28,0.60,14.462,17.840,2.0,4095,V*01
$GNGGA,045032.00,3726.8314607,N,12639.2762984,E,5,12,0.60,14.462,M,17.840,M,2.0,4095*5C
$GNGSA,A,3,19,09,06,17,14,12,03,04,,,,,1.19,0.60,1.03,1*0C
$GNGSA,A,3,71,72,85,87,,,,,,,,,1.19,0.60,1.03,2*0E
$GNGSA,A,3,15,01,03,21,08,13,,,,,,,1.19,0.60,1.03,3*01
$GNGSA,A,3,14,03,10,08,28,33,01,27,13,07,,,1.19,0.60,1.03,4*0D
$GPGSV,3,1,11,02,18,277,23,03,28,044,36,04,25,088,36,06,55,303,44,1*62
$GPGSV,3,2,11,09,27,124,35,12,16,318,41,14,21,186,40,17,72,100,46,1*6E
$GPGSV,3,3,11,19,76,350,45,28,,,40,50,47,179,40,1*69
$GPGSV,2,1,08,03,28,044,30,04,25,088,32,06,55,303,40,09,27,124,31,6*6B
$GPGSV,2,2,08,11,22,271,15,12,16,318,40,14,21,186,40,17,72,100,41,6*6B
$GPGSV,1,1,02,01,05,074,,20,11,224,,0*66
$GLGSV,2,1,06,70,26,036,27,71,56,096,48,72,32,165,42,77,25,283,12,1*75
$GLGSV,2,2,06,85,22,085,38,87,29,312,42,1*77
$GLGSV,1,1,04,71,56,096,42,72,32,165,41,77,25,283,13,85,22,085,28,3*77
$GLGSV,1,1,03,76,17,232,,78,07,336,,86,53,036,,0*4D
$GAGSV,2,1,07,01,24,307,37,03,25,062,31,08,34,121,32,13,65,351,38,2*76
$GAGSV,2,2,07,15,33,068,33,21,41,251,46,26,27,284,26,2*42
$GNRMC,045033.00,A,3726.8314306,N,12639.2763141,E,0.005,,210622,,,F,V*12
$GNVTG,,T,,M,0.005,N,0.009,K,D*34
$GNGNS,045033.00,3726.8314306,N,12639.2763141,E,FFFF,28,0.60,14.291,17.840,1.0,4095,V*0D
$GNGGA,045033.00,3726.8314306,N,12639.2763141,E,5,12,0.60,14.291,M,17.840,M,1.0,4095*50
$GNGSA,A,3,19,09,06,17,14,12,03,04,,,,,1.19,0.60,1.03,1*0C
$GNGSA,A,3,71,72,85,87,,,,,,,,,1.19,0.60,1.03,2*0E
$GNGSA,A,3,15,01,03,21,08,13,,,,,,,1.19,0.60,1.03,3*01
$GNGSA,A,3,14,03,10,08,28,33,01,27,13,07,,,1.19,0.60,1.03,4*0D
$GPGSV,3,1,12,02,18,277,23,03,28,044,37,04,25,088,36,06,55,303,43,1*67
$GPGSV,3,2,12,09,27,124,33,11,22,271,27,12,16,318,43,14,21,186,39,1*66
$GPGSV,3,3,12,17,72,100,46,19,76,350,45,28,,,40,50,47,179,40,1*5A
$GPGSV,2,1,08,03,28,044,29,04,25,088,32,06,55,303,40,09,27,124,31,6*63
$GPGSV,2,2,08,11,22,271,14,12,16,318,38,14,21,186,39,17,72,100,41,6*6B
$GPGSV,1,1,02,01,05,074,,20,11,224,,0*66
$GLGSV,2,1,06,70,26,036,27,71,56,096,48,72,32,165,41,77,25,283,17,1*73
$GLGSV,2,2,06,85,22,085,36,87,29,312,42,1*79
$GLGSV,1,1,04,71,56,096,42,72,32,165,41,77,25,283,09,85,22,085,26,3*72
$GLGSV,1,1,03,76,17,232,,78,07,336,,86,53,036,,0*4D
$GAGSV,2,1,07,01,24,307,38,03,25,062,29,08,34,121,33,13,65,351,37,2*7E
$GAGSV,2,2,07,15,33,068,34,21,41,251,45,26,27,284,26,2*46
$GAGSV,2,1,07,01,24,307,38,03,25,062,36,08,34,121,32,13,65,351,35,7*76
$GAGSV,2,2,07,15,33,068,39,21,41,251,42,26,27,284,29,7*46
$GAGSV,1,1,03,07,11,170,,18,25,122,,27,20,194,,0*42
$GBGSV,3,1,10,01,43,152,37,03,44,206,36,07,63,216,32,08,53,264,39,1*71
$GBGSV,3,2,10,10,63,247,43,13,44,258,34,14,21,043,28,27,57,323,43,1*77
$GBGSV,3,3,10,28,57,081,49,33,44,061,38,1*77
$GBGSV,2,1,08,01,43,152,44,03,44,206,39,04,35,132,30,07,63,216,37,3*70
$GBGSV,2,2,08,08,53,264,37,10,63,247,41,13,44,258,39,14,21,043,42,3*76
$GBGSV,2,1,05,02,28,236,,05,08,256,,15,31,189,,30,10,299,,0*74
$GBGSV,2,2,05,30,10,299,,0*42
$GNRMC,045034.00,A,3726.8313979,N,12639.2763242,E,0.004,,210622,,,F,V*11
$GNVTG,,T,,M,0.004,N,0.007,K,D*3B
$GNGNS,045034.00,3726.8313979,N,12639.2763242,E,FFFF,28,0.60,14.174,17.840,2.0,4095,V*04
$GNGGA,045034.00,3726.8313979,N,12639.2763242,E,5,12,0.60,14.174,M,17.840,M,2.0,4095*59
$GNGSA,A,3,19,09,06,17,14,12,03,04,,,,,1.19,0.60,1.03,1*0C
$GNGSA,A,3,71,72,85,87,,,,,,,,,1.19,0.60,1.03,2*0E
$GNGSA,A,3,15,01,03,21,08,13,,,,,,,1.19,0.60,1.03,3*01
$GNGSA,A,3,14,03,10,08,28,33,01,27,13,07,,,1.19,0.60,1.03,4*0D
$GPGSV,3,1,11,02,18,277,23,03,28,044,37,04,25,088,35,06,55,303,43,1*67
$GPGSV,3,2,11,09,27,124,34,12,16,318,41,14,21,186,38,17,72,100,47,1*61
$GPGSV,3,3,11,19,76,350,45,28,,,40,50,47,179,41,1*68
$GPGSV,2,1,08,03,28,044,29,04,25,088,32,06,55,303,40,09,27,124,31,6*63
$GPGSV,2,2,08,11,22,271,16,12,16,318,38,14,21,186,39,17,72,100,41,6*69
$GPGSV,1,1,02,01,05,074,,20,11,224,,0*66
$GLGSV,2,1,06,70,25,035,26,71,56,096,49,72,32,165,42,77,25,283,14,1*73
$GLGSV,2,2,06,85,22,085,36,87,29,312,41,1*7A
$GLGSV,1,1,04,71,56,096,42,72,32,165,41,77,25,283,12,85,22,085,26,3*78
$GLGSV,1,1,03,76,17,232,,78,07,336,,86,53,036,,0*4D
$GAGSV,2,1,07,01,24,307,38,03,25,062,28,08,34,121,32,13,65,351,37,2*7E
$GAGSV,2,2,07,15,33,068,34,21,41,251,46,26,27,284,25,2*46
$GAGSV,2,1,07,01,24,307,39,03,25,062,35,08,34,121,33,13,65,351,34,7*74
$GAGSV,2,2,07,15,33,068,39,21,41,251,42,26,27,284,29,7*46
$GAGSV,1,1,03,07,11,170,,18,25,122,,27,20,194,,0*42
$GBGSV,3,1,10,01,43,152,37,03,44,206,36,07,63,216,32,08,53,264,39,1*71
$GBGSV,3,2,10,10,63,247,43,13,44,258,35,14,21,043,28,27,57,323,43,1*76
$GBGSV,3,3,10,28,57,081,49,33,44,061,39,1*76
$GBGSV,2,1,08,01,43,152,44,03,44,206,39,04,35,132,32,07,63,216,37,3*72
$GNRMC,045035.00,A,3726.8313649,N,12639.2763255,E,0.006,,210622,,,F,V*18
$GNVTG,,T,,M,0.006,N,0.011,K,D*3E
$GNGNS,045035.00,3726.8313649,N,12639.2763255,E,FFFF,28,0.60,14.107,17.840,2.0,4095,V*0B
$GNGGA,045035.00,3726.8313649,N,12639.2763255,E,5,12,0.60,14.107,M,17.840,M,2.0,4095*56
$GNGSA,A,3,19,09,06,17,14,12,03,04,,,,,1.19,0.60,1.03,1*0C
$GNGSA,A,3,71,72,85,87,,,,,,,,,1.19,0.60,1.03,2*0E
$GNGSA,A,3,15,01,03,21,08,13,,,,,,,1.19,0.60,1.03,3*01
$GNGSA,A,3,14,03,10,08,28,33,01,27,13,07,,,1.19,0.60,1.03,4*0D
$GPGSV,3,1,11,02,18,277,26,03,28,044,37,04,25,088,34,06,55,303,42,1*62
$GPGSV,3,2,11,09,27,124,35,12,16,318,39,14,21,186,39,17,72,100,46,1*6F
$GPGSV,3,3,11,19,76,350,45,28,,,39,50,47,179,42,1*65
$GPGSV,2,1,07,03,28,044,29,04,25,088,32,06,55,303,39,09,27,124,32,6*61
$GPGSV,2,2,07,12,16,318,36,14,21,186,39,17,72,100,41,6*5B
$GPGSV,1,1,03,01,05,074,,11,22,271,,20,11,224,,0*53
$GLGSV,2,1,06,70,25,035,27,71,56,094,49,72,32,165,42,77,25,283,14,1*70
$GLGSV,2,2,06,85,22,085,37,87,29,312,41,1*7B
$GLGSV,1,1,04,71,56,094,42,72,32,165,41,77,25,283,14,85,22,085,25,3*7F
$GLGSV,1,1,03,76,17,232,,78,07,336,,86,53,036,,0*4D
$GAGSV,2,1,07,01,24,307,39,03,25,062,28,08,34,121,32,13,65,351,38,2*70
$GAGSV,2,2,07,15,33,068,33,21,41,251,46,26,27,284,26,2*42
$GAGSV,2,1,07,01,24,307,38,03,25,062,37,08,34,121,33,13,65,351,33,7*70
$GAGSV,2,2,07,15,33,068,39,21,41,251,43,26,27,284,27,7*49
$GAGSV,1,1,03,07,11,170,,18,25,122,,27,20,194,,0*42
$GBGSV,3,1,10,01,43,152,37,03,44,206,36,07,63,216,34,08,53,264,39,1*77
$GBGSV,3,2,10,10,63,247,42,13,44,258,34,14,21,043,28,27,57,323,43,1*76
$GBGSV,3,3,10,28,57,081,49,33,44,061,36,1*79
$GBGSV,2,1,08,01,43,152,44,03,44,206,39,04,35,132,29,07,63,216,37,3*78
$GBGSV,2,2,08,08,53,264,37,10,63,247,41,13,44,258,38,14,21,043,41,3*74
$GBGSV,2,1,05,02,28,236,,05,08,256,,15,31,189,,30,10,299,,0*74
$GBGSV,2,2,05,30,10,299,,0*42
$GNRMC,045036.00,A,3726.8313311,N,12639.2763242,E,0.006,,210622,,,F,V*15
$GNVTG,,T,,M,0.006,N,0.011,K,D*3E
$GBGSV,2,1,05,02,28,236,,05,08,256,,15,31,189,,30,10,299,,0*74
$GBGSV,2,2,05,30,10,299,,0*42
$GNRMC,045037.00,A,3726.8313185,N,12639.2763199,E,0.013,,210622,,,F,V*1A
$GNVTG,,T,,M,0.013,N,0.024,K,D*3C
$GNGNS,045037.00,3726.8313185,N,12639.2763199,E,FFFF,28,0.60,14.026,17.840,2.0,4095,V*0F
$GNGGA,045037.00,3726.8313185,N,12639.2763199,E,5,12,0.60,14.026,M,17.840,M,2.0,4095*52
$GNGSA,A,3,19,09,06,17,14,12,03,04,,,,,1.19,0.60,1.03,1*0C
$GNGSA,A,3,71,72,85,87,,,,,,,,,1.19,0.60,1.03,2*0E
$GNGSA,A,3,15,01,03,21,08,13,,,,,,,1.19,0.60,1.03,3*01
$GNGSA,A,3,14,03,10,08,28,33,01,27,13,07,,,1.19,0.60,1.03,4*0D
$GPGSV,3,1,11,02,18,277,27,03,28,044,37,04,25,088,35,06,55,303,43,1*63
$GPGSV,3,2,11,09,27,124,35,12,16,318,40,14,21,186,38,17,72,100,46,1*60
$GPGSV,3,3,11,19,76,350,45,28,,,39,50,47,179,42,1*65
$GPGSV,1,1,01,11,22,271,18,5*5C
$GPGSV,2,1,07,03,28,044,30,04,25,088,31,06,55,303,40,09,27,124,33,6*65
$GPGSV,2,2,07,12,16,318,39,14,21,186,40,17,72,100,41,6*5A
$GPGSV,1,1,02,01,05,074,,20,11,224,,0*66
$GLGSV,2,1,06,70,25,035,26,71,56,094,49,72,33,164,41,77,25,283,12,1*74
$GLGSV,2,2,06,85,22,085,37,87,29,312,41,1*7B
$GLGSV,1,1,04,71,56,094,42,72,33,164,41,77,25,283,14,85,22,085,21,3*7B
$GLGSV,1,1,03,76,17,232,,78,07,336,,86,53,036,,0*4D
$GAGSV,2,1,07,01,24,307,40,03,25,062,31,08,34,121,33,13,65,351,37,2*78
$GAGSV,2,2,07,15,33,068,33,21,41,251,45,26,27,284,26,2*41
$GAGSV,2,1,07,01,24,307,38,03,25,062,38,08,34,121,33,13,65,351,32,7*7E
$GAGSV,2,2,07,15,33,068,38,21,41,251,42,26,27,284,26,7*48
$GAGSV,1,1,03,07,11,170,,18,25,122,,27,20,194,,0*42
$GBGSV,3,1,10,01,43,152,37,03,44,206,37,07,63,216,33,08,53,264,39,1*71
$GBGSV,3,2,10,10,63,247,42,13,44,258,34,14,21,043,27,27,57,323,44,1*7E
$GBGSV,3,3,10,28,57,081,49,33,44,061,34,1*7B
$GBGSV,2,1,08,01,43,152,43,03,44,206,39,04,35,132,30,07,63,216,38,3*78
$GBGSV,2,2,08,08,53,264,37,10,63,247,41,13,44,258,39,14,21,043,43,3*77
$GBGSV,2,1,05,02,28,236,,05,08,256,,15,31,189,,30,10,299,,0*74
$GBGSV,2,2,05,30,10,299,,0*42
$GNRMC,045038.00,A,3726.8313208,N,12639.2763080,E,0.007,,210622,,,F,V*1F
$GNVTG,,T,,M,0.007,N,0.012,K,D*3C
$GNGNS,045038.00,3726.8313208,N,12639.2763080,E,FFFF,28,0.60,14.010,17.840,2.0,4095,V*0A
$GNGGA,045038.00,3726.8313208,N,12639.2763080,E,5,12,0.60,14.010,M,17.840,M,2.0,4095*57
$GNGSA,A,3,19,09,06,17,14,12,03,04,,,,,1.19,0.60,1.03,1*0C
$GNGSA,A,3,71,72,85,87,,,,,,,,,1.19,0.60,1.03,2*0E
$GNGSA,A,3,15,01,03,21,08,13,,,,,,,1.19,0.60,1.03,3*01
$GNGSA,A,3,14,03,10,08,28,33,01,27,13,07,,,1.19,0.60,1.03,4*0D
$GPGSV,3,1,12,02,18,277,28,03,28,044,37,04,25,088,35,06,55,303,44,1*68
$GPGSV,3,2,12,09,27,124,35,11,22,271,30,12,16,318,38,14,21,186,39,1*6A
$GPGSV,3,3,12,17,72,100,46,19,76,350,45,28,,,40,50,47,179,42,1*58
$GPGSV,2,1,08,03,28,044,30,04,25,088,31,06,55,303,40,09,27,124,32,6*6B
$GPGSV,2,2,08,11,22,271,16,12,16,318,39,14,21,186,39,17,72,100,41,6*68
$GPGSV,1,1,02,01,05,074,,20,11,224,,0*66
$GLGSV,2,1,06,70,25,035,26,71,56,094,49,72,33,164,41,77,25,283,11,1*77
$GLGSV,2,2,06,85,22,085,36,87,29,312,41,1*7A
$GLGSV,1,1,04,71,56,094,42,72,33,164,41,77,25,283,11,85,22,085,21,3*7E
$GLGSV,1,1,03,76,17,232,,78,07,336,,86,53,036,,0*4D
$GAGSV,2,1,07,01,24,307,40,03,25,062,29,08,34,121,33,13,65,351,37,2*71
$GNRMC,045039.00,A,3726.8313104,N,12639.2763037,E,0.008,,210622,,,F,V*12
$GNVTG,,T,,M,0.008,N,0.015,K,D*34
$GNGNS,045039.00,3726.8313104,N,12639.2763037,E,FFFF,28,0.60,13.986,17.840,2.0,4095,V*09
$GNGGA,045039.00,3726.8313104,N,12639.2763037,E,5,12,0.60,13.986,M,17.840,M,2.0,4095*54
$GNGSA,A,3,19,09,06,17,14,12,03,04,,,,,1.19,0.60,1.03,1*0C
$GNGSA,A,3,71,72,85,87,,,,,,,,,1.19,0.60,1.03,2*0E
$GNGSA,A,3,15,01,03,21,08,13,,,,,,,1.19,0.60,1.03,3*01
$GNGSA,A,3,14,03,10,08,28,33,01,27,13,07,,,1.19,0.60,1.03,4*0D
$GPGSV,3,1,12,02,18,277,26,03,28,044,37,04,25,088,34,06,55,303,43,1*60
$GPGSV,3,2,12,09,27,124,36,11,22,271,30,12,16,318,39,14,21,186,40,1*66
$GPGSV,3,3,12,17,72,100,47,19,76,350,45,28,,,39,50,47,179,41,1*54
$GPGSV,2,1,08,03,28,044,29,04,25,088,31,06,55,303,39,09,27,124,32,6*6D
$GPGSV,2,2,08,11,22,271,16,12,16,318,38,14,21,186,39,17,72,100,41,6*69
$GPGSV,1,1,02,01,05,074,,20,11,224,,0*66
$GLGSV,2,1,06,70,25,035,26,71,56,094,49,72,33,164,41,77,25,283,13,1*75
$GLGSV,2,2,06,85,22,085,35,87,29,312,42,1*7A
$GLGSV,1,1,04,71,56,094,42,72,33,164,40,77,25,283,11,85,22,085,21,3*7F
$GLGSV,1,1,03,76,17,232,,78,07,336,,86,53,036,,0*4D
$GAGSV,2,1,07,01,24,307,40,03,25,062,29,08,34,121,32,13,65,351,37,2*70
$GAGSV,2,2,07,15,33,068,35,21,41,251,45,26,27,284,27,2*46
$GAGSV,2,1,07,01,24,307,37,03,25,062,36,08,34,121,33,13,65,351,32,7*7F
$GAGSV,2,2,07,15,33,068,39,21,41,251,41,26,27,284,27,7*4B
$GAGSV,1,1,03,07,11,170,,18,25,122,,27,20,194,,0*42
$GBGSV,3,1,10,01,43,152,36,03,44,206,37,07,63,216,31,08,53,264,39,1*72
$GBGSV,3,2,10,10,63,247,42,13,44,258,35,14,21,043,29,27,57,323,44,1*71
$GBGSV,3,3,10,28,57,081,49,33,44,061,36,1*79
$GBGSV,2,1,08,01,43,152,44,03,44,206,39,04,35,132,30,07,63,216,37,3*70
$GBGSV,2,2,08,08,53,264,37,10,63,247,41,13,44,258,37,14,21,043,42,3*78
$GBGSV,2,1,05,02,28,236,,05,08,256,,15,31,189,,30,10,299,,0*74
$GBGSV,2,2,05,30,10,299,,0*42
$GNRMC,045040.00,A,3726.8312772,N,12639.2763016,E,0.008,,210622,,,F,V*19
$GNVTG,,T,,M,0.008,N,0.015,K,D*34
$GNGNS,045040.00,3726.8312772,N,12639.2763016,E,FFFF,28,0.60,13.939,17.840,2.0,4095,V*06
$GNGGA,045040.00,3726.8312772,N,12639.2763016,E,5,12,0.60,13.939,M,17.840,M,2.0,4095*5B
$GNGSA,A,3,19,09,06,17,14,12,03,04,,,,,1.19,0.60,1.03,1*0C
$GNGSA,A,3,71,72,85,87,,,,,,,,,1.19,0.60,1.03,2*0E
$GNGSA,A,3,15,01,03,21,08,13,,,,,,,1.19,0.60,1.03,3*01
$GPGSV,3,1,12,02,18,277,26,03,28,044,37,04,25,088,34,06,55,303,43,1*60
$GPGSV,3,2,12,09,27,124,35,11,22,271,28,12,16,318,40,14,21,186,40,1*62
$GPGSV,3,3,12,17,72,100,47,19,76,350,44,28,,,38,50,47,179,41,1*54
$GPGSV,2,1,08,03,28,044,29,04,25,088,31,06,55,303,40,09,27,124,32,6*63
$GPGSV,2,2,08,11,22,271,16,12,16,318,38,14,21,186,39,17,72,100,41,6*69
$GPGSV,1,1,02,01,05,074,,20,11,224,,0*66
$GLGSV,2,1,06,70,25,035,26,71,56,094,48,72,33,164,42,77,25,283,11,1*75
$GLGSV,2,2,06,85,22,085,36,87,29,312,41,1*7A
$GLGSV,1,1,04,71,56,094,42,72,33,164,41,77,25,283,13,85,22,085,21,3*7C
$GLGSV,1,1,03,76,16,232,,78,07,336,,86,53,036,,0*4C
$GAGSV,2,1,07,01,24,307,38,03,25,062,29,08,34,121,33,13,65,351,38,2*71
$GAGSV,2,2,07,15,33,068,34,21,41,251,45,26,27,284,26,2*46
$GAGSV,2,1,07,01,24,307,38,03,25,062,36,08,34,121,32,13,65,351,32,7*71
$GAGSV,2,2,07,15,33,068,38,21,41,251,41,26,27,284,28,7*45
$GAGSV,1,1,03,07,11,170,,18,25,122,,27,20,194,,0*42
$GBGS$GBGSV,3,2,11,08,53,264,39,10,63,247,42,13,44,258,35,14,21,043,29,1*71
$GBGSV,3,3,11,27,57,323,44,28,57,081,49,33,44,061,35,1*4E
$GBGSV,2,1,08,01,43,152,44,03,44,206,39,04,35,132,30,07,63,216,37,3*70
$GBGSV,2,2,08,08,53,264,37,10,63,247,41,13,44,258,38,14,21,043,43,3*76
$GBGSV,2,1,05,02,28,236,,05,08,256,,15,31,189,,30,10,299,,0*74
$GBGSV,2,2,05,30,10,299,,0*42
$GNRMC,045041.00,A,3726.8312277,N,12639.2763064,E,0.003,,210622,,,F,V*16
$GNVTG,,T,,M,0.003,N,0.006,K,D*3D
$GNGNS,045041.00,3726.8312277,N,12639.2763064,E,FFFF,28,0.60,13.905,17.840,2.0,4095,V*0D
$GNGGA,045041.00,3726.8312277,N,12639.2763064,E,5,12,0.60,13.905,M,17.840,M,2.0,4095*50
$GNGSA,A,3,19,09,06,17,14,12,03,04,,,,,1.19,0.60,1.03,1*0C
$GNGSA,A,3,71,72,85,87,,,,,,,,,1.19,0.60,1.03,2*0E
$GNGSA,A,3,15,01,03,21,08,13,,,,,,,1.19,0.60,1.03,3*01
$GNGSA,A,3,14,03,10,08,28,33,01,27,13,07,,,1.19,0.60,1.03,4*0D
$GPGSV,3,1,12,02,18,277,25,03,28,044,37,04,25,088,34,06,55,303,43,1*63
$GPGSV,3,2,12,09,27,124,36,11,22,271,27,12,16,318,40,14,21,186,41,1*6F
$GPGSV,3,3,12,17,72,100,46,19,76,350,44,28,,,38,50,47,179,41,1*55
$GPGSV,2,1,08,03,28,044,30,04,25,088,32,06,55,303,40,09,27,124,31,6*6B
$GPGSV,2,2,08,11,22,271,14,12,16,318,37,14,21,186,39,17,72,100,41,6*64
$GPGSV,1,1,02,01,05,074,,20,11,224,,0*66
$GLGSV,2,1,06,70,25,035,27,71,56,094,49,72,33,164,41,77,25,282,08,1*7F
$GLGSV,2,2,06,85,22,085,36,87,29,312,41,1*7A
$GLGSV,1,1,04,71,56,094,42,72,33,164,41,77,25,282,16,85,22,085,21,3*78
$GLGSV,1,1,03,76,16,232,,78,07,336,,86,53,036,,0*4C
$GAGSV,2,1,07,01,24,307,38,03,25,062,29,08,34,121,32,13,65,351,39,2*71
$GAGSV,2,2,07,15,33,068,35,21,41,251,45,26,27,284,27,2*46
$GAGSV,2,1,07,01,24,307,38,03,25,062,36,08,34,121,34,13,65,351,31,7*74
$GAGSV,2,2,07,15,33,068,39,21,41,251,41,26,27,284,27,7*4B
$GAGSV,1,1,03,07,11,170,,18,25,122,,27,20,194,,0*42
$GBGSV,3,1,11,01,43,152,38,03,44,206,37,04,35,132,30,07,63,216,32,1*7B
$GBGSV,3,2,11,08,53,264,39,10,63,247,42,13,44,258,36,14,21,043,29,1*72
