$GNRMC,044201.00,A,3726.8497817,N,12639.2411749,E,0.015,,210622,,,F,V*1E
$GNVTG,,T,,M,0.015,N,0.027,K,D*39
$GNGNS,044201.00,3726.8497817,N,12639.2411749,E,FFFF,29,0.68,15.443,17.839,2.0,4095,V*0C
$GNGGA,044201.00,3726.8497817,N,12639.2411749,E,5,12,0.68,15.443,M,17.839,M,2.0,4095*50
$GNGSA,A,3,02,19,11,06,17,03,14,09,04,,,,1.20,0.68,0.98,1*0C
$GNGSA,A,3,77,71,85,70,87,,,,,,,,1.20,0.68,0.98,2*0D
$GNGSA,A,3,13,15,08,03,26,01,,,,,,,1.20,0.68,0.98,3*07
$GNGSA,A,3,14,10,01,33,07,27,04,28,08,,,,1.20,0.68,0.98,4*09
$GPGSV,3,1,09,02,15,274,27,03,32,045,43,04,24,092,42,06,53,297,42,1*6C
$GPGSV,3,2,09,09,24,127,33,11,19,268,25,14,25,187,15,17,75,088,47,1*6B
$GPGSV,3,3,09,19,72,342,47,1*56
$GPGSV,2,1,06,03,32,045,38,04,24,092,34,06,53,297,34,09,24,127,27,6*65
$GPGSV,2,2,06,14,25,187,21,17,75,088,40,6*6A
$GPGSV,1,1,04,01,07,072,,12,14,320,,20,08,223,,50,47,179,,0*65
$GLGSV,2,1,07,70,29,039,30,71,54,104,48,72,28,166,17,76,20,235,08,1*70
$GLGSV,2,2,07,77,26,288,28,85,24,081,38,87,26,308,36,1*4F
$GLGSV,1,1,04,71,54,104,33,72,28,166,10,76,20,235,17,77,26,288,31,3*76
$GLGSV,1,1,02,78,05,339,,86,53,029,,0*7B
$GAGSV,2,1,06,01,23,310,31,03,25,065,40,08,32,124,37,13,65,344,46,2*7A
$GAGSV,2,2,06,15,35,065,38,26,25,281,28,2*78
$GAGSV,2,1,06,01,23,310,36,03,25,065,45,08,32,124,41,13,65,344,45,7*7F
$GAGSV,2,2,06,15,35,065,45,26,25,281,33,7*7D
$GAGSV,1,1,04,07,08,171,,18,29,120,,21,43,255,,27,23,195,,0*76
$GBGSV,3,1,09,04,35,132,32,07,64,217,31,08,53,261,30,10,65,249,35,1*7E
$GBGSV,3,2,09,13,44,255,17,14,24,045,40,27,55,320,42,28,59,076,48,1*77
$GBGSV,3,3,09,33,47,066,48,1*40
$GBGSV,2,1,06,01,43,152,31,04,35,132,31,07,64,217,34,08,53,261,30,3*7D
$GBGSV,2,2,06,10,65,249,39,14,24,045,45,3*76
$GBGSV,2,1,06,02,28,236,,03,44,206,,05,08,256,,15,30,187,,0*7F
$GBGSV,2,2,06,15,30,187,,30,07,297,,0*70
$GNRMC,044202.00,A,3726.8497856,N,12639.2411689,E,0.006,,210622,,,F,V*17
$GNVTG,,T,,M,0.006,N,0.012,K,D*3D
$GNGNS,044202.00,3726.8497856,N,12639.2411689,E,FFFF,29,0.68,15.438,17.839,2.0,4095,V*0B
$GNGGA,044202.00,3726.8497856,N,12639.2411689,E,5,12,0.68,15.438,M,17.839,M,2.0,4095*57
$GNGSA,A,3,02,19,11,06,17,03,14,09,04,,,,1.20,0.68,0.98,1*0C
$GNGSA,A,3,77,71,85,70,87,,,,,,,,1.20,0.68,0.98,2*0D
$GNGSA,A,3,13,15,08,03,26,01,,,,,,,1.20,0.68,0.98,3*07
$GNGSA,A,3,14,10,01,33,07,27,04,28,08,,,,1.20,0.68,0.98,4*09
$GPGSV,3,1,09,02,15,274,28,03,32,045,43,04,24,092,42,06,53,297,42,1*63
$GPGSV,3,2,09,09,24,127,33,11,19,268,26,14,25,187,13,17,75,088,47,1*6E
$GPGSV,3,3,09,19,72,342,47,1*56
$GPGSV,2,1,06,03,32,045,38,04,24,092,34,06,53,297,34,09,24,127,26,6*64
$GPGSV,2,2,06,14,25,187,20,17,75,088,40,6*6B
$GPGSV,1,1,04,01,07,072,,12,14,320,,20,08,223,,50,47,179,,0*65
$GLGSV,2,1,07,70,29,039,30,71,54,104,48,72,28,166,19,76,20,235,12,1*75
$GLGSV,2,2,07,77,26,288,28,85,24,081,37,87,26,308,36,1*40
$GLGSV,1,1,04,71,54,104,33,72,28,166,14,76,20,235,15,77,26,288,30,3*71
$GLGSV,1,1,02,78,05,339,,86,53,029,,0*7B
$GAGSV,2,1,06,01,23,310,31,03,25,065,40,08,32,124,37,13,65,344,46,2*7A
$GAGSV,2,2,06,15,35,065,38,26,25,281,28,2*78
$GAGSV,2,1,06,01,23,310,36,03,25,065,45,08,32,124,42,13,65,344,45,7*7C
$GAGSV,2,2,06,15,35,065,45,26,25,281,34,7*7A
$GAGSV,1,1,04,07,08,171,,18,29,120,,21,43,255,,27,23,195,,0*76
$GBGSV,3,1,09,04,35,132,33,07,64,217,31,08,53,261,30,10,65,249,36,1*7C
$GBGSV,3,2,09,13,44,255,17,14,24,045,40,27,55,320,42,28,59,076,48,1*77
$GBGSV,3,3,09,33,47,066,49,1*41
$GBGSV,2,1,06,01,43,152,31,04,35,132,31,07,64,217,34,08,53,261,30,3*7D
$GBGSV,2,2,06,10,65,249,38,14,24,045,45,3*77
$GBGSV,2,1,06,02,28,236,,03,44,206,,05,08,256,,15,30,187,,0*7F
$GBGSV,2,2,06,15,30,187,,30,08,297,,0*7F
$GNRMC,044203.00,A,3726.8497956,N,12639.2411651,E,0.014,,210622,,,F,V*11
$GNVTG,,T,,M,0.014,N,0.027,K,D*38
$GNGNS,044203.00,3726.8497956,N,12639.2411651,E,FFFF,29,0.67,15.422,17.839,1.0,4095,V*09
$GNGGA,044203.00,3726.8497956,N,12639.2411651,E,5,12,0.67,15.422,M,17.839,M,1.0,4095*55
$GNGSA,A,3,02,19,11,06,17,03,14,09,04,,,,1.15,0.67,0.93,1*0E
$GNGSA,A,3,77,71,85,70,87,,,,,,,,1.15,0.67,0.93,2*0F
$GNGSA,A,3,13,15,08,03,26,01,,,,,,,1.15,0.67,0.93,3*05
$GNGSA,A,3,14,10,01,33,07,27,04,28,08,,,,1.15,0.67,0.93,4*0B
$GPGSV,3,1,09,02,15,274,29,03,32,045,43,04,24,092,42,06,53,297,42,1*62
$GPGSV,3,2,09,09,24,127,33,11,19,268,26,14,25,187,08,17,75,088,47,1*64
$GPGSV,3,3,09,19,72,342,47,1*56
$GPGSV,2,1,06,03,32,045,38,04,24,092,34,06,53,297,34,09,24,127,26,6*64
$GPGSV,2,2,06,14,25,187,20,17,75,088,40,6*6B
$GPGSV,1,1,04,01,07,072,,12,14,320,,20,08,223,,50,47,179,,0*65
$GLGSV,2,1,07,70,29,039,30,71,54,104,48,72,28,166,19,76,20,235,09,1*7F
$GLGSV,2,2,07,77,26,288,28,85,24,081,36,87,26,308,36,1*41
$GLGSV,1,1,04,71,54,104,33,72,28,166,11,76,20,235,15,77,26,288,31,3*75
$GLGSV,1,1,02,78,05,339,,86,53,029,,0*7B
$GAGSV,2,1,06,01,23,310,31,03,25,065,40,08,32,124,36,13,65,344,46,2*7B
$GAGSV,2,2,06,15,35,065,38,26,25,281,28,2*78
$GAGSV,2,1,07,01,23,310,36,03,25,065,45,08,32,124,42,13,65,344,45,7*7D
$GAGSV,2,2,07,15,35,065,45,21,43,255,29,26,25,281,34,7*46
$GAGSV,1,1,03,07,08,171,,18,29,120,,27,23,195,,0*47
$GBGSV,3,1,09,04,35,132,33,07,64,217,31,08,53,261,30,10,65,249,36,1*7C
$GBGSV,3,2,09,13,44,255,17,14,24,045,40,27,55,320,42,28,59,076,48,1*77
$GBGSV,3,3,09,33,46,065,49,1*43
$GBGSV,2,1,06,01,43,152,30,04,35,132,32,07,64,217,34,08,53,261,30,3*7F
$GBGSV,2,2,06,10,65,249,38,14,24,045,45,3*77
$GBGSV,2,1,06,02,28,236,,03,44,206,,05,08,256,,15,30,187,,0*7F
$GBGSV,2,2,06,15,30,187,,30,08,297,,0*7F
$GNRMC,044204.00,A,3726.8498092,N,12639.2411647,E,0.023,,210622,,,F,V*1B
$GNVTG,,T,,M,0.023,N,0.043,K,D*3E
$GNGNS,044204.00,3726.8498092,N,12639.2411647,E,FFFF,29,0.67,15.422,17.839,2.0,4095,V*04
$GNGGA,044204.00,3726.8498092,N,12639.2411647,E,5,12,0.67,15.422,M,17.839,M,2.0,4095*58
$GNGSA,A,3,02,19,11,06,17,03,14,09,04,,,,1.15,0.67,0.93,1*0E
$GNGSA,A,3,77,71,85,70,87,,,,,,,,1.15,0.67,0.93,2*0F
$GNGSA,A,3,13,15,08,03,26,01,,,,,,,1.15,0.67,0.93,3*05
$GNGSA,A,3,14,10,01,33,07,27,04,28,08,,,,1.15,0.67,0.93,4*0B
$GPGSV,3,1,09,02,15,274,31,03,32,045,44,04,24,092,43,06,53,297,43,1*6C
$GPGSV,3,2,09,09,24,127,34,11,19,268,26,14,25,187,09,17,75,088,49,1*6C
$GPGSV,3,3,09,19,72,342,48,1*59
$GPGSV,2,1,06,03,32,045,38,04,24,092,34,06,53,297,34,09,24,127,26,6*64
$GPGSV,2,2,06,14,25,187,18,17,75,088,40,6*60
$GPGSV,1,1,04,01,07,072,,12,14,320,,20,08,223,,50,47,179,,0*65
$GLGSV,2,1,07,70,29,039,30,71,54,104,48,72,28,166,20,76,20,235,12,1*7F
$GLGSV,2,2,07,77,26,288,28,85,24,081,36,87,26,308,36,1*41
$GLGSV,1,1,04,71,54,104,33,72,28,166,14,76,20,235,16,77,26,288,30,3*72
$GLGSV,1,1,02,78,05,339,,86,53,029,,0*7B
$GAGSV,2,1,06,01,23,310,32,03,25,065,41,08,32,124,37,13,65,344,46,2*78
$GAGSV,2,2,06,15,35,065,38,26,25,281,28,2*78
$GAGSV,2,1,06,01,23,310,36,03,25,065,45,08,32,124,42,13,65,344,45,7*7C
$GAGSV,2,2,06,15,35,065,45,26,25,281,34,7*7A
$GAGSV,1,1,04,07,08,171,,18,29,120,,21,43,255,,27,23,195,,0*76
$GBGSV,3,1,09,04,35,132,33,07,64,217,31,08,53,261,30,10,65,249,36,1*7C
$GBGSV,3,2,09,13,44,255,15,14,24,045,40,27,55,320,42,28,59,076,48,1*75
$GBGSV,3,3,09,33,46,065,49,1*43
$GBGSV,2,1,06,01,43,152,30,04,35,132,32,07,64,217,34,08,53,261,30,3*7F
$GNRMC,044205.00,A,3726.8498257,N,12639.2411682,E,0.003,,210622,,,F,V*1A
$GNVTG,,T,,M,0.003,N,0.005,K,D*3E
$GNGNS,044205.00,3726.8498257,N,12639.2411682,E,FFFF,29,0.67,15.433,17.839,2.0,4095,V*07
$GNGGA,044205.00,3726.8498257,N,12639.2411682,E,5,12,0.67,15.433,M,17.839,M,2.0,4095*5B
$GNGSA,A,3,02,19,11,06,17,03,14,09,04,,,,1.15,0.67,0.93,1*0E
$GNGSA,A,3,77,71,85,70,87,,,,,,,,1.15,0.67,0.93,2*0F
$GNGSA,A,3,13,15,08,03,26,01,,,,,,,1.15,0.67,0.93,3*05
$GNGSA,A,3,14,10,01,33,07,27,04,28,08,,,,1.15,0.67,0.93,4*0B
$GPGSV,3,1,09,02,15,274,31,03,32,045,44,04,24,092,43,06,53,297,43,1*6C
$GPGSV,3,2,09,09,24,127,34,11,19,268,26,14,25,187,15,17,75,088,48,1*60
$GPGSV,3,3,09,19,72,342,48,1*59
$GPGSV,2,1,06,03,32,045,38,04,24,092,34,06,53,297,34,09,24,127,26,6*64
$GPGSV,2,2,06,14,25,187,16,17,75,088,40,6*6E
$GPGSV,1,1,04,01,07,072,,12,14,320,,20,08,223,,50,47,179,,0*65
$GLGSV,2,1,07,70,29,039,29,71,54,104,48,72,28,166,21,76,20,235,16,1*72
$GLGSV,2,2,07,77,26,288,28,85,24,081,37,87,26,308,35,1*43
$GLGSV,1,1,04,71,54,104,32,72,28,166,11,76,20,235,16,77,26,288,30,3*76
$GLGSV,1,1,02,78,05,339,,86,53,029,,0*7B
$GAGSV,2,1,06,01,23,310,31,03,25,065,40,08,32,124,36,13,65,344,46,2*7B
$GAGSV,2,2,06,15,35,065,38,26,25,281,28,2*78
$GAGSV,2,1,06,01,23,310,36,03,25,065,45,08,32,124,43,13,65,344,45,7*7D
$GAGSV,2,2,06,15,35,065,45,26,25,281,34,7*7A
$GAGSV,1,1,04,07,08,171,,18,29,120,,21,43,255,,27,23,195,,0*76
$GBGSV,3,1,09,04,35,132,33,07,64,217,31,08,53,261,30,10,65,249,36,1*7C
$GBGSV,3,2,09,13,44,255,15,14,24,045,40,27,55,320,42,28,59,076,48,1*75
$GBGSV,3,3,09,33,46,065,49,1*43
$GBGSV,2,1,06,01,43,152,30,04,35,132,31,07,64,217,34,08,53,261,30,3*7C
$GBGSV,2,2,06,10,65,249,38,14,24,045,45,3*77
$GBGSV,2,1,06,02,28,236,,03,44,206,,05,08,256,,15,30,187,,0*7F
$GBGSV,2,2,06,15,30,187,,30,08,297,,0*7F
$GNRMC,044206.00,A,3726.8498442,N,12639.2411677,E,0.006,,210622,,,F,V*14
$GNVTG,,T,,M,0.006,N,0.011,K,D*3E
$GNGNS,044206.00,3726.8498442,N,12639.2411677,E,FFFF,29,0.67,15.423,17.839,2.0,4095,V*0D
$GNGGA,044206.00,3726.8498442,N,12639.2411677,E,5,12,0.67,15.423,M,17.839,M,2.0,4095*51
$GNGSA,A,3,02,19,11,06,17,03,14,09,04,,,,1.15,0.67,0.93,1*0E
$GNGSA,A,3,77,71,85,70,87,,,,,,,,1.15,0.67,0.93,2*0F
$GNGSA,A,3,13,15,08,03,26,01,,,,,,,1.15,0.67,0.93,3*05
$GNGSA,A,3,14,10,01,33,07,27,04,28,08,,,,1.15,0.67,0.93,4*0B
$GPGSV,3,1,09,02,15,274,31,03,32,045,44,04,24,092,42,06,53,297,43,1*6D
$GPGSV,3,2,09,09,24,127,34,11,19,268,26,14,25,187,16,17,75,088,48,1*63
$GPGSV,3,3,09,19,72,342,48,1*59
$GPGSV,2,1,06,03,32,045,38,04,24,092,34,06,53,297,33,09,24,127,25,6*60
$GPGSV,2,2,06,14,25,187,15,17,75,088,40,6*6D
$GPGSV,1,1,04,01,07,072,,12,14,320,,20,08,223,,50,47,179,,0*65
$GLGSV,2,1,07,70,29,039,29,71,54,104,48,72,28,166,22,76,20,235,13,1*74
$GLGSV,2,2,07,77,26,288,28,85,24,081,37,87,26,308,35,1*43
$GLGSV,1,1,04,71,54,104,32,72,28,166,12,76,20,235,16,77,26,288,31,3*74
$GLGSV,1,1,02,78,05,339,,86,53,029,,0*7B
$GAGSV,2,1,06,01,23,310,31,03,25,065,40,08,32,124,37,13,65,344,46,2*7A
$GAGSV,2,2,06,15,35,065,38,26,25,281,28,2*78
$GAGSV,2,1,06,01,23,310,36,03,25,065,45,08,32,124,43,13,65,344,45,7*7D
$GAGSV,2,2,06,15,35,065,45,26,25,281,34,7*7A
$GAGSV,1,1,04,07,08,171,,18,29,120,,21,43,255,,27,23,195,,0*76
$GBGSV,3,1,09,04,35,132,33,07,64,217,31,08,53,261,30,10,65,249,36,1*7C
$GBGSV,3,2,09,13,44,255,15,14,24,045,40,27,55,320,43,28,59,076,48,1*74
$GBGSV,3,3,09,33,46,065,49,1*43
$GBGSV,2,1,06,01,43,152,30,04,35,132,31,07,64,217,34,08,53,261,30,3*7C
$GBGSV,2,2,06,10,65,249,38,14,24,045,44,3*76
$GBGSV,2,1,06,02,28,236,,03,44,206,,05,08,256,,15,30,187,,0*7F
$GBGSV,2,2,06,15,30,187,,30,08,297,,0*7F
$GNRMC,044207.00,A,3726.8498617,N,12639.2411663,E,0.015,,210622,,,F,V*10
$GNVTG,,T,,M,0.015,N,0.029,K,D*37
$GNGNS,044207.00,3726.8498617,N,12639.2411663,E,FFFF,29,0.67,15.416,17.839,2.0,4095,V*0D
$GNGGA,044207.00,3726.8498617,N,12639.2411663,E,5,12,0.67,15.416,M,17.839,M,2.0,4095*51
$GNGSA,A,3,02,19,11,06,17,03,14,09,04,,,,1.15,0.67,0.93,1*0E
$GNGSA,A,3,77,71,85,70,87,,,,,,,,1.15,0.67,0.93,2*0F
$GNGSA,A,3,13,15,08,03,26,01,,,,,,,1.15,0.67,0.93,3*05
$GNGSA,A,3,14,10,01,33,07,27,04,28,08,,,,1.15,0.67,0.93,4*0B
$GPGSV,3,1,09,02,15,274,31,03,32,045,43,04,24,092,42,06,53,297,43,1*6A
$GPGSV,3,2,09,09,24,127,34,11,19,268,26,14,25,187,09,17,75,088,48,1*6D
$GPGSV,3,3,09,19,72,342,48,1*59
$GPGSV,2,1,06,03,32,045,38,04,24,092,34,06,53,297,33,09,24,127,25,6*60
$GPGSV,2,2,06,14,25,187,15,17,75,088,40,6*6D
$GPGSV,1,1,04,01,07,072,,12,14,320,,20,08,223,,50,47,179,,0*65
$GLGSV,2,1,07,70,29,039,28,71,54,104,48,72,28,166,23,76,20,235,09,1*7F
$GLGSV,2,2,07,77,26,288,28,85,24,081,37,87,26,308,34,1*42
$GLGSV,1,1,04,71,54,104,32,72,28,166,13,76,20,235,16,77,26,288,31,3*75
$GLGSV,1,1,02,78,05,339,,86,53,029,,0*7B
$GAGSV,2,1,06,01,23,310,30,03,25,065,40,08,32,124,37,13,65,344,46,2*7B
$GAGSV,2,2,06,15,35,065,38,26,25,281,28,2*78
$GAGSV,2,1,06,01,23,310,36,03,25,065,45,08,32,124,43,13,65,344,45,7*7D
$GAGSV,2,2,06,15,35,065,45,26,25,281,34,7*7A
$GAGSV,1,1,04,07,08,171,,18,29,120,,21,43,255,,27,23,195,,0*76
$GBGSV,3,1,09,04,35,132,33,07,64,217,31,08,53,261,31,10,65,249,36,1*7D
$GBGSV,3,2,09,13,44,255,13,14,24,045,40,27,55,320,43,28,59,076,48,1*72
$GBGSV,3,3,09,33,46,065,49,1*43
$GBGSV,2,1,06,01,43,152,30,04,35,132,31,07,64,217,33,08,53,261,30,3*7B
$GBGSV,2,2,06,10,65,249,38,14,24,045,44,3*76
$GBGSV,2,1,06,02,28,236,,03,44,206,,05,08,256,,15,30,187,,0*7F
$GBGSV,2,2,06,15,30,187,,30,08,297,,0*7F
$GNRMC,044208.00,A,3726.8498712,N,12639.2411721,E,0.006,,210622,,,F,V*1E
$GNVTG,,T,,M,0.006,N,0.011,K,D*3E
$GNGNS,044208.00,3726.8498712,N,12639.2411721,E,FFFF,29,0.67,15.427,17.839,2.0,4095,V*03
$GNGGA,044208.00,3726.8498712,N,12639.2411721,E,5,12,0.67,15.427,M,17.839,M,2.0,4095*5F
$GNGSA,A,3,02,19,11,06,17,03,14,09,04,,,,1.15,0.67,0.93,1*0E
$GNGSA,A,3,77,71,85,70,87,,,,,,,,1.15,0.67,0.93,2*0F
$GNGSA,A,3,13,15,08,03,26,01,,,,,,,1.15,0.67,0.93,3*05
$GNGSA,A,3,14,10,01,33,07,27,04,28,08,,,,1.15,0.67,0.93,4*0B
$GPGSV,3,1,09,02,15,274,31,03,32,045,43,04,24,092,42,06,53,297,43,1*6A
$GPGSV,3,2,09,09,24,127,34,11,19,268,26,14,25,187,16,17,75,088,48,1*63
$GPGSV,3,3,09,19,72,342,48,1*59
$GPGSV,2,1,06,03,32,045,39,04,24,092,34,06,53,297,33,09,24,127,25,6*61
$GPGSV,2,2,06,14,25,187,15,17,75,088,40,6*6D
$GPGSV,1,1,04,01,07,072,,12,14,320,,20,08,223,,50,47,179,,0*65
$GLGSV,2,1,07,70,29,039,28,71,54,104,48,72,28,166,24,76,20,235,08,1*79
$GLGSV,2,2,07,77,26,288,27,85,24,081,36,87,26,308,34,1*4C
$GLGSV,1,1,04,71,54,104,32,72,28,166,09,76,20,235,16,77,26,288,31,3*7E
$GLGSV,1,1,02,78,05,339,,86,53,029,,0*7B
$GAGSV,2,1,06,01,23,310,31,03,25,065,40,08,32,124,37,13,65,344,46,2*7A
$GAGSV,2,2,06,15,35,065,38,26,25,281,28,2*78
$GAGSV,2,1,06,01,23,310,36,03,25,065,45,08,32,124,43,13,65,344,45,7*7D
$GAGSV,2,2,06,15,35,065,45,26,25,281,34,7*7A
$GAGSV,1,1,04,07,08,171,,18,29,120,,21,43,255,,27,23,195,,0*76
$GBGSV,3,1,09,04,35,132,33,07,64,217,30,08,53,261,31,10,65,249,36,1*7C
$GBGSV,3,2,09,13,44,255,13,14,24,045,40,27,55,320,43,28,59,076,48,1*72
$GBGSV,3,3,09,33,46,065,49,1*43
$GBGSV,2,1,06,01,43,152,30,04,35,132,32,07,64,217,34,08,53,261,30,3*7F
$GBGSV,2,2,06,10,65,249,39,14,24,045,45,3*76
$GBGSV,2,1,06,02,28,236,,03,44,206,,05,08,256,,15,30,187,,0*7F
$GBGSV,2,2,06,15,30,187,,30,08,297,,0*7F
$GNRMC,044209.00,A,3726.8498812,N,12639.2411815,E,0.007,,210622,,,F,V*19
$GNVTG,,T,,M,0.007,N,0.014,K,D*3A
$GNGNS,044209.00,3726.8498812,N,12639.2411815,E,FFFF,29,0.67,15.443,17.839,2.0,4095,V*07
$GNGGA,044209.00,3726.8498812,N,12639.2411815,E,5,12,0.67,15.443,M,17.839,M,2.0,4095*5B
$GNGSA,A,3,02,19,11,06,17,03,14,09,04,,,,1.15,0.67,0.93,1*0E
$GNGSA,A,3,77,71,85,70,87,,,,,,,,1.15,0.67,0.93,2*0F
$GNGSA,A,3,13,15,08,03,26,01,,,,,,,1.15,0.67,0.93,3*05
$GNGSA,A,3,14,10,01,33,07,27,04,28,08,,,,1.15,0.67,0.93,4*0B
$GPGSV,3,1,09,02,15,274,31,03,32,045,43,04,24,092,42,06,53,297,43,1*6A
$GPGSV,3,2,09,09,24,127,34,11,19,268,26,14,25,187,20,17,75,088,48,1*66
$GPGSV,3,3,09,19,72,342,48,1*59
$GPGSV,1,1,01,11,19,268,19,5*5D
$GPGSV,2,1,06,03,32,045,39,04,24,092,34,06,53,297,33,09,24,127,25,6*61
$GPGSV,2,2,06,14,25,187,16,17,75,088,40,6*6E
$GPGSV,1,1,04,01,07,072,,12,14,320,,20,08,223,,50,47,179,,0*65
$GLGSV,2,1,07,70,29,039,28,71,54,104,48,72,28,166,23,76,20,235,09,1*7F
$GLGSV,2,2,07,77,26,288,28,85,24,081,35,87,26,308,34,1*40
$GLGSV,1,1,04,71,54,104,32,72,28,166,10,76,20,235,16,77,26,288,31,3*76
$GLGSV,1,1,02,78,05,339,,86,53,029,,0*7B
$GAGSV,2,1,07,01,23,310,31,03,25,065,40,08,32,124,36,13,65,344,46,2*7A
$GAGSV,2,2,07,15,35,065,38,21,43,255,19,26,25,281,28,2*47
$GAGSV,2,1,06,01,23,310,36,03,25,065,45,08,32,124,42,13,65,344,45,7*7C
$GAGSV,2,2,06,15,35,065,44,26,25,281,33,7*7C
$GAGSV,1,1,03,07,08,171,,18,29,120,,27,23,195,,0*47
$GBGSV,3,1,09,04,35,132,33,07,64,217,30,08,53,261,31,10,65,249,36,1*7C
$GBGSV,3,2,09,13,44,255,11,14,24,045,40,27,55,320,43,28,59,076,49,1*71
$GBGSV,3,3,09,33,46,065,49,1*43
$GNRMC,044210.00,A,3726.8498896,N,12639.2411900,E,0.002,,210622,,,F,V*1D
$GNVTG,,T,,M,0.002,N,0.004,K,D*3E
$GNGNS,044210.00,3726.8498896,N,12639.2411900,E,FFFF,29,0.67,15.452,17.839,2.0,4095,V*06
$GNGGA,044210.00,3726.8498896,N,12639.2411900,E,5,12,0.67,15.452,M,17.839,M,2.0,4095*5A
$GNGSA,A,3,02,19,11,06,17,03,14,09,04,,,,1.17,0.67,0.95,1*0A
$GNGSA,A,3,77,71,85,70,87,,,,,,,,1.17,0.67,0.95,2*0B
$GNGSA,A,3,13,15,08,03,26,01,,,,,,,1.17,0.67,0.95,3*01
$GNGSA,A,3,14,10,01,33,07,27,04,28,08,,,,1.17,0.67,0.95,4*0F
$GPGSV,3,1,09,02,15,274,31,03,32,045,43,04,24,092,42,06,53,297,43,1*6A
$GPGSV,3,2,09,09,24,127,34,11,19,268,27,14,25,187,21,17,75,088,48,1*66
$GPGSV,3,3,09,19,72,342,48,1*59
$GPGSV,2,1,07,03,32,045,39,04,24,092,34,06,53,297,33,09,24,127,25,6*60
$GPGSV,2,2,07,11,19,268,19,14,25,187,15,17,75,088,40,6*50
$GPGSV,1,1,04,01,07,072,,12,14,320,,20,08,223,,50,47,179,,0*65
$GLGSV,2,1,07,70,29,039,27,71,54,104,48,72,28,166,21,76,20,235,08,1*73
$GLGSV,2,2,07,77,26,288,28,85,24,081,35,87,26,308,34,1*40
$GLGSV,1,1,04,71,54,104,32,72,28,166,08,76,20,235,17,77,26,288,31,3*7E
$GLGSV,1,1,02,78,05,339,,86,53,029,,0*7B
$GAGSV,2,1,06,01,23,310,31,03,25,065,40,08,32,124,37,13,65,344,46,2*7A
$GAGSV,2,2,06,15,35,065,38,26,25,281,28,2*78
$GAGSV,2,1,06,01,23,310,35,03,25,065,45,08,32,124,42,13,65,344,45,7*7F
$GAGSV,2,2,06,15,35,065,45,26,25,281,33,7*7D
$GAGSV,1,1,04,07,08,171,,18,29,120,,21,43,255,,27,23,195,,0*76
$GBGSV,3,1,09,04,35,132,33,07,64,217,31,08,53,261,31,10,65,249,36,1*7D
$GBGSV,3,2,09,13,44,255,14,14,24,045,40,27,55,320,43,28,59,076,49,1*74
$GBGSV,3,3,09,33,46,065,49,1*43
$GBGSV,2,1,06,01,43,152,31,04,35,132,32,07,64,217,33,08,53,261,30,3*79
$GBGSV,2,2,06,10,65,249,38,14,24,045,44,3*76
$GBGSV,2,1,06,02,28,236,,03,44,206,,05,08,256,,15,30,187,,0*7F
$GBGSV,2,2,06,15,30,187,,30,08,297,,0*7F
$GNRMC,044211.00,A,3726.8498996,N,12639.2411928,E,0.009,,210622,,,F,V*1C
$GNVTG,,T,,M,0.009,N,0.016,K,D*36
$GNGNS,044211.00,3726.8498996,N,12639.2411928,E,FFFF,29,0.69,15.444,17.839,2.0,4095,V*05
$GNGGA,044211.00,3726.8498996,N,12639.2411928,E,5,12,0.69,15.444,M,17.839,M,2.0,4095*59
$GNGSA,A,3,02,19,11,06,17,03,14,09,04,,,,1.22,0.69,1.00,1*0F
$GNGSA,A,3,77,71,85,70,87,,,,,,,,1.22,0.69,1.00,2*0E
$GNGSA,A,3,13,15,08,03,26,01,,,,,,,1.22,0.69,1.00,3*04
$GNGSA,A,3,14,10,01,33,07,27,04,28,08,,,,1.22,0.69,1.00,4*0A
$GPGSV,3,1,09,02,15,274,30,03,32,045,43,04,24,092,42,06,53,297,43,1*6B
$GPGSV,3,2,09,09,24,127,34,11,19,268,26,14,25,187,21,17,75,088,48,1*67
$GPGSV,3,3,09,19,72,342,48,1*59
$GPGSV,2,1,07,03,32,045,39,04,24,092,34,06,53,297,33,09,24,127,26,6*63
$GPGSV,2,2,07,11,19,268,17,14,25,187,16,17,75,088,40,6*5D
$GPGSV,1,1,04,01,07,072,,12,14,320,,20,08,223,,50,47,179,,0*65
$GLGSV,2,1,07,70,29,039,27,71,54,104,47,72,28,166,19,76,20,235,06,1*79
$GLGSV,2,2,07,77,26,288,28,85,24,081,35,87,26,308,33,1*47
$GLGSV,1,1,04,71,54,104,32,72,28,166,10,76,20,235,18,77,26,288,30,3*79
$GLGSV,1,1,02,78,05,339,,86,53,029,,0*7B
$GAGSV,2,1,07,01,23,310,32,03,25,065,41,08,32,124,37,13,65,344,47,2*78
$GAGSV,2,2,07,15,35,065,39,21,43,255,19,26,25,281,28,2*46
$GAGSV,2,1,07,01,23,310,35,03,25,065,45,08,32,124,42,13,65,344,45,7*7E
$GAGSV,2,2,07,15,35,065,45,21,43,255,29,26,25,281,33,7*41
$GAGSV,1,1,03,07,08,171,,18,29,120,,27,23,195,,0*47
$GBGSV,3,1,09,04,35,132,33,07,64,217,30,08,53,261,31,10,65,249,36,1*7C
$GBGSV,3,2,09,13,44,255,18,14,24,045,40,27,55,320,43,28,59,076,49,1*78
$GBGSV,3,3,09,33,46,065,48,1*42
$GBGSV,2,1,06,01,43,152,31,04,35,132,32,07,64,217,34,08,53,261,30,3*7E
$GBGSV,2,2,06,10,65,249,39,14,24,045,45,3*76
$GBGSV,2,1,06,02,28,236,,03,44,206,,05,08,256,,15,30,187,,0*7F
$GBGSV,2,2,06,15,30,187,,30,08,297,,0*7F
$GNRMC,044212.00,A,3726.8499250,N,12639.2411928,E,0.014,,210622,,,F,V*13
$GNVTG,,T,,M,0.014,N,0.025,K,D*3A
$GNGNS,044212.00,3726.8499250,N,12639.2411928,E,FFFF,29,0.67,15.445,17.839,2.0,4095,V*09
$GNGGA,044212.00,3726.8499250,N,12639.2411928,E,5,12,0.67,15.445,M,17.839,M,2.0,4095*55
$GNGSA,A,3,02,19,11,06,17,03,09,04,,,,,1.21,0.67,1.00,1*07
$GNGSA,A,3,77,71,85,70,87,,,,,,,,1.21,0.67,1.00,2*03
$GNGSA,A,3,13,15,08,03,21,26,01,,,,,,1.21,0.67,1.00,3*0A
$GNGSA,A,3,14,10,01,33,07,27,04,28,08,,,,1.21,0.67,1.00,4*07
$GPGSV,3,1,09,02,15,274,29,03,32,045,43,04,24,092,42,06,53,297,43,1*63
$GPGSV,3,2,09,09,24,127,34,11,19,268,26,14,25,187,20,17,75,088,48,1*66
$GPGSV,3,3,09,19,72,342,48,1*59
$GPGSV,2,1,07,03,32,045,39,04,24,092,34,06,53,297,33,09,24,127,25,6*60
$GPGSV,2,2,07,11,19,268,16,14,25,187,16,17,75,088,40,6*5C
$GPGSV,1,1,04,01,07,072,,12,14,320,,20,08,223,,50,47,179,,0*65
$GLGSV,2,1,07,70,29,039,28,71,54,104,47,72,28,166,22,76,20,235,10,1*79
$GLGSV,2,2,07,77,26,288,28,85,24,081,34,87,26,308,32,1*47
$GLGSV,1,1,04,71,54,104,31,72,28,166,09,76,20,235,18,77,26,288,31,3*73
$GLGSV,1,1,02,78,05,339,,86,53,029,,0*7B
$GAGSV,2,1,06,01,23,310,31,03,25,065,41,08,32,124,37,13,65,344,46,2*7B
$GAGSV,2,2,06,15,35,065,38,26,25,281,27,2*77
$GAGSV,2,1,07,01,23,310,34,03,25,065,45,08,32,124,43,13,65,344,45,7*7E
$GAGSV,2,2,07,15,35,065,44,21,43,255,29,26,25,281,33,7*40
$GAGSV,1,1,03,07,08,171,,18,29,120,,27,23,195,,0*47
$GBGSV,3,1,09,04,35,132,33,07,64,217,30,08,53,261$GNRMC,044213.00,A,3726.8499344,N,12639.2411912,E,0.026,,210622,,,F,V*1E
$GNVTG,,T,,M,0.026,N,0.048,K,D*30
$GNGNS,044213.00,3726.8499344,N,12639.2411912,E,FFFF,29,0.67,15.422,17.839,1.0,4095,V*07
$GNGGA,044213.00,3726.8499344,N,12639.2411912,E,5,12,0.67,15.422,M,17.839,M,1.0,4095*5B
$GNGSA,A,3,02,19,11,06,17,03,09,04,,,,,1.21,0.67,1.00,1*07
$GNGSA,A,3,77,71,85,70,87,,,,,,,,1.21,0.67,1.00,2*03
$GNGSA,A,3,13,15,08,03,21,26,01,,,,,,1.21,0.67,1.00,3*0A
$GNGSA,A,3,14,10,01,33,07,27,04,28,08,,,,1.21,0.67,1.00,4*07
$GPGSV,3,1,09,02,15,274,32,03,32,045,43,04,24,092,41,06,53,297,43,1*6A
$GPGSV,3,2,09,09,24,127,34,11,19,268,26,14,25,187,20,17,75,088,48,1*66
$GPGSV,3,3,09,19,72,342,48,1*59
$GPGSV,2,1,07,03,32,045,37,04,24,092,34,06,53,297,35,09,24,127,25,6*68
$GPGSV,2,2,07,11,19,268,16,14,25,187,14,17,75,088,40,6*5E
$GPGSV,1,1,04,01,07,072,,12,14,320,,20,08,223,,50,47,179,,0*65
$GLGSV,2,1,07,70,29,039,27,71,54,104,47,72,28,166,22,76,20,235,09,1*7E
$GLGSV,2,2,07,77,26,288,28,85,24,081,34,87,26,308,32,1*47
$GLGSV,1,1,04,71,54,104,31,72,28,166,10,76,20,235,18,77,26,288,31,3*7B
$GLGSV,1,1,02,78,05,339,,86,53,029,,0*7B
$GAGSV,2,1,06,01,23,310,30,03,25,065,40,08,32,124,36,13,65,344,45,2*79
$GAGSV,2,2,06,15,35,065,36,26,25,281,28,2*76
$GAGSV,2,1,07,01,23,310,33,03,25,065,45,08,32,124,43,13,65,344,45,7*79
$GAGSV,2,2,07,15,35,065,44,21,43,255,28,26,25,281,34,7*46
$GAGSV,1,1,03,07,08,171,,18,29,120,,27,23,195,,0*47
$GBGSV,3,1,09,04,35,132,32,07,64,217,30,08,53,261,31,10,65,249,36,1*7D
$GBGSV,3,2,09,13,44,255,20,14,24,045,40,27,55,320,43,28,59,076,49,1*73
$GBGSV,3,3,09,33,46,065,48,1*42
$GBGSV,2,1,06,01,43,152,30,04,35,132,31,07,64,217,33,08,53,261,30,3*7B
$GBGSV,2,2,06,10,65,249,39,14,24,045,45,3*76
$GBGSV,2,1,06,02,28,236,,03,44,206,,05,08,256,,15,30,187,,0*7F
$GBGSV,2,2,06,15,30,187,,30,08,297,,0*7F
$GNRMC,044214.00,A,3726.8499440,N,12639.2411920,E,0.012,,210622,,,F,V*1C
$GNVTG,,T,,M,0.012,N,0.022,K,D*3B
$GNGNS,044214.00,3726.8499440,N,12639.2411920,E,FFFF,29,0.67,15.414,17.839,2.0,4095,V*04
$GNGGA,044214.00,3726.8499440,N,12639.2411920,E,5,12,0.67,15.414,M,17.839,M,2.0,4095*58
$GNGSA,A,3,02,19,11,06,17,03,09,04,,,,,1.21,0.67,1.00,1*07
$GNGSA,A,3,77,71,85,70,87,,,,,,,,1.21,0.67,1.00,2*03
$GNGSA,A,3,13,15,08,03,21,26,01,,,,,,1.21,0.67,1.00,3*0A
$GNGSA,A,3,14,10,01,33,07,27,04,28,08,,,,1.21,0.67,1.00,4*07
$GPGSV,3,1,09,02,15,274,32,03,32,045,43,04,24,092,42,06,53,297,43,1*69
$GPGSV,3,2,09,09,24,127,34,11,19,268,26,14,25,187,19,17,75,088,48,1*6C
$GPGSV,3,3,09,19,72,342,49,1*58
$GPGSV,2,1,07,03,32,045,39,04,24,092,35,06,53,297,33,09,24,127,26,6*62
$GPGSV,2,2,07,11,19,268,15,14,25,187,12,17,75,088,40,6*5B
$GPGSV,1,1,04,01,07,072,,12,14,320,,20,08,223,,50,47,179,,0*65
$GLGSV,2,1,07,70,28,038,27,71,54,104,47,72,28,166,21,76,20,235,08,1*7C
$GLGSV,2,2,07,77,26,288,28,85,24,081,35,87,26,308,32,1*46
$GLGSV,1,1,04,71,54,104,31,72,28,166,14,76,20,235,17,77,26,288,31,3*70
$GLGSV,1,1,02,78,05,339,,86,53,029,,0*7B
$GAGSV,2,1,06,01,23,310,31,03,25,065,40,08,32,124,37,13,65,344,46,2*7A
$GAGSV,2,2,06,15,35,065,39,26,25,281,29,2*78
$GAGSV,2,1,07,01,23,310,36,03,25,065,46,08,32,124,42,13,65,344,45,7*7E
$GAGSV,2,2,07,15,35,065,44,21,43,255,28,26,25,281,33,7*41
$GAGSV,1,1,03,07,08,171,,18,29,120,,27,23,195,,0*47
$GBGSV,3,1,09,04,35,132,32,07,64,217,30,08,53,261,31,10,65,249,36,1*7D
$GBGSV,3,2,09,13,44,255,20,14,24,045,40,27,55,320,44,28,59,076,48,1*75
$GBGSV,3,3,09,33,46,065,49,1*43
$GBGSV,2,1,06,01,43,152,31,04,35,132,31,07,64,217,34,08,53,261,30,3*7D
$GBGSV,2,2,06,10,65,249,39,14,24,045,42,3*71
$GBGSV,2,1,06,02,28,236,,03,44,206,,05,08,256,,15,30,187,,0*7F
$GBGSV,2,2,06,15,30,187,,30,08,297,,0*7F
$GNRMC,044215.00,A,3726.8499516,N,12639.2411979,E,0.017,,210622,,,F,V*16
$GNVTG,,T,,M,0.017,N,0.031,K,D*3C
$GNGNS,044215.00,3726.8499516,N,12639.2411979,E,FFFF,29,0.67,15.417,17.839,2.0,4095,V*08
$GNGGA,044215.00,3726.8499516,N,12639.2411979,E,5,12,0.67,15.417,M,17.839,M,2.0,4095*54
$GNGSA,A,3,02,19,11,06,17,03,09,04,,,,,1.21,0.67,1.00,1*07
$GNGSA,A,3,77,71,85,70,87,,,,,,,,1.21,0.67,1.00,2*03
$GNGSA,A,3,13,15,08,03,21,26,01,,,,,,1.21,0.67,1.00,3*0A
$GNGSA,A,3,14,10,01,33,07,27,04,28,08,,,,1.21,0.67,1.00,4*07
$GPGSV,3,1,09,02,15,274,31,03,32,045,44,04,24,092,42,06,53,297,44,1*6A
$GPGSV,3,2,09,09,24,127,33,11,19,268,23,14,25,187,16,17,75,088,48,1*61
$GPGSV,3,3,09,19,72,342,48,1*59
$GPGSV,2,1,07,03,32,045,41,04,24,092,35,06,53,297,32,09,24,127,26,6*6C
$GPGSV,2,2,07,11,19,268,17,14,25,187,10,17,75,088,40,6*5B
$GPGSV,1,1,04,01,07,072,,12,14,320,,20,08,223,,50,47,179,,0*65
$GLGSV,2,1,07,70,28,038,27,71,55,102,47,72,28,166,21,76,20,235,07,1*74
$GLGSV,2,2,07,77,26,288,27,85,24,081,35,87,26,308,32,1*49
$GLGSV,1,1,04,71,55,102,31,72,28,166,13,76,20,235,17,77,26,288,30,3*71
$GLGSV,1,1,02,78,05,339,,86,53,029,,0*7B
$GAGSV,2,1,06,01,23,310,30,03,25,065,40,08,32,124,36,13,65,344,46,2*7A
$GAGSV,2,2,06,15,35,065,37,26,25,281,28,2*77
$GAGSV,2,1,07,01,23,310,35,03,25,065,46,08,32,124,42,13,65,344,45,7*7D
$GAGSV,2,2,07,15,35,065,44,21,43,255,27,26,25,281,33,7*4E
$GAGSV,1,1,03,07,08,171,,18,29,120,,27,23,195,,0*47
$GBGSV,3,1,09,04,35,132,33,07,64,217,30,08,53,261,31,10,65,249,36,1*7C
$GBGSV,3,2,09,13,44,255,21,14,24,045,40,27,55,320,43,28,59,076,48,1*73
$GBGSV,3,3,09,33,46,065,49,1*43
$GBGSV,2,1,06,01,43,152,30,04,35,132,31,07,64,217,32,08,53,261,30,3*7A
$GBGSV,2,2,06,10,65,249,39,14,24,045,41,3*72
$GBGSV,2,1,06,02,28,236,,03,44,206,,05,08,256,,15,30,187,,0*7F
$GBGSV,2,2,06,15,30,187,,30,08,297,,0*7F
$GNRMC,044216.00,A,3726.8499558,N,12639.2412078,E,0.035,,210622,,,F,V*14
$GNVTG,,T,,M,0.035,N,0.065,K,D*3D
$GNGNS,044216.00,3726.8499558,N,12639.2412078,E,FFFF,29,0.67,15.442,17.839,2.0,4095,V*0A
$GNGGA,044216.00,3726.8499558,N,12639.2412078,E,5,12,0.67,15.442,M,17.839,M,2.0,4095*56
$GNGSA,A,3,02,19,11,06,17,03,09,04,,,,,1.19,0.67,0.98,1*0C
$GNGSA,A,3,77,71,85,70,87,,,,,,,,1.19,0.67,0.98,2*08
$GNGSA,A,3,13,15,08,03,21,26,01,,,,,,1.19,0.67,0.98,3*01
$GNGSA,A,3,14,10,01,33,07,27,04,28,08,,,,1.19,0.67,0.98,4*0C
$GPGSV,3,1,09,02,15,274,30,03,32,045,42,04,24,092,42,06,53,297,44,1*6D
$GPGSV,3,2,09,09,24,127,34,11,19,268,19,14,25,187,13,17,75,088,48,1*6A
$GPGSV,3,3,09,19,72,342,48,1*59
$GPGSV,2,1,07,03,32,045,40,04,24,092,35,06,53,297,33,09,24,127,27,6*6D
$GPGSV,2,2,07,11,19,268,18,14,25,187,09,17,75,088,40,6*5C
$GPGSV,1,1,04,01,07,072,,12,14,320,,20,08,223,,50,47,179,,0*65
$GLGSV,2,1,07,70,28,038,29,71,55,102,47,72,29,165,20,76,20,235,12,1*7D
$GLGSV,2,2,07,77,26,288,28,85,24,081,37,87,26,308,32,1*44
$GLGSV,1,1,04,71,55,102,32,72,29,165,15,76,20,235,17,77,26,288,29,3*7E
$GLGSV,1,1,02,78,05,339,,86,53,029,,0*7B
$GAGSV,2,1,06,01,23,310,30,03,25,065,40,08,32,124,36,13,65,344,46,2*7A
$GAGSV,2,2,06,15,35,065,38,26,25,281,28,2*78
$GAGSV,2,1,07,01,23,310,35,03,25,065,45,08,32,124,43,13,65,344,46,7*7C
$GAGSV,2,2,07,15,35,065,44,21,43,255,27,26,25,281,34,7*49
$GAGSV,1,1,03,07,08,171,,18,29,120,,27,23,195,,0*47
$GBGSV,3,1,09,04,35,132,33,07,64,217,29,08,53,261,30,10,65,249,36,1*75
$GBGSV,3,2,09,13,44,255,21,14,24,045,40,27,55,320,43,28,59,076,48,1*73
$GBGSV,3,3,09,33,46,065,49,1*43
$GBGSV,2,1,06,01,43,152,30,04,35,132,31,07,64,217,32,08,53,261,29,3*72
$GBGSV,2,2,06,10,65,249,39,14,24,045,43,3*70
$GBGSV,2,1,06,02,28,236,,03,44,206,,05,08,256,,15,30,187,,0*7F
$GBGSV,2,2,06,15,30,187,,30,08,297,,0*7F
$GNRMC,044217.00,A,3726.8499562,N,12639.2412209,E,0.024,,210622,,,F,V*18
$GNVTG,,T,,M,0.024,N,0.044,K,D*3E
$GNGNS,044217.00,3726.8499562,N,12639.2412209,E,FFFF,29,0.67,15.487,17.839,2.0,4095,V*0F
$GNGSA,A,3,02,19,11,06,17,03,09,04,,,,,1.19,0.67,0.98,1*0C
$GNGSA,A,3,77,71,85,70,87,,,,,,,,1.19,0.67,0.98,2*08
$GNGSA,A,3,13,15,08,03,21,26,01,,,,,,1.19,0.67,0.98,3*01
$GNGSA,A,3,14,10,01,33,07,27,04,28,08,,,,1.19,0.67,0.98,4*0C
$GPGSV,3,1,10,02,15,274,31,03,32,045,43,04,24,092,42,06,53,297,43,1*62
$GPGSV,3,2,10,09,24,127,34,11,19,268,19,12,14,320,37,14,25,187,13,1*69
$GPGSV,3,3,10,17,75,088,48,19,72,342,48,1*69
$GPGSV,2,1,06,03,32,045,40,04,24,092,35,06,53,297,33,09,24,127,27,6*6C
$GPGSV,2,2,06,11,19,268,20,17,75,088,40,6*63
$GPGSV,1,1,03,01,07,072,,20,08,223,,50,47,179,,0*55
$GLGSV,2,1,07,70,28,038,30,71,55,102,47,72,29,165,20,76,20,235,14,1*73
$GLGSV,2,2,07,77,26,288,27,85,24,081,36,87,26,308,31,1*49
$GLGSV,1,1,04,71,55,102,31,72,29,165,09,76,20,235,16,77,26,288,29,3*71
$GLGSV,1,1,02,78,05,339,,86,53,029,,0*7B
$GAGSV,2,1,06,01,23,310,30,03,25,065,40,08,32,124,37,13,65,344,46,2*7B
$GAGSV,2,2,06,15,35,065$GAGSV,2,1,07,01,23,310,35,03,25,065,45,08,32,124,42,13,65,344,46,7*7D
$GAGSV,2,2,07,15,35,065,44,21,43,255,27,26,25,281,33,7*4E
$GAGSV,1,1,03,07,08,171,,18,29,120,,27,23,195,,0*47
$GBGSV,3,1,09,04,35,132,32,07,64,217,30,08,53,261,30,10,65,249,36,1*7C
$GBGSV,3,2,09,13,44,255,21,14,24,045,40,27,55,320,42,28,59,076,48,1*72
$GBGSV,3,3,09,33,46,065,48,1*42
$GBGSV,2,1,06,01,43,152,30,04,35,132,31,07,64,217,32,08,53,261,30,3*7A
$GBGSV,2,2,06,10,65,249,39,14,24,045,43,3*70
$GBGSV,2,1,06,02,28,236,,03,44,206,,05,08,256,,15,30,187,,0*7F
$GBGSV,2,2,06,15,30,187,,30,08,297,,0*7F
$GNRMC,044218.00,A,3726.8499622,N,12639.2412337,E,0.018,,210622,,,F,V*13
$GNVTG,,T,,M,0.018,N,0.033,K,D*31
$GNGNS,044218.00,3726.8499622,N,12639.2412337,E,FFFF,29,0.67,15.523,17.839,2.0,4095,V*04
$GNGGA,044218.00,3726.8499622,N,12639.2412337,E,5,12,0.67,15.523,M,17.839,M,2.0,4095*58
$GNGSA,A,3,02,19,11,06,17,03,09,04,,,,,1.19,0.67,0.98,1*0C
$GNGSA,A,3,77,71,85,70,87,,,,,,,,1.19,0.67,0.98,2*08
$GNGSA,A,3,13,15,08,03,21,26,01,,,,,,1.19,0.67,0.98,3*01
$GNGSA,A,3,14,10,01,33,07,27,04,28,08,,,,1.19,0.67,0.98,4*0C
$GBGSV,3,2,09,13,44,255,19,14,24,045,40,27,55,320,44,28,59,076,49,1*7E
$GBGSV,3,3,09,33,46,065,48,1*42
$GBGSV,2,1,06,01,43,152,30,04,35,132,31,07,64,217,32,08,53,261,31,3*7B
$GBGSV,2,2,06,10,65,249,39,14,24,045,43,3*70
$GBGSV,2,1,06,02,28,236,,03,44,206,,05,08,256,,15,30,187,,0*7F
$GBGSV,2,2,06,15,30,187,,30,08,297,,0*7F
$GNRMC,044219.00,A,3726.8499669,N,12639.2412513,E,0.019,,210622,,,F,V*1C
$GNVTG,,T,,M,0.019,N,0.035,K,D*36
$GNGNS,044219.00,3726.8499669,N,12639.2412513,E,FFFF,29,0.65,15.542,17.839,2.0,4095,V*0F
$GNGGA,044219.00,3726.8499669,N,12639.2412513,E,5,12,0.65,15.542,M,17.839,M,2.0,4095*53
$GNGSA,A,3,02,19,11,06,17,03,09,04,,,,,1.14,0.65,0.93,1*08
$GNGSA,A,3,77,71,85,70,87,,,,,,,,1.14,0.65,0.93,2*0C
$GNGSA,A,3,13,15,08,03,21,26,01,,,,,,1.14,0.65,0.93,3*05
$GNGSA,A,3,14,10,01,33,07,27,04,28,08,,,,1.14,0.65,0.93,4*08
$GPGSV,3,1,10,02,15,274,28,03,32,045,41,04,24,092,42,06,53,297,45,1*6E
$GPGSV,3,2,10,09,24,127,33,11,19,268,23,12,14,320,38,14,25,187,13,1*68
$GPGSV,3,3,10,17,75,088,47,19,72,342,48,1*66
$GPGSV,2,1,06,03,32,045,40,04,24,092,34,06,53,297,33,09,24,127,27,6*6D
$GPGSV,2,2,06,11,19,268,21,17,75,088,40,6*62
$GPGSV,1,1,03,01,07,072,,20,08,223,,50,47,179,,0*55
$GLGSV,2,1,07,70,28,038,30,71,55,102,46,72,29,165,20,76,20,235,09,1*7E
$GLGSV,2,2,07,77,26,288,24,85,24,081,36,87,26,308,27,1*4D
$GLGSV,1,1,04,71,55,102,29,72,29,165,10,76,20,235,09,77,26,288,27,3*70
$GLGSV,1,1,02,78,05,339,,86,53,029,,0*7B
$GAGSV,2,1,06,01,23,310,27,03,25,065,41,08,32,124,38,13,65,344,46,2*73
$GAGSV,2,2,06,15,35,065,39,26,25,281,25,2*74
$GAGSV,2,1,07,01,23,310,35,03,25,065,45,08,32,124,41,13,65,344,46,7*7E
$GAGSV,2,2,07,15,35,065,45,21,43,255,27,26,25,281,30,7*4C
$GAGSV,1,1,03,07,08,171,,18,29,120,,27,23,195,,0*47
$GBGSV,3,1,09,04,35,132,33,07,64,217,30,08,53,261,29,10,65,249,36,1*75
$GBGSV,3,2,09,13,44,255,18,14,24,045,39,27,55,320,43,28,59,076,49,1*76
$GBGSV,3,3,09,33,46,065,49,1*43
$GBGSV,2,1,06,01,43,152,30,04,35,132,31,07,64,217,32,08,53,261,31,3*7B
$GBGSV,2,2,06,10,65,249,39,14,24,045,43,3*70
$GBGSV,2,1,06,02,28,236,,03,44,206,,05,08,256,,15,30,187,,0*7F
$GBGSV,2,2,06,15,30,187,,30,08,297,,0*7F
$GNRMC,044220.00,A,3726.8499725,N,12639.2412701,E,0.005,,210622,,,F,V*13
$GNVTG,,T,,M,0.005,N,0.009,K,D*34
$GNGNS,044220.00,3726.8499725,N,12639.2412701,E,FFFF,29,0.65,15.550,17.839,2.0,4095,V*0E
$GNGSA,A,3,02,19,11,06,17,03,09,04,,,,,1.14,0.65,0.93,1*08
$GNGSA,A,3,77,71,85,70,87,,,,,,,,1.14,0.65,0.93,2*0C
$GNGSA,A,3,13,15,08,03,21,26,01,,,,,,1.14,0.65,0.93,3*05
$GNGSA,A,3,14,10,01,33,07,27,04,28,08,,,,1.14,0.65,0.93,4*08
$GPGSV,3,1,10,02,15,274,27,03,32,045,42,04,24,092,42,06,53,297,45,1*62
$GPGSV,3,2,10,09,24,127,33,11,19,268,23,12,14,320,36,14,25,187,17,1*62
$GPGSV,3,3,10,17,75,088,48,19,72,342,48,1*69
$GPGSV,2,1,06,03,32,045,40,04,24,092,34,06,53,297,33,09,24,127,27,6*6D
$GPGSV,2,2,06,11,19,268,22,17,75,088,40,6*61
$GPGSV,1,1,03,01,07,072,,20,08,223,,50,47,179,,0*55
$GLGSV,2,1,07,70,28,038,29,71,55,102,46,72,29,165,20,76,19,235,10,1*74
$GLGSV,2,2,07,77,26,288,22,85,24,081,36,87,26,308,28,1*44
$GLGSV,2,1,05,71,55,102,27,72,29,165,11,76,19,235,14,77,26,288,26,3*7A
$GLGSV,2,2,05,85,24,081,35,3*4B
$GLGSV,1,1,02,78,05,339,,86,53,029,,0*7B
$GAGSV,2,1,06,01,23,310,27,03,25,065,41,08,32,124,38,13,65,344$GAGSV,2,2,06,15,35,065,39,26,25,281,25,2*74
$GAGSV,2,1,08,01,23,310,36,03,25,065,45,08,32,124,41,13,65,344,46,7*72
$GAGSV,2,2,08,15,35,065,45,18,29,120,40,21,43,255,28,26,25,281,30,7*79
$GAGSV,1,1,02,07,08,171,,27,23,195,,0*77
$GBGSV,3,1,09,04,35,132,33,07,64,217,30,08,53,261,30,10,65,249,35,1*7E
$GBGSV,3,2,09,13,44,255,17,14,24,045,39,27,55,320,43,28,59,076,49,1*79
$GBGSV,3,3,09,33,46,065,48,1*42
$GBGSV,2,1,06,01,43,152,30,04,35,132,31,07,64,217,31,08,53,261,30,3*79
$GBGSV,2,2,06,10,65,249,39,14,24,045,43,3*70
$GBGSV,2,1,06,02,28,236,,03,44,206,,05,08,256,,15,30,187,,0*7F
$GBGSV,2,2,06,15,30,187,,30,08,297,,0*7F
$GNRMC,044221.00,A,3726.8499799,N,12639.2412814,E,0.017,,210622,,,F,V*1D
$GNVTG,,T,,M,0.017,N,0.032,K,D*3F
$GNGNS,044221.00,3726.8499799,N,12639.2412814,E,FFFF,29,0.65,15.548,17.839,2.0,4095,V*0A
$GNGGA,044221.00,3726.8499799,N,12639.2412814,E,5,12,0.65,15.548,M,17.839,M,2.0,4095*56
$GNGSA,A,3,02,19,11,06,17,03,09,04,,,,,1.14,0.65,0.93,1*08
$GNGSA,A,3,77,71,85,70,87,,,,,,,,1.14,0.65,0.93,2*0C
$GNGSA,A,3,13,15,08,03,21,26,01,,,,,,1.14,0.65,0.93,3*05
$GNGSA,A,3,14,10,01,33,07,27,04,28,08,,,,1.14,0.65,0.93,4*08
$GPGSV,3,1,10,02,15,274,27,03,32,045,41,04,24,092,41,06,53,297,45,1*62
$GPGSV,3,2,10,09,24,127,33,11,19,268,25,12,14,320,36,14,25,187,15,1*66
$GPGSV,3,3,10,17,75,088,48,19,72,342,48,1*69
$GPGSV,2,1,06,03,32,045,40,04,24,092,35,06,53,297,33,09,24,127,27,6*6C
$GPGSV,2,2,06,11,19,268,22,17,75,088,40,6*61
$GPGSV,1,1,03,01,07,072,,20,08,223,,50,47,179,,0*55
$GLGSV,2,1,07,70,28,038,30,71,55,102,47,72,29,165,21,76,19,235,08,1*75
$GLGSV,2,2,07,77,26,287,22,85,24,081,36,87,26,308,30,1*42
$GLGSV,2,1,05,71,55,102,28,72,29,165,15,76,19,235,14,77,26,287,27,3*7F
$GLGSV,2,2,05,85,24,081,35,3*4B
$GLGSV,1,1,02,78,05,339,,86,53,029,,0*7B
$GAGSV,2,1,06,01,23,310,28,03,25,065,41,08,32,124,36,13,65,344,46,2*72
$GAGSV,2,2,06,15,35,065,38,26,25,281,25,2*75
$GAGSV,2,1,08,01,23,310,36,03,25,065,45,08,32,124,43,13,65,344,46,7*70
$GAGSV,2,2,08,15,35,065,45,18,29,120,39,21,43,255,28,26,25,281,31,7*76
$GAGSV,1,1,02,07,08,171,,27,23,195,,0*77
$GBGSV,3,1,09,04,35,132,33,07,64,217,31,08,53,261,29,10,65,249,35,1*77
$GBGSV,3,2,09,13,44,255,17,14,24,045,40,27,55,320,43,28,59,076,48,1*76
$GBGSV,3,3,09,33,46,065,48,1*42
$GBGSV,2,1,06,01,43,152,29,04,35,132,30,07,64,217,32,08,53,261,30,3*73
$GBGSV,2,2,06,10,65,249,39,14,24,045,45,3*76
$GBGSV,2,1,06,02,28,236,,03,44,206,,05,08,256,,15,30,187,,0*7F
$GBGSV,2,2,06,15,30,187,,30,08,297,,0*7F
$GNRMC,044222.00,A,3726.8499881,N,12639.2412891,E,0.012,,210622,,,F,V*10
$GNVTG,,T,,M,0.012,N,0.022,K,D*3B
$GNGNS,044222.00,3726.8499881,N,12639.2412891,E,FFFF,29,0.65,15.546,17.839,2.0,4095,V*0C
$GNGGA,044222.00,3726.8499881,N,12639.2412891,E,5,12,0.65,15.546,M,17.839,M,2.0,4095*50
$GNGSA,A,3,02,19,11,06,17,03,09,04,,,,,1.14,0.65,0.93,1*08
$GNGSA,A,3,77,71,85,70,87,,,,,,,,1.14,0.65,0.93,2*0C
$GNGSA,A,3,13,15,08,03,21,26,01,,,,,,1.14,0.65,0.93,3*05
$GNGSA,A,3,14,10,01,33,07,27,04,28,08,,,,1.14,0.65,0.93,4*08
$GPGSV,3,1,10,02,15,274,27,03,32,045,42,04,24,092,42,06,53,297,44,1*63
$GPGSV,3,2,10,09,24,127,32,11,19,268,25,12,14,320,34,14,25,187,16,1*66
$GPGSV,3,3,10,17,75,088,48,19,72,342,48,1*69
$GPGSV,2,1,06,03,32,045,40,04,24,092,36,06,53,297,32,09,24,127,26,6*6F
$GPGSV,2,2,06,11,19,268,22,17,75,088,40,6*61
$GPGSV,1,1,03,01,07,072,,20,08,223,,50,47,179,,0*55
$GLGSV,2,1,07,70,28,038,29,71,55,102,46,72,29,165,20,76,19,235,08,1*7D
$GLGSV,2,2,07,77,26,287,22,85,24,081,36,87,26,308,29,1*4A
$GLGSV,2,1,05,71,55,102,33,72,29,165,12,76,19,235,15,77,26,287,27,3*73
$GLGSV,2,2,05,85,24,081,31,3*4F
$GLGSV,1,1,02,78,05,338,,86,53,029,,0*7A
$GAGSV,2,1,06,01,23,310,28,03,25,065,39,08,32,124,36,13,65,344,46,2*7D
$GAGSV,2,2,06,15,35,065,37,26,25,281,25,2*7A
$GAGSV,2,1,08,01,23,310,36,03,25,065,46,08,32,124,42,13,65,344,46,7*72
$GAGSV,2,2,08,15,35,065,45,18,29,120,40,21,43,255,27,26,25,281,31,7*77
$GAGSV,1,1,02,07,08,171,,27,23,195,,0*77
$GBGSV,3,1,09,04,35,132,34,07,64,217,30,08,53,261,30,10,65,249,35,1*79
$GBGSV,3,2,09,13,44,255,18,14,24,045,37,27,55,320,43,28,59,076,48,1*79
$GBGSV,3,3,09,33,46,065,49,1*43
$GBGSV,2,1,06,01,43,152,29,04,35,132,31,07,64,217,32,08,53,261,30,3*72
$GBGSV,2,2,06,10,65,249,39,14,24,045,44,3*77
$GBGSV,2,1,06,02,28,236,,03,44,206,,05,08,256,,15,30,187,,0*7F
$GBGSV,2,2,06,15,30,187,,30,08,297,,0*7F
$GNRMC,044223.00,A,3726.8499856,N,12639.2412981,E,0.011,,210622,,,F,V*18
$GNVTG,,T,,M,0.011,N,0.020,K,D*3A
$GNGNS,044223.00,3726.8499856,N,12639.2412981,E,FFFF,29,0.65,15.562,17.839,1.0,4095,V*02
$GNGGA,044223.00,3726.8499856,N,12639.2412981,E,5,12,0.65,15.562,M,17.839,M,1.0,4095*5E
$GNGSA,A,3,02,19,11,06,17,03,09,04,,,,,1.14,0.65,0.93,1*08
$GNGSA,A,3,77,71,85,70,87,,,,,,,,1.14,0.65,0.93,2*0C
$GNGSA,A,3,13,15,08,03,21,26,01,,,,,,1.14,0.65,0.93,3*05
$GNGSA,A,3,14,10,01,33,07,27,04,28,08,,,,1.14,0.65,0.93,4*08
$GPGSV,3,1,10,02,15,274,28,03,32,045,40,04,24,092,41,06,53,297,44,1*6D
$GPGSV,3,2,10,09,24,127,31,11,19,268,26,12,14,320,33,14,25,187,16,1*61
$GPGSV,3,3,10,17,75,088,47,19,72,342,48,1*66
$GPGSV,2,1,06,03,32,045,40,04,24,092,33,06,53,297,31,09,24,127,26,6*69
$GPGSV,1,1,03,01,07,072,,20,08,223,,50,47,179,,0*55
$GLGSV,2,1,07,70,28,038,30,71,55,102,45,72,29,165,23,76,19,235,08,1*75
$GLGSV,2,2,07,77,26,287,22,85,24,081,36,87,26,308,28,1*4B
$GLGSV,2,1,05,71,55,102,31,72,29,165,11,76,19,235,17,77,26,287,28,3*7F
$GLGSV,2,2,05,85,24,081,34,3*4A
$GLGSV,1,1,02,78,05,338,,86,53,029,,0*7A
$GAGSV,2,1,06,01,23,310,30,03,25,065,39,08,32,124,36,13,65,344,46,2*74
$GAGSV,2,2,06,15,35,065,38,26,25,281,27,2*77
$GAGSV,2,1,08,01,23,310,35,03,25,065,45,08,32,124,41,13,65,344,46,7*71
$GAGSV,2,2,08,15,35,065,44,18,29,120,40,21,43,255,26,26,25,281,32,7*74
$GAGSV,1,1,02,07,08,171,,27,23,195,,0*77
$GBGSV,3,1,09,04,35,132,33,07,64,217,31,08,53,261,29,10,65,249,36,1*74
$GBGSV,3,2,09,13,44,255,18,14,24,045,39,27,55,320,44,28,59,076,49,1*71
$GBGSV,3,3,09,33,46,065,48,1*42
$GBGSV,2,1,06,01,43,152,28,04,35,132,31,07,64,217,31,08,53,261,30,3*70
$GBGSV,2,2,06,10,65,249,38,14,24,045,42,3*70
$GBGSV,2,1,06,02,28,236,,03,44,206,,05,08,256,,1$GBGSV,2,2,06,15,30,187,,30,08,297,,0*7F
$GNGSA,A,3,77,71,85,70,87,,,,,,,,1.14,0.65,0.93,2*0C
$GNGSA,A,3,13,15,08,03,21,26,01,,,,,,1.14,0.65,0.93,3*05
$GNGSA,A,3,14,10,01,33,07,27,04,28,08,,,,1.14,0.65,0.93,4*08
$GPGSV,3,1,10,02,15,274,28,03,32,045,40,04,24,092,42,06,53,297,44,1*6E
$GPGSV,3,2,10,09,24,127,30,11,19,268,25,12,14,320,35,14,25,187,18,1*6B
$GPGSV,3,3,10,17,75,088,47,19,72,342,48,1*66
$GPGSV,2,2,06,11,19,268,23,17,75,088,39,6*6E
$GPGSV,1,1,03,01,07,072,,20,08,223,,50,47,179,,0*55
$GNRMC,044225.00,A,3726.8499997,N,12639.2413130,E,0.007,,210622,,,F,V*16
$GNVTG,,T,,M,0.007,N,0.013,K,D*3D
$GNGNS,044225.00,3726.8499997,N,12639.2413130,E,FFFF,29,0.65,15.577,17.839,2.0,4095,V*0C
$GNGGA,044225.00,3726.8499997,N,12639.2413130,E,5,12,0.65,15.577,M,17.839,M,2.0,4095*50
$GNGSA,A,3,02,19,11,06,17,03,09,04,,,,,1.14,0.65,0.93,1*08
$GNGSA,A,3,77,71,85,70,87,,,,,,,,1.14,0.65,0.93,2*0C
$GNGSA,A,3,13,15,08,03,21,26,01,,,,,,1.14,0.65,0.93,3*05
$GNGSA,A,3,14,10,01,33,07,27,04,28,08,,,,1.14,0.65,0.93,4*08
$GPGSV,3,1,10,02,15,274,28,03,32,045,42,04,24,092,42,06,53,297,44,1*6C
$GPGSV,3,2,10,09,24,127,31,11,19,268,26,12,14,320,35,14,25,187,18,1*69
$GPGSV,3,3,10,17,75,088,47,19,72,342,48,1*66
$GPGSV,2,1,06,03,32,045,41,04,24,092,34,06,53,297,31,09,24,127,26,6*6F
$GPGSV,1,1,03,01,07,072,,20,08,223,,50,47,179,,0*55
$GLGSV,2,1,07,70,28,038,31,71,55,102,46,72,29,165,23,76,19,235,08,1*77
$GLGSV,2,2,07,77,26,287,21,85,24,081,35,87,26,308,29,1*4A
$GLGSV,2,1,05,71,55,102,30,72,29,165,15,76,19,235,18,77,26,287,27,3*7A
$GLGSV,2,2,05,85,24,081,35,3*4B
$GLGSV,1,1,02,78,05,338,,86,53,029,,0*7A
$GAGSV,2,1,06,01,23,310,30,03,25,065,39,08,32,124,37,13,65,344,46,2*75
$GAGSV,2,2,06,15,35,065,37,26,25,281,28,2*77
$GAGSV,2,1,08,01,23,310,34,03,25,065,45,08,32,124,42,13,65,344,46,7*73
$GAGSV,2,2,08,15,35,065,44,18,29,120,39,21,43,255,25,26,25,281,31,7*7A
$GAGSV,1,1,02,07,08,171,,27,23,195,,0*77
$GBGSV,3,1,09,04,35,132,33,07,64,217,31,08,53,261,29,10,65,249,36,1*74
$GBGSV,3,2,09,13,44,255,17,14,24,045,39,27,55,320,42,28,59,076,49,1*78
$GBGSV,3,3,09,33,46,065,48,1*42
$GBGSV,2,1,07,01,43,152,29,04,35,132,31,07,64,217,32,08,53,261,30,3*73
$GBGSV,2,2,07,10,65,249,38,13,44,255,20,14,24,045,41,3*40
$GBGSV,2,1,06,02,28,236,,03,44,206,$GBGSV,2,2,06,15,30,187,,30,08,297,,0*7F
$GNRMC,044226.00,A,3726.8500060,N,12639.2413217,E,0.011,,210622,,,F,V*14
$GNVTG,,T,,M,0.011,N,0.020,K,D*3A
$GNGNS,044226.00,3726.8500060,N,12639.2413217,E,FFFF,29,0.65,15.574,17.839,2.0,4095,V*0A
$GNGSA,A,3,02,19,11,06,17,03,09,04,,,,,1.14,0.65,0.93,1*08
$GNGSA,A,3,77,71,85,70,87,,,,,,,,1.14,0.65,0.93,2*0C
$GNGSA,A,3,13,15,08,03,21,26,01,,,,,,1.14,0.65,0.93,3*05
$GNGSA,A,3,14,10,01,33,07,27,04,28,08,,,,1.14,0.65,0.93,4*08
$GPGSV,3,1,10,02,15,274,28,03,32,045,37,04,24,092,41,06,53,297,43,1*6A
$GPGSV,3,2,10,09,24,127,31,11,19,268,26,12,14,320,34,14,25,187,18,1*68
$GPGSV,3,3,10,17,75,088,47,19,72,342,49,1*67
$GPGSV,2,1,06,03,32,045,40,04,24,092,33,06,53,297,31,09,24,127,27,6*68
$GPGSV,2,2,06,11,19,268,26,17,75,088,40,6*65
$GPGSV,1,1,03,01,07,072,,20,08,223,,50,47,179,,0*55
$GLGSV,2,1,07,70,28,038,30,71,55,102,46,72,29,165,24,76,19,235,08,1*71
$GLGSV,2,2,07,77,26,287,20,85,24,081,31,87,26,308,29,1*4F
$GLGSV,2,1,05,71,55,102,31,72,29,165,11,76,19,235,16,77,26,287,27,3*71
$GLGSV,2,2,05,85,24,081,35,3*4B
$GLGSV,1,1,02,78,05,338,,86,53,029,,0*7A
$GAGSV,2,1,06,01,23,310,30,03,25,065,39,08,32,124,40,13,65,344$GAGSV,2,2,06,15,35,065,38,26,25,281,28,2*78
$GAGSV,2,1,08,01,23,310,33,03,25,065,46,08,32,124,42,13,65,344,46,7*77
$GAGSV,2,2,08,15,35,065,43,18,29,120,39,21,43,255,26,26,25,281,31,7*7E
$GAGSV,1,1,02,07,08,171,,27,23,195,,0*77
$GBGSV,3,1,09,04,35,132,34,07,64,217,30,08,53,261,29,10,65,249,36,1*72
$GBGSV,3,2,09,13,44,255,16,14,24,045,39,27,55,320,41,28,59,076,49,1*7A
$GBGSV,3,3,09,33,46,065,48,1*42
$GBGSV,2,1,06,01,43,152,30,04,35,132,32,07,64,217,32,08,53,261,29,3*71
$GBGSV,2,2,06,10,65,249,38,14,24,045,43,3*71
$GBGSV,2,1,06,02,28,236,,03,44,206,,05,08,256,,15,30,187,,0*7F
$GBGSV,2,2,06,15,30,187,,30,08,297,,0*7F
$GNRMC,044227.00,A,3726.8500150,N,12639.2413269,E,0.015,,210622,,,F,V*1A
$GNVTG,,T,,M,0.015,N,0.028,K,D*36
$GNGNS,044227.00,3726.8500150,N,12639.2413269,E,FFFF,29,0.65,15.574,17.839,2.0,4095,V*00
$GNGGA,044227.00,3726.8500150,N,12639.2413269,E,5,12,0.65,15.574,M,17.839,M,2.0,4095*5C
$GNGSA,A,3,02,19,11,06,17,03,09,04,,,,,1.14,0.65,0.93,1*08
$GNGSA,A,3,77,71,85,70,87,,,,,,,,1.14,0.65,0.93,2*0C
$GNGSA,A,3,13,15,08,03,21,26,01,,,,,,1.14,0.65,0.93,3*05
$GNGSA,A,3,14,10,01,33,07,27,04,28,08,,,,1.14,0.65,0.93,4*08
$GPGSV,3,1,10,02,15,274,28,03,32,045,40,04,24,092,42,06,53,297,44,1*6E
$GPGSV,3,2,10,09,24,127,31,11,19,268,25,12,14,320,34,14,25,187,17,1*64
$GPGSV,3,3,10,17,75,088,48,19,72,342,48,1*69
$GPGSV,2,2,06,11,19,268,26,17,75,088,40,6*65
$GPGSV,1,1,03,01,07,072,,20,08,223,,50,47,179,,0*55
$GLGSV,2,1,07,70,28,038,30,71,55,102,46,72,29,165,26,76,19,235,08,1*73
$GLGSV,2,2,07,77,26,287,21,85,24,081,35,87,26,308,30,1*42
$GLGSV,2,1,05,71,55,102,32,72,29,165,10,76,19,235,15,77,26,287,27,3*70
$GLGSV,2,2,05,85,24,081,31,3*4F
$GLGSV,1,1,02,78,05,338,,86,53,029,,0*7A
$GAGSV,2,1,06,01,23,310,28,03,25,065,39,08,32,124,38,13,65,344,46,2*73
$GAGSV,2,2,06,15,35,065,35,26,25,281,27,2*7A
$GAGSV,2,1,08,01,23,310,34,03,25,065,46,08,32,124,41,13,65,344,47,7*72
$GAGSV,2,2,08,15,35,065,46,18,29,120,39,21,43,255,26,26,25,281,32,7*78
$GAGSV,1,1,02,07,08,171,,27,23,195,,0*77
$GBGSV,3,1,09,04,35,132,34,07,64,217,30,08,53,261,30,10,65,249,36,1*7A
$GBGSV,3,2,09,13,44,255,17,14,24,045,40,27,55,320,42,28,59,076,48,1*77
$GBGSV,3,3,09,33,46,065,48,1*42
$GBGSV,2,1,07,01,43,152,30,04,35,132,31,07,64,217,32,08,53,261,29,3*73
$GBGSV,2,2,07,10,65,24$GBGSV,2,1,06,02,28,236,,03,44,206,,05,08,256,,15,30,187,,0*7F
$GBGSV,2,2,06,15,30,187,,30,08,297,,0*7F
$GNRMC,044228.00,A,3726.8500106,N,12639.2413375,E,0.016,,210622,,,F,V*19
$GNVTG,,T,,M,0.016,N,0.030,K,D*3C
$GNGNS,044228.00,3726.8500106,N,12639.2413375,E,FFFF,29,0.67,15.576,17.839,2.0,4095,V*00
$GNGGA,044228.00,3726.8500106,N,12639.2413375,E,5,12,0.67,15.576,M,17.839,M,2.0,4095*5C
$GNGSA,A,3,02,19,14,06,17,03,09,04,,,,,1.19,0.67,0.99,1*08
$GNGSA,A,3,77,71,85,70,87,,,,,,,,1.19,0.67,0.99,2*09
$GNGSA,A,3,13,15,08,03,21,26,01,,,,,,1.19,0.67,0.99,3*00
$GNGSA,A,3,14,10,01,33,07,27,04,28,08,,,,1.19,0.67,0.99,4*0D
$GPGSV,3,1,10,02,15,274,27,03,32,045,39,04,24,092,42,06,53,297,44,1*6F
$GPGSV,3,2,10,09,24,127,32,11,19,268,22,12,14,320,36,14,25,187,17,1*62
$GPGSV,3,3,10,17,75,088,47,19,72,342,48,1*66
$GPGSV,2,1,06,03,32,045,40,04,24,092,35,06,53,297,34,09,24,127,26,6*6A
$GPGSV,2,2,06,11,19,268,24,17,75,088,39,6*69
$GPGSV,1,1,03,01,07,072,,20,08,223,,50,47,179,,0*55
$GLGSV,2,1,06,70,28,038,29,71,55,102,46,72,29,165,27,77,26,287,23,1*76
$GLGSV,2,2,06,85,24,081,35,87,26,308,30,1*79
$GLGSV,2,1,05,71,55,102,30,72,29,165,12,76,19,235,14,77,26,287,27,3*71
$GLGSV,2,2,05,85,24,081,34,3*4A
$GLGSV,1,1,02,78,05,338,,86,53,029,,0*7A
$GAGSV,2,1,06,01,23,310,29,03,25,065,41,08,32,124,38,13,65,344,45,2*7E
$GAGSV,2,2,06,15,35,065,39,26,25,281,27,2*76
$GAGSV,2,1,08,01,23,310,34,03,25,065,45,08,32,124,43,13,65,344,46,7*72
$GAGSV,2,2,08,15,35,065,45,18,29,120,39,21,43,255,26,26,25,281,31,7*78
$GAGSV,1,1,02,07,08,171,,27,23,195,,0*77
$GBGSV,3,1,09,04,35,132,33,07,64,217,30,08,53,261,30,10,65,249,36,1*7D
$GBGSV,3,2,09,13,44,255,19,14,24,045,40,27,55,320,44,28,59,076,48,1*7F
$GBGSV,3,3,09,33,46,065,49,1*43
$GBGSV,2,1,07,01,43,152,30,04,35,132,30,07,64,217,32,08,53,261,30,3*7A
$GBGSV,2,2,07,10,65,249,39,13,44,255,20,14,24,045,44,3*44
$GBGSV,2,1,06,02,28,236,,03,44,206,,05,08,256,,15,30,187,,0*7F
$GBGSV,2,2,06,15,30,187,,30,08,297,,0*7F
$GNRMC,044229.00,A,3726.8500029,N,12639.2413464,E,0.022,,210622,,,F,V*14
$GNVTG,,T,,M,0.022,N,0.040,K,D*3C
$GNGGA,044229.00,3726.8500029,N,12639.2413464,E,5,12,0.61,15.575,M,17.839,M,2.0,4095*53
$GNGSA,A,3,02,19,06,17,03,09,04,,,,,,1.15,0.61,0.97,1*09
$GNGSA,A,3,77,71,85,70,72,87,,,,,,,1.15,0.61,0.97,2*08
$GNGSA,A,3,13,15,08,03,21,26,01,,,,,,1.15,0.61,0.97,3*04
$GNGSA,A,3,14,10,01,33,07,27,04,28,08,,,,1.15,0.61,0.97,4*09
$GPGSV,3,1,10,02,15,274,25,03,32,045,42,04,24,092,42,06,53,297,44,1*61
$GPGSV,3,2,10,09,24,127,31,11,19,268,18,12,14,320,36,14,25,187,17,1*68
$GPGSV,3,3,10,17,75,088,47,19,72,342,48,1*66
$GPGSV,2,1,06,03,32,045,41,04,24,092,34,06,53,297,33,09,24,127,25,6*6E
$GPGSV,2,2,06,11,19,268,22,17,75,088,39,6*6F
$GPGSV,1,1,03,01,07,072,,20,08,223,,50,47,179,,0*55
$GLGSV,2,1,06,70,28,038,29,71,55,102,46,72,29,165,28,77,26,287,23,1*79
$GLGSV,2,2,06,85,23,082,35,87,26,308,28,1*74
$GLGSV,2,1,05,71,55,102,29,72,29,165,12,76,19,235,15,77,26,287,28,3*77
$GLGSV,2,2,05,85,23,082,33,3*49
$GLGSV,1,1,02,78,05,338,,86$GAGSV,2,1,06,01,23,310,30,03,25,065,40,08,32,124,35,13,65,344,44,2*7B
$GAGSV,2,2,06,15,35,065,35,26,25,281,27,2*7A
$GAGSV,2,1,08,01,23,310,34,03,25,065,45,08,32,124,43,13,65,344,46,7*72
$GAGSV,2,2,08,15,35,065,45,18,29,120,39,21,43,255,26,26,25,281,30,7*79
$GAGSV,1,1,02,07,08,171,,27,23,195,,0*77
$GBGSV,3,1,09,04,35,132,33,07,64,217,32,08,53,261,31,10,65,249,36,1*7E
$GBGSV,3,2,09,13,44,255,20,14,24,045,41,27,55,320,44,28,59,076,48,1*74
$GBGSV,3,3,09,33,46,065,49,1*43
$GBGSV,2,1,07,01,43,152,29,04,35,132,30,07,64,217,31,08,53,261,30,3*71
$GBGSV,2,2,07,10,65,249,38,13,44,255,20,14,24,045,41,3*40
$GBGSV,2,1,06,02,28,236,,03,44,206,,05,08,256,,15,30,187,,0*7F
$GBGSV,2,2,06,15,30,187,,30,08,297,,0*7F
$GNRMC,044230.00,A,3726.8500096,N,12639.2413568,E,0.018,,210622,,,F,V*1C
$GNVTG,,T,,M,0.018,N,0.033,K,D*31
$GNGNS,044230.00,3726.8500096,N,12639.2413568,E,FFFF,29,0.64,15.561,17.839,2.0,4095,V*0E
$GNGGA,044230.00,3726.8500096,N,12639.2413568,E,5,12,0.64,15.561,M,17.839,M,2.0,4095*52
$GNGSA,A,3,14,19,06,17,03,09,04,,,,,,1.27,0.64,1.09,1*0C
$GNGSA,A,3,77,71,85,70,72,87,,,,,,,1.27,0.64,1.09,2*0A
$GNGSA,A,3,13,15,08,03,21,26,01,,,,,,1.27,0.64,1.09,3*06
$GPGSV,3,1,10,02,15,274,25,03,32,045,42,04,24,092,41,06,53,297,43,1*65
$GPGSV,3,2,10,09,24,127,31,11,19,268,19,12,14,320,36,14,25,187,18,1*66
$GPGSV,3,3,10,17,75,088,47,19,72,342,48,1*66
$GPGSV,2,1,06,03,32,045,41,04,24,092,34,06,53,297,32,09,24,127,27,6*6D
$GPGSV,2,2,06,11,19,268,23,17,75,088,39,6*6E
$GPGSV,1,1,03,01,07,072,,20,08,223,,50,47,179,,0*55
$GLGSV,2,1,06,70,28,038,30,71,55,102,46,72,29,165,29,77,26,287,22,1*71
$GLGSV,2,2,06,85,23,082,36,87,26,308,29,1*76
$GLGSV,2,1,05,71,55,102,28,72,29,165,13,76,19,235,14,77,26,287,27,3*79
$GLGSV,2,2,05,85,23,082,32,3*48
$GLGSV,1,1,02,78,05,338,,86,53,030,,0*72
$GAGSV,2,1,07,01,23,310,31,03,25,065,41,08,32,124,38,13,65,344,45,2*76
$GAGSV,2,2,07,15,35,065,36,26,25,281,27,27,23,195,19,2*49
$GAGSV,2,1,08,01,23,310,34,03,25,065,45,08,32,124,43,13,65,344,46,7*72
$GAGSV,2,2,08,15,35,065,45,18,29,120,39,21,43,255,27,26,25,281,30,7*78
$GAGSV,1,1,01,07,08,171,,0*4D
$GBGSV,3,1,09,04,35,132,33,07,$GNRMC,044231.00,A,3726.8500054,N,12639.2413721,E,0.013,,210622,,,F,V*17
$GNVTG,,T,,M,0.013,N,0.024,K,D*3C
$GNGNS,044231.00,3726.8500054,N,12639.2413721,E,FFFF,29,0.62,15.562,17.839,2.0,4095,V*0B
$GNGGA,044231.00,3726.8500054,N,12639.2413721,E,5,12,0.62,15.562,M,17.839,M,2.0,4095*57
$GNGSA,A,3,11,19,06,17,03,09,04,,,,,,1.17,0.62,1.00,1*05
$GNGSA,A,3,77,71,85,70,72,87,,,,,,,1.17,0.62,1.00,2*06
$GNGSA,A,3,13,15,08,03,21,26,01,,,,,,1.17,0.62,1.00,3*0A
$GNGSA,A,3,14,10,01,33,07,27,04,28,08,,,,1.17,0.62,1.00,4*07
$GPGSV,3,1,10,02,15,274,27,03,32,045,40,04,24,092,42,06,53,297,44,1*61
$GPGSV,3,2,10,09,24,127,31,11,19,268,24,12,14,320,35,14,25,187,18,1*6B
$GPGSV,3,3,10,17,75,088,47,19,72,342,48,1*66
$GPGSV,2,1,06,03,32,045,41,04,24,092,35,06,53,297,31,09,24,127,26,6*6E
$GPGSV,2,2,06,11,19,268,24,17,75,088,41,6*66
$GPGSV,1,1,03,01,07,072,,20,08,223,,50,47,179,,0*55
$GLGSV,2,1,06,70,28,038,30,71,55,102,46,72,29,165,28,77,26,287,22,1*70
$GLGSV,2,2,06,85,23,082,39,87,27,309,29,1*79
$GLGSV,2,1,05,71,55,102,28,72,29,165,09,76,19,235,13,77,26,287,27,3*75
$GLGSV,2,2,05,85,23,082,30,3*4A
$GLGSV,1,1,02,78,05,338,,86,53,030,,0*72
$GAGSV,2,1,06,01,23,310,31,03,25,065,40,08,32,124,38,13,65,344,46,2*75
$GAGSV,2,2,06,15,35,065,38,26,25,281,28,2*78
$GAGSV,2,1,08,01,23,310,34,03,25,065,45,08,32,124,43,13,65,344,46,7*72
$GAGSV,2,2,08,15,35,065,45,18,29,120,39,21,43,255,26,26,25,281,31,7*78
$GAGSV,1,1,02,07,08,171,,27,23,195,,0*77
$GBGSV,3,1,09,04,35,132,33,07,64,217,31,08,53,261,30,10,65,249,36,1*7C
$GBGSV,3,2,09,13,44,255,21,14,24,045,39,27,55,320,43,28,59,076,48,1*7D
$GBGSV,3,3,09,33,46,065,48,1*42
$GBGSV,2,1,07,01,43,152,29,04,35,132,31,07,64,217,31,08,53,261,31,3*71
$GBGSV,2,2,07,10,65,249,39,13,44,255,20,14,24,045,44,3*44
$GBGSV,2,1,06,02,28,236,,03,44,206,,05,08,256,,15,30,187,,0*7F
$GBGSV,2,2,06,15,30,187,,30,08,297,,0*7F
$GNRMC,044232.00,A,3726.8500061,N,12639.2413896,E,0.017,,210622,,,F,V*15
$GNVTG,,T,,M,0.017,N,0.031,K,D*3C
$GNGNS,044232.00,3726.8500061,N,12639.2413896,E,FFFF,29,0.67,15.554,17.839,2.0,4095,V*0D
$GNGGA,044232.00,3726.8500061,N,12639.2413896,E,5,12,0.67,15.554,M,17.839,M,2.0,4095*51
$GNGSA,A,3,02,19,14,06,17,03,09,04,,,,,1.19,0.67,0.99,1*08
$GNGSA,A,3,77,71,85,70,87,,,,,,,,1.19,0.67,0.99,2*09
$GNGSA,A,3,13,15,08,03,21,26,01,,,,,,1.19,0.67,0.99,3*00
$GNGSA,A,3,14,10,01,33,07,27,04,28,08,,,,1.19,0.67,0.99,4*0D
$GPGSV,3,1,10,02,15,274,27,03,32,045,39,04,24,092,42,06,53,297,44,1*6F
$GPGSV,3,2,10,09,24,127,32,11,19,268,22,12,14,320,35,14,25,187,16,1*60
$GPGSV,3,3,10,17,75,088,47,19,72,342,48,1*66
$GPGSV,2,1,06,03,32,045,42,04,24,092,36,06,53,297,31,09,24,127,25,6*6D
$GPGSV,2,2,06,11,19,268,24,17,75,088,41,6*66
$GPGSV,1,1,03,01,07,072,,20,08,223,,50,47,179,,0*55
$GLGSV,2,1,06,70,28,038,30,71,55,102,46,72,29,165,27,77,26,287,21,1*7C
$GLGSV,2,2,06,85,23,082,37,87,27,309,28,1*76
$GLGSV,2,1,05,71,55,102,27,72,29,165,14,76,19,235,12,77,26,287,27,3*77
$GLGSV,2,2,05,85,23,082,30,3*4A
$GLGSV,1,1,02,78,05,338,,86,53,030,,0*72
$GAGSV,2,1,06,01,23,310,31,03,25,065,38,08,32,124,38,13,65,344,46,2*7A
$GAGSV,2,2,06,15,35,065,39,26,25,281,29,2*78
$GAGSV,2,1,08,01,23,310,33,03,25,065,46,08,32,124,42,13,65,344,46,7*77
$GAGSV,2,2,08,15,35,065,44,18,29,120,39,21,43,255,25,26,25,281,31,7*7A
$GAGSV,1,1,02,07,08,171,,27,23,195,,0*77
$GBGSV,3,1,09,04,35,132,34,07,64,217,31,08,53,261,30,10,65,249,36,1*7B
$GBGSV,3,2,09,13,44,255,21,14,24,045,39,27,55,320,44,28,59,076,48,1*7A
$GBGSV,3,3,09,33,46,065,47,1*4D
$GBGSV,2,1,07,01,43,152,29,04,35,132,31,07,64,217,31,08,53,261,31,3*71
$GBGSV,2,2,07,10,65,249,39,13,44,255,20,14,24,045,44,3*44
$GBGSV,2,1,06,02,28,236,,03,44,206,,05,08,256,,15,30,187,,0*7F
$GBGSV,2,2,06,15,30,187,,30,08,297,,0*7F
$GNRMC,044233.00,A,3726.8499955,N,12639.2414029,E,0.025,,210622,,,F,V*11
$GNVTG,,T,,M,0.025,N,0.047,K,D*3C
$GNGNS,044233.00,3726.8499955,N,12639.2414029,E,FFFF,29,0.67,15.561,17.839,1.0,4095,V*0D
$GNGGA,044233.00,3726.8499955,N,12639.2414029,E,5,12,0.67,15.561,M,17.839,M,1.0,4095*51
$GNGSA,A,3,02,19,14,06,17,03,09,04,,,,,1.19,0.67,0.99,1*08
$GNGSA,A,3,77,71,85,70,87,,,,,,,,1.19,0.67,0.99,2*09
$GNGSA,A,3,13,15,08,03,21,26,01,,,,,,1.19,0.67,0.99,3*00
$GNGSA,A,3,14,10,01,33,07,27,04,28,08,,,,1.19,0.67,0.99,4*0D
$GPGSV,3,1,10,02,15,274,26,03,32,045,37,04,24,092,42,06,53,297,44,1*60
$GPGSV,3,2,10,09,24,127,32,11,19,268,20,12,14,320,38,14,25,187,18,1*61
$GPGSV,3,3,10,17,75,088,47,19,72,342,48,1*66
$GPGSV,2,1,06,03,32,045,41,04,24,092,36,06,53,297,31,09,24,127,24,6*6F
$GPGSV,2,2,06,11,19,268,23,17,75,088,41,6*61
$GPGSV,1,1,03,01,07,072,,20,08,223,,50,47,179,,0*55
$GLGSV,2,1,06,70,28,038,30,71,55,102,46,72,29,165,26,77,26,287,22,1*7E
$GLGSV,2,2,06,85,23,082,37,87,27,309,28,1*76
$GLGSV,2,1,05,71,55,102,32,72,29,165,11,76,19,235,11,77,26,287,27,3*75
$GLGSV,2,2,05,85,23,082,30,3*4A
$GLGSV,1,1,02,78,05,338,,86,53,030,,0*72
$GAGSV,2,1,06,01,23,310,31,03,25,065,39,08,32,124,38,13,65,344,46,2*7B
$GAGSV,2,2,06,15,35,065,39,26,25,281,29,2*78
$GAGSV,2,1,08,01,23,310,33,03,25,065,47,08,32,124,42,13,65,344,46,7*76
$GAGSV,2,2,08,15,35,065,44,18,29,120,39,21,43,255,26,26,25,281,30,7*78
$GAGSV,1,1,02,07,08,171,,27,23,195,,0*77
$GBGSV,3,1,09,04,35,132,33,07,64,217,31,08,53,261,31,10,65,249,36,1*7D
$GBGSV,3,2,09,13,44,255,22,14,24,045,39,27,55,320,44,28,59,076,49,1*78
$GBGSV,3,3,09,33,46,065,48,1*42
$GBGSV,2,1,07,01,43,152,30,04,35,132,31,07,64,217,32,08,53,261,31,3*7A
$GBGSV,2,2,07,10,65,249,39,13,44,255,19,14,24,045,42,3*48
$GBGSV,2,1,06,02,28,236,,03,44,206,,05,08,256,,15,30,187,,0*7F
$GBGSV,2,2,06,15,30,187,,30,08,297,,0*7F
$GNRMC,044234.00,A,3726.8499962,N,12639.2414182,E,0.024,,210622,,,F,V*13
$GNVTG,,T,,M,0.024,N,0.044,K,D*3E
$GNGNS,044234.00,3726.8499962,N,12639.2414182,E,FFFF,28,0.69,15.573,17.839,2.0,4095,V*01
$GNGGA,044234.00,3726.8499962,N,12639.2414182,E,5,12,0.69,15.573,M,17.839,M,2.0,4095*5C
$GNGSA,A,3,19,14,06,17,03,09,04,,,,,,1.31,0.69,1.12,1*0C
$GNGSA,A,3,77,71,85,70,87,,,,,,,,1.31,0.69,1.12,2*0F
$GNGSA,A,3,13,15,08,03,21,26,01,,,,,,1.31,0.69,1.12,3*06
$GNGSA,A,3,14,10,01,33,07,27,04,28,08,,,,1.31,0.69,1.12,4*0B
$GPGSV,3,1,10,02,15,274,24,03,32,045,39,04,24,092,41,06,53,297,44,1*6F
$GPGSV,3,2,10,09,24,127,31,11,19,268,19,12,14,320,37,14,25,187,20,1*6C
$GPGSV,3,3,10,17,75,088,47,19,72,342,48,1*66
$GPGSV,2,1,06,03,32,045,42,04,24,092,36,06,53,297,33,09,24,127,24,6*6E
$GPGSV,2,2,06,11,19,268,25,17,75,088,40,6*66
$GPGSV,1,1,03,01,07,072,,20,08,223,,50,47,179,,0*55
$GLGSV,2,1,06,70,28,038,29,71,55,102,46,72,29,165,26,77,26,287,23,1*77
$GLGSV,2,2,06,85,23,082,34,87,27,309,28,1*75
$GLGSV,2,1,05,71,55,102,31,72,29,165,13,76,19,235,11,77,26,287,27,3*74
$GLGSV,2,2,05,85,23,082,32,3*48
$GLGSV,1,1,02,78,05,338,,86,53,030,,0*72
$GAGSV,2,1,06,01,23,310,30,03,25,065,38,08,32,124,39,13,65,344,45,2*79
$GAGSV,2,2,06,15,35,065,38,26,25,281,29,2*79
$GAGSV,2,1,08,01,23,310,33,03,25,065,46,08,32,124,42,13,65,344,46,7*77
$GAGSV,2,2,08,15,35,065,45,18,29,120,39,21,43,255,25,26,25,281,31,7*7B
$GAGSV,1,1,02,07,08,171,,27,23,195,,0*77
$GBGSV,3,1,09,04,35,132,34,07,64,217,31,08,53,261,29,10,65,249,36,1*73
$GBGSV,3,2,09,13,44,255,21,14,24,045,40,27,55,320,44,28,59,076,49,1*75
$GBGSV,3,3,09,33,46,065,49,1*43
$GBGSV,2,1,07,01,43,152,30,04,35,132,30,07,64,217,31,08,53,261,31,3*78
$GBGSV,2,2,07,10,65,249,39,13,44,255,20,14,24,045,43,3*43
$GNRMC,044235.00,A,3726.8499933,N,12639.2414234,E,0.037,,210622,,,F,V*1A
$GNVTG,,T,,M,0.037,N,0.068,K,D*32
$GNGNS,044235.00,3726.8499933,N,12639.2414234,E,FFFF,28,0.69,15.542,17.839,2.0,4095,V*08
$GNGGA,044235.00,3726.8499933,N,12639.2414234,E,5,12,0.69,15.542,M,17.839,M,2.0,4095*55
$GNGSA,A,3,19,14,06,17,03,09,04,,,,,,1.31,0.69,1.12,1*0C
$GNGSA,A,3,77,71,85,70,87,,,,,,,,1.31,0.69,1.12,2*0F
$GNGSA,A,3,13,15,08,03,21,26,01,,,,,,1.31,0.69,1.12,3*06
$GNGSA,A,3,14,10,01,33,07,27,04,28,08,,,,1.31,0.69,1.12,4*0B
$GPGSV,3,1,09,03,32,045,38,04,24,092,41,06,53,297,43,09,24,127,30,1*68
$GPGSV,3,2,09,11,19,268,20,12,14,320,33,14,25,187,19,17,75,088,47,1*6E
$GPGSV,3,3,09,19,72,342,48,1*59
$GPGSV,2,1,06,03,32,045,41,04,24,092,35,06,53,297,32,09,24,127,23,6*68
$GPGSV,2,2,06,11,19,268,24,17,75,088,39,6*69
$GPGSV,1,1,04,01,07,072,,02,16,275,,20,08,223,,50,47,179,,0*67
$GLGSV,2,1,06,70,28,038,29,71,55,102,46,72,29,165,25,77,26,287,23,1*74
$GLGSV,2,2,06,85,23,082,39,87,27,309,28,1*78
$GLGSV,2,1,05,71,55,102,31,72,29,165,13,76,19,235,12,77,26,287,27,3*77
$GLGSV,2,2,05,85,23,082,32,3*48
$GLGSV,1,1,02,78,05,338,,86,53,030,,0*72
$GAGSV,2,1,06,01,23,310,30,03,25,065,39,08,32,124,38,13,65,344,46,2*7A
$GAGSV,2,2,06,15,35,065,38,26,25,281,29,2*79
$GAGSV,2,1,08,01,23,310,32,03,25,065,46,08,32,124,42,13,65,344,45,7*75
$GAGSV,2,2,08,15,35,065,45,18,29,120,39,21,43,255,25,26,25,281,32,7*78
$GAGSV,1,1,02,07,08,171,,27,23,195,,0*77
$GBGSV,3,1,09,04,35,132,34,07,64,217,32,08,53,261,29,10,65,249,36,1*70
$GBGSV,3,2,09,13,44,255,20,14,24,045,40,27,55,320,44,28,59,076,49,1*74
$GBGSV,3,3,09,33,46,065,49,1*43
$GBGSV,2,1,08,01,43,152,31,04,35,132,29,07,64,217,31,08,53,261,30,3*7F
$GBGSV,2,2,08,10,65,249,39,13,44,255,19,14,24,045,43,28,59,076,16,3*76
$GBGSV,2,1,06,02,28,236,,03,44,206,,05,08,256,,15,30,187,,0*7F
$GBGSV,2,2,06,15,30,187,,30,08,297,,0*7F
$GNRMC,044236.00,A,3726.8499888,N,12639.2414290,E,0.010,,210622,,,F,V*13
$GNVTG,,T,,M,0.010,N,0.019,K,D*31
$GNGNS,044236.00,3726.8499888,N,12639.2414290,E,FFFF,29,0.67,15.516,17.839,2.0,4095,V*0A
$GNGGA,044236.00,3726.8499888,N,12639.2414290,E,5,12,0.67,15.516,M,17.839,M,2.0,4095*56
$GNGSA,A,3,11,19,14,06,17,03,09,04,,,,,1.21,0.67,1.01,1*01
$GNGSA,A,3,77,71,85,70,87,,,,,,,,1.21,0.67,1.01,2*02
$GNGSA,A,3,13,15,08,03,21,26,01,,,,,,1.21,0.67,1.01,3*0B
$GNGSA,A,3,14,10,01,33,07,27,04,28,08,,,,1.21,0.67,1.01,4*06
