$GNRMC,035006.00,A,3726.9912636,N,12639.0701035,E,0.002,,210622,,,R,V*0F
$GNVTG,,T,,M,0.002,N,0.003,K,D*39
$GNGNS,035006.00,3726.9912636,N,12639.0701035,E,RRRR,28,0.71,16.237,17.831,2.0,4095,V*08
$GNGGA,035006.00,3726.9912636,N,12639.0701035,E,4,12,0.71,16.237,M,17.831,M,2.0,4095*54
$GNGSA,A,3,14,06,19,03,17,01,,,,,,,1.43,0.71,1.24,1*09
$GNGSA,A,3,85,75,70,71,76,77,,,,,,,1.43,0.71,1.24,2*0A
$GNGSA,A,3,15,21,03,27,08,13,01,,,,,,1.43,0.71,1.24,3*0E
$GNGSA,A,3,08,27,07,10,02,28,13,33,03,,,,1.43,0.71,1.24,4*01
$GPGSV,3,1,09,01,23,057,44,03,51,061,43,06,39,268,45,09,07,143,40,1*67
$GPGSV,3,2,09,14,49,195,39,17,71,357,42,19,50,319,44,28,,,42,1*5E
$GPGSV,3,3,09,50,47,179,36,1*51
$GPGSV,2,1,06,01,23,057,40,03,51,061,25,06,39,268,36,09,07,143,18,6*63
$GPGSV,2,2,06,14,49,195,34,17,71,357,37,6*62
$GPGSV,1,1,04,02,00,257,,04,12,113,,11,04,251,,21,03,068,,0*6B
$GLGSV,2,1,08,69,03,019,08,70,39,069,30,71,33,135,43,75,15,203,39,1*75
$GLGSV,2,2,08,76,39,260,38,77,24,317,25,85,37,052,45,87,11,285,25,1*78
$GLGSV,2,1,06,69,03,019,12,71,33,135,30,75,15,203,39,76,39,260,38,3*73
$GLGSV,2,2,06,77,24,317,32,85,37,052,33,3*70
$GLGSV,1,1,02,72,02,172,,86,51,342,,0*77
$GAGSV,2,1,08,01,13,322,42,03,21,085,40,08,16,137,37,13,61,303,42,2*7F
$GAGSV,2,2,08,15,47,047,45,18,55,098,44,21,48,283,45,27,43,201,37,2*71
$GAGSV,2,1,08,01,13,322,40,03,21,085,41,08,16,137,36,13,61,303,44,7*7E
$GAGSV,2,2,08,15,47,047,43,18,55,098,41,21,48,283,42,27,43,201,41,7*71
$GAGSV,1,1,04,05,05,037,,26,14,263,,30,02,165,,34,02,070,,0*73
$GBGSV,3,1,12,01,43,152,36,02,27,236,38,03,44,206,39,04,35,132,34,1*71
$GBGSV,3,2,12,07,75,228,36,08,50,238,36,10,70,273,39,13,40,236,42,1*70
$GBGSV,3,3,12,27,38,300,47,28,67,028,44,33,47,099,42,37,23,230,43,1*7C
$GBGSV,2,1,06,02,27,236,42,03,44,206,36,07,75,228,36,08,50,238,38,3*72
$GBGSV,2,2,06,10,70,273,34,13,40,236,36,3*71
$GBGSV,1,1,02,05,08,255,,23,02,186,,0*76
$GNRMC,035007.00,A,3726.9912641,N,12639.0701001,E,0.005,,210622,,,R,V*0E
$GNVTG,,T,,M,0.005,N,0.010,K,D*3C
$GNGNS,035007.00,3726.9912641,N,12639.0701001,E,RRRR,28,0.71,16.237,17.831,2.0,4095,V*0E
$GNGGA,035007.00,3726.9912641,N,12639.0701001,E,4,12,0.71,16.237,M,17.831,M,2.0,4095*52
$GNGSA,A,3,14,06,19,03,17,01,,,,,,,1.43,0.71,1.24,1*09
$GNGSA,A,3,85,75,70,71,76,77,,,,,,,1.43,0.71,1.24,2*0A
$GNGSA,A,3,15,21,03,27,08,13,01,,,,,,1.43,0.71,1.24,3*0E
$GNGSA,A,3,08,27,07,10,02,28,13,33,03,,,,1.43,0.71,1.24,4*01
$GPGSV,3,1,10,01,23,057,44,03,51,061,44,06,39,268,45,09,07,143,40,1*68
$GPGSV,3,2,10,14,49,195,39,17,71,357,43,19,50,319,44,28,,,42,1*57
$GPGSV,3,3,10,41,27,238,40,50,47,179,36,1*64
$GPGSV,2,1,06,01,23,057,39,03,51,061,26,06,39,268,35,09,07,143,20,6*66
$GPGSV,2,2,06,14,49,195,32,17,71,357,35,6*66
$GPGSV,1,1,04,02,00,257,,04,12,113,,11,04,251,,21,03,068,,0*6B
$GLGSV,2,1,08,69,03,019,08,70,39,069,30,71,33,135,43,75,15,203,38,1*74
$GLGSV,2,2,08,76,39,260,38,77,24,317,25,85,37,052,44,87,11,285,26,1*7A
$GLGSV,2,1,06,69,03,019,13,71,33,135,31,75,15,203,38,76,39,260,39,3*73
$GLGSV,2,2,06,77,24,317,33,85,37,052,34,3*76
$GLGSV,1,1,02,72,02,172,,86,51,342,,0*77
$GAGSV,2,1,08,01,13,322,41,03,21,085,40,08,16,137,37,13,61,303,41,2*7F
$GAGSV,2,2,08,15,47,047,44,18,55,098,43,21,48,283,44,27,43,201,35,2*74
$GAGSV,2,1,08,01,13,322,40,03,21,085,41,08,16,137,36,13,61,303,44,7*7E
$GAGSV,2,2,08,15,47,047,43,18,55,098,42,21,48,283,42,27,43,201,41,7*72
$GAGSV,1,1,04,05,05,037,,26,14,263,,30,02,165,,34,02,070,,0*73
$GBGSV,3,1,12,01,43,152,36,02,27,236,38,03,44,206,39,04,35,132,34,1*71
$GBGSV,3,2,12,07,75,228,36,08,50,238,36,10,70,273,39,13,40,236,41,1*73
$GBGSV,3,3,12,27,38,300,47,28,67,028,44,33,47,099,42,37,23,230,43,1*7C
$GBGSV,2,1,06,02,27,236,42,03,44,206,35,07,75,228,36,08,50,238,38,3*71
$GNRMC,035008.00,A,3726.9912638,N,12639.0700993,E,0.009,,210622,,,R,V*00
$GNVTG,,T,,M,0.009,N,0.017,K,D*37
$GNGNS,035008.00,3726.9912638,N,12639.0700993,E,RRRR,28,0.71,16.254,17.831,2.0,4095,V*09
$GNGGA,035008.00,3726.9912638,N,12639.0700993,E,4,12,0.71,16.254,M,17.831,M,2.0,4095*55
$GNGSA,A,3,14,06,19,03,17,01,,,,,,,1.43,0.71,1.24,1*09
$GNGSA,A,3,85,75,70,71,76,77,,,,,,,1.43,0.71,1.24,2*0A
$GNGSA,A,3,15,21,03,27,08,13,01,,,,,,1.43,0.71,1.24,3*0E
$GNGSA,A,3,08,27,07,10,02,28,13,33,03,,,,1.43,0.71,1.24,4*01
$GPGSV,3,1,10,01,23,057,44,03,51,061,43,06,39,268,45,09,07,143,40,1*6F
$GPGSV,3,2,10,14,49,195,39,17,71,357,43,19,50,319,44,28,,,42,1*57
$GPGSV,3,3,10,41,27,238,40,50,47,179,36,1*64
$GPGSV,2,1,06,01,23,057,39,03,51,061,26,06,39,268,35,09,07,143,21,6*67
$GPGSV,2,2,06,14,49,195,32,17,71,357,35,6*66
$GPGSV,1,1,04,02,00,257,,04,12,113,,11,04,251,,21,03,068,,0*6B
$GLGSV,2,1,08,69,03,019,08,70,39,069,30,71,33,135,42,75,15,203,38,1*75
$GLGSV,2,2,08,76,39,260,37,77,24,317,24,85,37,052,45,87,11,285,26,1*75
$GLGSV,2,1,06,69,03,019,13,71,33,135,31,75,15,203,38,76,39,260,38,3*72
$GLGSV,2,2,06,77,24,317,33,85,37,052,35,3*77
$GLGSV,1,1,02,72,02,172,,86,51,342,,0*77
$GAGSV,2,1,08,01,13,322,41,03,21,085,40,08,16,137,37,13,61,303,41,2*7F
$GAGSV,2,2,08,15,47,047,45,18,55,098,44,21,48,283,44,27,43,201,35,2*72
$GAGSV,2,1,08,01,13,322,40,03,21,085,41,08,16,137,37,13,61,303,43,7*78
$GAGSV,2,2,08,15,47,047,43,18,55,098,42,21,48,283,41,27,43,201,41,7*71
$GAGSV,1,1,04,05,05,037,,26,14,263,,30,02,165,,34,02,070,,0*73
$GBGSV,3,1,12,01,43,152,36,02,27,236,38,03,44,206,39,04,35,132,35,1*70
$GBGSV,3,2,12,07,75,228,36,08,50,238,35,10,70,273,39,13,40,236,41,1*70
$GBGSV,3,3,12,27,38,300,47,28,67,028,44,33,47,099,42,37,23,230,43,1*7C
$GBGSV,2,1,06,02,27,236,42,03,44,206,35,07,75,228,36,08,50,238,38,3*71
$GBGSV,2,2,06,10,70,273,34,13,40,236,35,3*72
$GBGSV,1,1,02,05,08,255,,23,02,186,,0*76
$GNRMC,035009.00,A,3726.9912634,N,12639.0700984,E,0.003,,210622,,,R,V*01
$GNVTG,,T,,M,0.003,N,0.006,K,D*3D
$GNGNS,035009.00,3726.9912634,N,12639.0700984,E,RRRR,28,0.71,16.252,17.831,2.0,4095,V*04
$GNGGA,035009.00,3726.9912634,N,12639.0700984,E,4,12,0.71,16.252,M,17.831,M,2.0,4095*58
$GNGSA,A,3,14,06,19,03,17,01,,,,,,,1.43,0.71,1.24,1*09
$GNGSA,A,3,85,75,70,71,76,77,,,,,,,1.43,0.71,1.24,2*0A
$GNGSA,A,3,15,21,03,27,08,13,01,,,,,,1.43,0.71,1.24,3*0E
$GNGSA,A,3,08,27,07,10,02,28,13,33,03,,,,1.43,0.71,1.24,4*01
$GPGSV,3,1,10,01,23,057,44,03,51,061,44,06,39,268,45,09,07,143,39,1*66
$GPGSV,3,2,10,14,49,195,39,17,71,357,43,19,50,319,44,28,,,42,1*57
$GPGSV,3,3,10,41,27,238,40,50,47,179,36,1*64
$GPGSV,2,1,06,01,23,057,39,03,51,061,26,06,39,268,35,09,07,143,22,6*64
$GPGSV,2,2,06,14,49,195,30,17,71,357,35,6*64
$GPGSV,1,1,04,02,00,257,,04,12,113,,11,04,251,,21,03,068,,0*6B
$GLGSV,2,1,08,69,03,019,10,70,39,069,30,71,33,135,42,75,15,203,37,1*73
$GLGSV,2,2,08,76,39,260,36,77,24,317,25,85,37,052,44,87,11,285,25,1*77
$GLGSV,2,1,06,69,03,019,10,71,33,135,30,75,15,203,38,76,39,260,39,3*71
$GLGSV,2,2,06,77,24,317,33,85,37,052,34,3*76
$GLGSV,1,1,02,72,02,172,,86,51,342,,0*77
$GAGSV,2,1,08,01,13,322,42,03,21,085,41,08,16,137,37,13,61,303,41,2*7D
$GAGSV,2,2,08,15,47,047,45,18,55,098,44,21,48,283,44,27,43,201,34,2*73
$GAGSV,2,1,08,01,13,322,40,03,21,085,41,08,16,137,37,13,61,303,43,7*78
$GAGSV,2,2,08,15,47,047,43,18,55,098,44,21,48,283,41,27,43,201,40,7*76
$GAGSV,1,1,04,05,05,037,,26,14,263,,30,02,165,,34,02,070,,0*73
$GBGSV,3,1,12,01,43,152,36,02,27,236,38,03,44,206,39,04,35,132,34,1*71
$GBGSV,3,2,12,07,75,228,36,08,50,239,35,10,70,273,39,13,40,236,40,1*70
$GBGSV,3,3,12,27,38,300,47,28,67,028,44,33,47,099,43,37,23,230,43,1*7D
$GBGSV,2,1,06,02,27,236,41,03,44,206,34,07,75,228,37,08,50,239,37,3*7C
$GBGSV,2,2,06,10,70,273,33,13,40,236,35,3*75
$GBGSV,1,1,02,05,08,255,,23,02,186,,0*76
$GNRMC,035010.00,A,3726.9912598,N,12639.0701019,E,0.007,,210622,,,R,V*04
$GNVTG,,T,,M,0.007,N,0.014,K,D*3A
$GNGNS,035010.00,3726.9912598,N,12639.0701019,E,RRRR,28,0.71,16.243,17.831,2.0,4095,V*05
$GNGGA,035010.00,3726.9912598,N,12639.0701019,E,4,12,0.71,16.243,M,17.831,M,2.0,4095*59
$GNGSA,A,3,14,06,19,03,17,01,,,,,,,1.43,0.71,1.24,1*09
$GNGSA,A,3,85,75,70,71,76,77,,,,,,,1.43,0.71,1.24,2*0A
$GNGSA,A,3,15,21,03,27,08,13,01,,,,,,1.43,0.71,1.24,3*0E
$GNGSA,A,3,08,27,07,10,02,28,13,33,03,,,,1.43,0.71,1.24,4*01
$GPGSV,3,1,10,01,23,057,44,03,51,061,44,06,39,268,44,09,07,143,39,1*67
$GPGSV,3,2,10,14,49,195,39,17,71,357,43,19,50,319,43,28,,,42,1*50
$GPGSV,3,3,10,41,27,238,40,50,47,179,36,1*64
$GPGSV,2,1,06,01,23,057,39,03,51,061,26,06,39,268,35,09,07,143,21,6*67
$GPGSV,2,2,06,14,49,195,30,17,71,357,35,6*64
$GPGSV,1,1,04,02,00,257,,04,12,113,,11,04,251,,21,03,068,,0*6B
$GLGSV,2,1,08,69,03,019,10,70,39,069,29,71,33,135,41,75,15,203,37,1*78
$GLGSV,2,2,08,76,39,260,36,77,24,317,25,85,37,052,44,87,11,285,24,1*76
$GLGSV,2,1,06,69,03,019,10,71,33,135,30,75,15,203,38,76,39,260,38,3*70
$GLGSV,2,2,06,77,24,317,33,85,37,052,35,3*77
$GLGSV,1,1,02,72,02,172,,86,51,342,,0*77
$GAGSV,2,1,08,01,13,322,41,03,21,085,40,08,16,137,37,13,61,303,40,2*7E
$GAGSV,2,2,08,15,47,047,44,18,55,098,43,21,48,283,44,27,43,201,32,2*73
$GAGSV,2,1,08,01,13,322,41,03,21,085,41,08,16,137,37,13,61,303,43,7*79
$GAGSV,2,2,08,15,47,047,43,18,55,098,44,21,48,283,41,27,43,201,39,7*78
$GAGSV,1,1,04,05,05,037,,26,14,263,,30,02,165,,34,02,070,,0*73
$GBGSV,3,1,12,01,43,152,35,02,27,236,38,03,44,206,38,04,35,132,35,1*72
$GBGSV,3,2,12,07,75,228,35,08,50,239,35,10,70,273,39,13,40,236,40,1*73
$GBGSV,3,3,12,27,38,300,47,28,67,028,45,33,47,099,43,37,23,230,43,1*7C
$GBGSV,2,1,06,02,27,236,41,03,44,206,33,07,75,228,37,08,50,239,37,3*7B
$GBGSV,2,2,06,10,70,273,33,13,40,236,35,3*75
$GBGSV,1,1,02,05,08,255,,23,02,186,,0*76
$GNRMC,035011.00,A,3726.9912617,N,12639.0701032,E,0.010,,210622,,,R,V*0E
$GNVTG,,T,,M,0.010,N,0.018,K,D*30
$GNGNS,035011.00,3726.9912617,N,12639.0701032,E,RRRR,28,0.71,16.249,17.831,2.0,4095,V*03
$GNGGA,035011.00,3726.9912617,N,12639.0701032,E,4,12,0.71,16.249,M,17.831,M,2.0,4095*5F
$GNGSA,A,3,14,06,19,03,17,01,,,,,,,1.43,0.71,1.24,1*09
$GNGSA,A,3,85,75,70,71,76,77,,,,,,,1.43,0.71,1.24,2*0A
$GNGSA,A,3,15,21,03,27,08,13,01,,,,,,1.43,0.71,1.24,3*0E
$GNGSA,A,3,08,27,07,10,02,28,13,33,03,,,,1.43,0.71,1.24,4*01
$GPGSV,3,1,10,01,23,057,44,03,51,061,42,06,39,268,45,09,07,143,41,1*6F
$GPGSV,3,2,10,14,49,195,41,17,71,357,43,19,50,319,43,28,,,42,1*5F
$GPGSV,3,3,10,41,27,238,41,50,47,179,36,1*65
$GPGSV,2,1,06,01,23,057,39,03,51,061,26,06,39,268,35,09,07,143,21,6*67
$GPGSV,2,2,06,14,49,195,31,17,71,357,35,6*65
$GPGSV,1,1,04,02,00,257,,04,12,113,,11,04,251,,21,03,068,,0*6B
$GLGSV,2,1,08,69,03,019,10,70,39,069,29,71,33,135,41,75,15,203,36,1*79
$GLGSV,2,2,08,76,39,260,35,77,24,317,24,85,37,052,44,87,11,285,22,1*72
$GLGSV,2,1,06,69,03,019,13,71,33,135,30,75,15,203,39,76,39,260,38,3*72
$GLGSV,2,2,06,77,24,317,33,85,37,052,34,3*76
$GLGSV,1,1,02,72,02,172,,86,51,342,,0*77
$GAGSV,2,1,08,01,13,322,42,03,21,085,40,08,16,137,37,13,61,303,41,2*7C
$GNRMC,035012.00,A,3726.9912600,N,12639.0701049,E,0.008,,210622,,,R,V*0E
$GNVTG,,T,,M,0.008,N,0.015,K,D*34
$GNGNS,035012.00,3726.9912600,N,12639.0701049,E,RRRR,28,0.71,16.257,17.831,2.0,4095,V*05
$GNGGA,035012.00,3726.9912600,N,12639.0701049,E,4,12,0.71,16.257,M,17.831,M,2.0,4095*59
$GNGSA,A,3,14,06,19,03,17,01,,,,,,,1.43,0.71,1.24,1*09
$GNGSA,A,3,85,75,70,71,76,77,,,,,,,1.43,0.71,1.24,2*0A
$GNGSA,A,3,15,21,03,27,08,13,01,,,,,,1.43,0.71,1.24,3*0E
$GNGSA,A,3,08,27,07,10,02,28,13,33,03,,,,1.43,0.71,1.24,4*01
$GPGSV,3,1,10,01,23,057,44,03,51,061,44,06,39,268,45,09,07,143,40,1*68
$GPGSV,3,2,10,14,49,195,38,17,71,357,45,19,50,319,43,28,,,41,1*54
$GPGSV,3,3,10,41,27,238,40,50,47,179,35,1*67
$GPGSV,2,1,06,01,23,057,39,03,51,061,27,06,39,268,35,09,07,143,22,6*65
$GPGSV,2,2,06,14,49,195,30,17,71,357,35,6*64
$GPGSV,1,1,04,02,00,257,,04,12,113,,11,04,251,,21,03,068,,0*6B
$GLGSV,2,1,08,69,03,019,10,70,39,069,29,71,33,135,42,75,15,203,37,1*7B
$GLGSV,2,2,08,76,39,260,36,77,24,317,25,85,37,052,45,87,11,285,20,1*73
$GLGSV,2,1,06,69,03,019,12,71,33,135,30,75,15,203,39,76,39,260,38,3*73
$GLGSV,2,2,06,77,24,317,33,85,37,052,34,3*76
$GLGSV,1,1,02,72,02,172,,86,51,342,,0*77
$GAGSV,2,1,08,01,13,322,42,03,21,085,41,08,16,137,37,13,61,303,41,2*7D
$GAGSV,2,2,08,15,47,047,44,18,55,098,42,21,48,283,44,27,43,201,33,2*73
$GAGSV,2,1,08,01,13,322,41,03,21,085,41,08,16,137,36,13,61,303,44,7*7F
$GAGSV,1,1,04,05,05,037,,26,14,263,,30,02,165,,34,02,070,,0*73
$GNRMC,035013.00,A,3726.9912581,N,12639.0701057,E,0.005,,210622,,,R,V*07
$GNVTG,,T,,M,0.005,N,0.009,K,D*34
$GNGNS,035013.00,3726.9912581,N,12639.0701057,E,RRRR,28,0.71,16.259,17.831,1.0,4095,V*0C
$GNGGA,035013.00,3726.9912581,N,12639.0701057,E,4,12,0.71,16.259,M,17.831,M,1.0,4095*50
$GNGSA,A,3,14,06,19,03,17,01,,,,,,,1.43,0.71,1.24,1*09
$GNGSA,A,3,85,75,70,71,76,77,,,,,,,1.43,0.71,1.24,2*0A
$GNGSA,A,3,15,21,03,27,08,13,01,,,,,,1.43,0.71,1.24,3*0E
$GNGSA,A,3,08,27,07,10,02,28,13,33,03,,,,1.43,0.71,1.24,4*01
$GPGSV,3,1,10,01,23,057,44,03,51,061,44,06,39,268,45,09,07,143,40,1*68
$GPGSV,3,2,10,14,49,195,38,17,71,357,45,19,50,319,44,28,,,41,1*53
$GPGSV,3,3,10,41,27,238,40,50,47,179,35,1*67
$GPGSV,2,1,06,01,23,057,39,03,51,061,28,06,39,268,35,09,07,143,22,6*6A
$GPGSV,2,2,06,14,49,195,29,17,71,357,36,6*6F
$GPGSV,1,1,04,02,00,257,,04,12,113,,11,04,251,,21,03,069,,0*6A
$GLGSV,2,1,08,69,03,019,11,70,39,069,31,71,33,135,43,75,15,203,38,1*7D
$GLGSV,2,2,08,76,39,260,39,77,24,317,27,85,37,052,45,87,11,285,19,1*74
$GLGSV,2,1,06,69,03,019,09,71,33,135,30,75,15,203,39,76,39,260,37,3*76
$GLGSV,2,2,06,77,24,317,33,85,37,052,34,3*76
$GLGSV,1,1,02,72,02,172,,86,51,342,,0*77
$GAGSV,2,1,08,01,13,322,42,03,21,085,41,08,16,137,37,13,61,303,41,2*7D
$GAGSV,2,2,08,15,47,047,44,18,55,098,42,21,48,283,45,27,43,201,29,2*79
$GAGSV,2,1,08,01,13,322,42,03,21,085,41,08,16,137,36,13,61,303,44,7*7C
$GAGSV,2,2,08,15,47,047,43,18,55,098,44,21,48,283,41,27,43,201,40,7*76
$GAGSV,1,1,04,05,05,037,,26,14,263,,30,02,165,,34,02,070,,0*73
$GBGSV,3,1,12,01,43,152,35,02,27,236,38,03,44,206,38,04,35,132,35,1*72
$GBGSV,3,2,12,07,75,228,36,08,50,239,35,10,70,272,41,13,40,237,41,1*7E
$GBGSV,3,3,12,27,38,300,46,28,67,028,45,33,47,099,42,37,23,230,42,1*7D
$GBGSV,2,1,06,02,27,236,41,03,44,206,32,07,75,228,37,08,50,239,37,3*7A
$GBGSV,2,2,06,10,70,272,34,13,40,237,35,3*72
$GBGSV,1,1,02,05,08,255,,23,02,186,,0*76
$GNRMC,035014.00,A,3726.9912556,N,12639.0701058,E,0.013,,210622,,,R,V*02
$GNVTG,,T,,M,0.013,N,0.023,K,D*3B
$GNGNS,035014.00,3726.9912556,N,12639.0701058,E,RRRR,28,0.71,16.265,17.831,2.0,4095,V*02
$GNGGA,035014.00,3726.9912556,N,12639.0701058,E,4,12,0.71,16.265,M,17.831,M,2.0,4095*5E
$GNGSA,A,3,14,06,19,03,17,01,,,,,,,1.43,0.71,1.24,1*09
$GNGSA,A,3,85,75,70,71,76,77,,,,,,,1.43,0.71,1.24,2*0A
$GNGSA,A,3,15,21,03,27,08,13,01,,,,,,1.43,0.71,1.24,3*0E
$GNGSA,A,3,08,27,07,10,02,28,13,33,03,,,,1.43,0.71,1.24,4*01
$GPGSV,3,1,10,01,23,057,44,03,51,061,45,06,39,268,45,09,07,143,40,1*69
$GPGSV,3,2,10,14,49,195,38,17,71,357,46,19,50,319,44,28,,,42,1*53
$GPGSV,3,3,10,41,27,238,39,50,47,179,35,1*69
$GPGSV,2,1,06,01,23,057,39,03,51,061,30,06,39,268,35,09,07,143,21,6*60
$GPGSV,2,2,06,14,49,195,29,17,71,357,36,6*6F
$GPGSV,1,1,04,02,00,257,,04,12,113,,11,04,251,,21,03,069,,0*6A
$GLGSV,2,1,08,69,03,019,09,70,39,069,31,71,33,135,44,75,15,203,38,1*73
$GLGSV,2,2,08,76,39,260,40,77,24,317,27,85,37,052,46,87,11,285,18,1*78
$GLGSV,2,1,06,69,03,019,06,71,33,135,31,75,15,203,39,76,39,260,37,3*78
$GLGSV,2,2,06,77,24,317,33,85,37,052,34,3*76
$GLGSV,1,1,02,72,02,172,,86,51,342,,0*77
$GAGSV,2,1,08,01,13,322,42,03,21,085,42,08,16,137,37,13,61,303,42,2*7D
$GAGSV,2,2,08,15,47,047,45,18,55,098,43,21,48,283,45,27,43,201,32,2*73
$GAGSV,2,1,08,01,13,322,42,03,21,085,41,08,16,137,36,13,61,303,44,7*7C
$GAGSV,2,2,08,15,47,047,43,18,55,098,44,21,48,283,41,27,43,201,39,7*78
$GAGSV,1,1,04,05,05,037,,26,14,263,,30,02,165,,34,02,070,,0*73
$GBGSV,3,1,12,01,43,152,36,02,27,236,38,03,44,206,38,04,35,132,35,1*71
$GBGSV,3,2,12,07,75,228,36,08,50,239,35,10,70,272,41,13,40,237,41,1*7E
$GBGSV,3,3,12,27,38,300,46,28,67,028,45,33,47,099,42,37,23,230,42,1*7D
$GBGSV,2,1,06,02,27,236,42,03,44,206,32,07,75,228,37,08,50,239,37,3*79
$GBGSV,2,2,06,10,70,272,34,13,40,237,35,3*72
$GBGSV,1,1,02,05,08,255,,23,02,186,,0*76
$GNRMC,035015.00,A,3726.9912555,N,12639.0701079,E,0.008,,210622,,,R,V*09
$GNVTG,,T,,M,0.008,N,0.015,K,D*34
$GNGNS,035015.00,3726.9912555,N,12639.0701079,E,RRRR,28,0.71,16.248,17.831,2.0,4095,V*0C
$GNGGA,035015.00,3726.9912555,N,12639.0701079,E,4,12,0.71,16.248,M,17.831,M,2.0,4095*50
$GNGSA,A,3,14,06,19,03,17,01,,,,,,,1.43,0.71,1.24,1*09
$GNGSA,A,3,85,75,70,71,76,77,,,,,,,1.43,0.71,1.24,2*0A
$GNGSA,A,3,15,21,03,27,08,13,01,,,,,,1.43,0.71,1.24,3*0E
$GNGSA,A,3,08,27,07,10,02,28,13,33,03,,,,1.43,0.71,1.24,4*01
$GPGSV,3,1,10,01,23,057,43,03,51,061,45,06,39,268,45,09,07,143,41,1*6F
$GPGSV,3,2,10,14,49,195,38,17,71,357,46,19,50,319,44,28,,,42,1*53
$GPGSV,3,3,10,41,27,238,39,50,47,179,35,1*69
$GPGSV,2,1,06,01,23,057,37,03,51,061,29,06,39,268,35,09,07,143,19,6*6D
$GPGSV,2,2,06,14,49,195,27,17,71,357,36,6*61
$GPGSV,1,1,04,02,00,257,,04,12,113,,11,04,251,,21,03,069,,0*6A
$GLGSV,2,1,08,69,03,019,08,70,39,069,32,71,33,135,43,75,15,203,38,1*76
$GLGSV,2,2,08,76,39,260,40,77,24,317,28,85,37,052,46,87,11,285,18,1*77
$GLGSV,2,1,06,69,03,019,10,71,33,135,30,75,15,203,36,76,39,260,34,3*72
$GLGSV,2,2,06,77,24,317,32,85,37,052,33,3*70
$GLGSV,1,1,02,72,02,172,,86,51,342,,0*77
$GAGSV,2,1,08,01,13,322,41,03,21,085,41,08,16,137,37,13,61,303,41,2*7E
$GAGSV,2,2,08,15,47,047,45,18,55,098,42,21,48,283,44,27,43,201,31,2*70
$GAGSV,2,1,08,01,13,322,42,03,21,085,42,08,16,137,37,13,61,303,44,7*7E
$GAGSV,2,2,08,15,47,047,43,18,55,098,44,21,48,283,41,27,43,201,39,7*78
$GAGSV,1,1,04,05,05,037,,26,14,263,,30,02,165,,34,02,070,,0*73
$GBGSV,3,1,12,01,43,152,36,02,27,236,38,03,44,206,38,04,35,132,35,1*71
$GBGSV,3,2,12,07,75,228,36,08,50,239,35,10,70,272,41,13,40,237,41,1*7E
$GBGSV,3,3,12,27,38,300,46,28,67,028,45,33,47,099,43,37,23,230,42,1*7C
$GBGSV,2,1,06,02,27,236,42,03,44,206,32,07,75,228,37,08,50,239,36,3*78
$GBGSV,2,2,06,10,70,272,34,13,40,237,35,3*72
$GBGSV,1,1,02,05,08,255,,23,02,186,,0*76
$GNRMC,035016.00,A,3726.9912582,N,12639.0701045,E,0.012,,210622,,,R,V*04
$GNVTG,,T,,M,0.012,N,0.021,K,D*38
$GNGNS,035016.00,3726.9912582,N,12639.0701045,E,RRRR,28,0.71,16.256,17.831,2.0,4095,V*05
$GNGGA,035016.00,3726.9912582,N,12639.0701045,E,4,12,0.71,16.256,M,17.831,M,2.0,4095*59
$GNGSA,A,3,14,06,19,03,17,01,,,,,,,1.43,0.71,1.24,1*09
$GNGSA,A,3,85,75,70,71,76,77,,,,,,,1.43,0.71,1.24,2*0A
$GNGSA,A,3,15,21,03,27,08,13,01,,,,,,1.43,0.71,1.24,3*0E
$GNGSA,A,3,08,27,07,10,02,28,13,33,03,,,,1.43,0.71,1.24,4*01
$GPGSV,3,1,10,01,23,057,44,03,51,061,45,06,39,268,44,09,07,143,40,1*68
$GPGSV,3,2,10,14,49,195,39,17,71,357,46,19,50,319,44,28,,,42,1*52
$GPGSV,3,3,10,41,27,238,38,50,47,179,35,1*68
$GPGSV,2,1,06,01,23,057,38,03,51,061,29,06,39,268,34,09,07,143,19,6*63
$GPGSV,2,2,06,14,49,195,28,17,71,357,35,6*6D
$GPGSV,1,1,04,02,00,257,,04,12,113,,11,04,251,,21,03,069,,0*6A
$GLGSV,2,1,08,69,03,019,14,70,39,069,32,71,33,135,43,75,15,203,38,1*7B
$GLGSV,2,2,08,76,39,260,40,77,24,317,28,85,37,052,45,87,11,285,19,1*75
$GLGSV,2,1,06,69,03,019,06,71,33,135,30,75,15,203,37,76,39,260,35,3*75
$GLGSV,2,2,06,77,24,317,31,85,37,052,32,3*72
$GLGSV,1,1,02,72,02,172,,86,51,342,,0*77
$GAGSV,2,1,08,01,13,322,42,03,21,085,42,08,16,137,37,13,61,303,42,2*7D
$GAGSV,2,2,08,15,47,047,45,18,55,098,43,21,48,283,45,27,43,201,32,2*73
$GAGSV,2,1,08,01,13,322,42,03,21,085,41,08,16,137,36,13,61,303,44,7*7C
$GAGSV,2,2,08,15,47,047,43,18,55,098,44,21,48,283,41,27,43,201,39,7*78
$GAGSV,1,1,04,05,05,037,,26,14,263,,30,02,165,,34,02,070,,0*73
$GBGSV,3,1,12,01,43,152,36,02,27,236,38,03,44,206,38,04,35,132,35,1*71
$GBGSV,3,2,12,07,75,228,36,08,50,239,35,10,70,272,41,13,40,237,41,1*7E
$GBGSV,3,3,12,27,38,300,46,28,67,028,45,33,47,099,42,37,23,230,42,1*7D
$GBGSV,2,1,06,02,27,236,42,03,44,206,33,07,75,228,38,08,50,239,37,3*77
$GBGSV,2,2,06,10,70,272,34,13,40,237,35,3*72
$GNRMC,035017.00,A,3726.9912586,N,12639.0701044,E,0.005,,210622,,,R,V*06
$GNGNS,035017.00,3726.9912586,N,12639.0701044,E,RRRR,28,0.71,16.263,17.831,2.0,4095,V*07
$GNGGA,035017.00,3726.9912586,N,12639.0701044,E,4,12,0.71,16.263,M,17.831,M,2.0,4095*5B
$GNGSA,A,3,14,06,19,03,17,01,,,,,,,1.43,0.71,1.24,1*09
$GNGSA,A,3,85,75,70,71,76,77,,,,,,,1.43,0.71,1.24,2*0A
$GNGSA,A,3,15,21,03,27,08,13,01,,,,,,1.43,0.71,1.24,3*0E
$GNGSA,A,3,08,27,07,10,02,28,13,33,03,,,,1.43,0.71,1.24,4*01
$GPGSV,3,1,10,01,23,057,44,03,51,061,45,06,39,268,44,09,07,143,40,1*68
$GPGSV,3,2,10,14,49,195,39,17,71,357,45,19,50,319,44,28,,,41,1*52
$GPGSV,3,3,10,41,27,238,38,50,47,179,35,1*68
$GPGSV,2,1,06,01,23,057,39,03,51,061,28,06,39,268,35,09,07,143,20,6*68
$GPGSV,2,2,06,14,49,195,27,17,71,357,35,6*62
$GPGSV,1,1,04,02,00,257,,04,12,113,,11,04,251,,21,03,069,,0*6A
$GLGSV,2,1,08,69,03,019,18,70,39,069,32,71,33,135,42,75,15,203,38,1*76
$GLGSV,2,2,08,76,39,260,37,77,24,317,27,85,37,052,44,87,11,285,18,1*7A
$GLGSV,2,1,06,69,03,019,10,71,33,135,31,75,15,203,38,76,39,260,38,3$GLGSV,2,2,06,77,24,317,32,85,37,052,33,3*70
$GLGSV,1,1,02,72,02,172,,86,51,342,,0*77
$GAGSV,2,1,08,01,13,322,42,03,21,085,41,08,16,137,37,13,61,303,42,2*7E
$GAGSV,2,2,08,15,47,047,45,18,55,098,43,21,48,283,45,27,43,201,32,2*73
$GAGSV,2,1,08,01,13,322,41,03,21,085,41,08,16,137,37,13,61,303,43,7*79
$GAGSV,2,2,08,15,47,047,43,18,55,098,44,21,48,283,41,27,43,201,39,7*78
$GAGSV,1,1,04,05,05,037,,26,14,263,,30,02,165,,34,02,070,,0*73
$GBGSV,3,1,12,01,43,152,35,02,27,236,38,03,44,206,38,04,35,132,36,1*71
$GBGSV,3,2,12,07,75,228,36,08,50,239,35,10,70,272,40,13,40,237,40,1*7E
$GBGSV,3,3,12,27,38,300,46,28,67,028,45,33,47,099,42,37,23,230,42,1*7D
$GBGSV,2,1,06,02,27,236,42,03,44,206,32,07,75,228,37,08,50,239,37,3*79
$GBGSV,2,2,06,10,70,272,34,13,40,237,35,3*72
$GBGSV,1,1,02,05,08,255,,23,02,186,,0*76
$GNRMC,035018.00,A,3726.9912582,N,12639.0701049,E,0.005,,210622,,,R,V*00
$GNVTG,,T,,M,0.005,N,0.008,K,D*35
$GNGNS,035018.00,3726.9912582,N,12639.0701049,E,RRRR,28,0.71,16.263,17.831,2.0,4095,V*01
$GNGGA,035018.00,3726.9912582,N,12639.0701049,E,4,12,0.71,16.263,M,17.831,M,2.0,4095*5D
$GNGSA,A,3,14,06,19,03,17,01,,,,,,,1.43,0.71,1.24,1*09
$GNGSA,A,3,85,75,70,71,76,77,,,,,,,1.43,0.71,1.24,2*0A
$GNGSA,A,3,15,21,03,27,08,13,01,,,,,,1.43,0.71,1.24,3*0E
$GNGSA,A,3,08,27,07,10,02,28,13,33,03,,,,1.43,0.71,1.24,4*01
$GPGSV,3,1,10,01,23,057,44,03,51,061,45,06,39,268,44,09,07,143,40,1*68
$GPGSV,3,2,10,14,49,195,39,17,71,357,45,19,50,319,44,28,,,41,1*52
$GPGSV,3,3,10,41,27,238,37,50,47,179,35,1*67
$GPGSV,2,1,06,01,23,057,40,03,51,061,29,06,39,268,36,09,07,143,23,6*67
$GPGSV,2,2,06,14,49,195,28,17,71,357,37,6*6F
$GPGSV,1,1,04,02,00,257,,04,12,113,,11,04,251,,21,03,069,,0*6A
$GLGSV,2,1,08,69,03,019,14,70,39,069,31,71,33,135,42,75,15,203,37,1*76
$GLGSV,2,2,08,76,39,260,37,77,24,317,27,85,37,052,44,87,11,285,19,1*7B
$GLGSV,2,1,06,69,03,019,08,71,33,135,32,75,15,203,39,76,39,260,37,3*75
$GLGSV,2,2,06,77,24,317,33,85,37,052,33,3*71
$GLGSV,1,1,02,72,02,172,,86,51,342,,0*77
$GAGSV,2,1,08,01,13,322,41,03,21,085,41,08,16,137,37,13,61,303,41,2*7E
$GAGSV,2,2,08,15,47,047,45,18,55,098,42,21,48,283,44,27,43,201,32,2*73
$GAGSV,2,1,08,01,13,322,41,03,21,085,41,08,16,137,37,13,61,303,43,7*79
$GAGSV,2,2,08,15,47,047,43,18,55,098,43,21,48,283,41,27,43,201,40,7*71
$GAGSV,1,1,04,05,05,037,,26,14,263,,30,02,165,,34,02,070,,0*73
$GBGSV,3,1,12,01,43,152,36,02,27,236,38,03,44,206,39,04,35,132,35,1*70
$GBGSV,3,2,12,07,75,228,36,08,50,239,36,10,70,272,40,13,40,237,40,1*7D
$GBGSV,3,3,12,27,38,300,46,28,67,028,45,33,47,099,42,37,23,230,42,1*7D
$GBGSV,2,1,06,02,27,236,42,03,44,206,33,07,75,228,37,08,50,239,37,3*78
$GBGSV,2,2,06,10,70,272,34,13,40,237,35,3*72
$GBGSV,1,1,02,05,08,255,,23,01,186,,0*75
$GNRMC,035019.00,A,3726.9912596,N,12639.0701062,E,0.006,,210622,,,R,V*0E
$GNGNS,035019.00,3726.9912596,N,12639.0701062,E,RRRR,28,0.71,16.241,17.831,2.0,4095,V*0C
$GNGGA,035019.00,3726.9912596,N,12639.0701062,E,4,12,0.71,16.241,M,17.831,M,2.0,4095*50
$GNGSA,A,3,14,06,19,03,17,01,,,,,,,1.43,0.71,1.24,1*09
$GNGSA,A,3,85,75,70,71,76,77,,,,,,,1.43,0.71,1.24,2*0A
$GNGSA,A,3,15,21,03,27,08,13,01,,,,,,1.43,0.71,1.24,3*0E
$GNGSA,A,3,08,27,07,10,02,28,13,33,03,,,,1.43,0.71,1.24,4*01
$GPGSV,3,1,10,01,23,057,45,03,51,061,45,06,39,268,44,09,07,143,40,1*69
$GPGSV,3,2,10,14,49,195,39,17,71,357,45,19,50,319,44,28,,,40,1*53
$GPGSV,3,3,10,41,27,238,36,50,47,179,35,1*66
$GPGSV,2,1,06,01,23,057,40,03,51,061,28,06,39,268,36,09,07,143,25,6*60
$GPGSV,2,2,06,14,49,195,28,17,71,357,36,6*6E
$GPGSV,1,1,04,02,00,257,,04,12,113,,11,04,251,,21,03,069,,0*6A
$GLGSV,2,1,08,69,03,019,12,70,39,069,31,71,33,135,42,75,15,203,38,1*7F
$GLGSV,2,2,08,76,39,260,37,77,24,317,27,85,37,052,44,87,11,285,20,1*71
$GLGSV,2,1,06,69,03,019,09,71,33,135,31,75,15,203,39,76,39,260,37,3$GLGSV,2,2,06,77,24,317,33,85,37,052,33,3*71
$GLGSV,1,1,02,72,02,172,,86,51,342,,0*77
$GAGSV,2,1,08,01,13,322,42,03,21,085,41,08,16,137,37,13,61,303,41,2*7D
$GAGSV,2,2,08,15,47,047,45,18,55,098,43,21,48,283,45,27,43,201,32,2*73
$GAGSV,2,1,08,01,13,322,41,03,21,085,41,08,16,137,37,13,61,303,43,7*79
$GAGSV,2,2,08,15,47,047,43,18,55,098,43,21,48,283,41,27,43,201,40,7*71
$GAGSV,1,1,04,05,05,037,,26,14,263,,30,02,165,,34,02,070,,0*73
$GBGSV,3,1,12,01,43,152,35,02,27,236,38,03,44,206,39,04,35,132,35,1*73
$GBGSV,3,2,12,07,75,228,35,08,50,239,36,10,70,272,40,13,40,237,40,1*7E
$GBGSV,3,3,12,27,38,300,46,28,67,028,44,33,47,099,42,37,23,230,42,1*7C
$GBGSV,2,1,06,02,27,236,42,03,44,206,34,07,75,228,37,08,50,239,38,3*70
$GBGSV,2,2,06,10,70,272,34,13,40,237,35,3*72
$GBGSV,1,1,02,05,08,255,,23,01,186,,0*75
$GNRMC,035020.00,A,3726.9912563,N,12639.0701103,E,0.001,,210622,,,R,V*0F
$GNVTG,,T,,M,0.001,N,0.002,K,D*3B
$GNGNS,035020.00,3726.9912563,N,12639.0701103,E,RRRR,28,0.71,16.264,17.831,2.0,4095,V*0D
$GNGGA,035020.00,3726.9912563,N,12639.0701103,E,4,12,0.71,16.264,M,17.831,M,2.0,4095*51
$GNGSA,A,3,14,06,19,03,17,01,,,,,,,1.43,0.71,1.24,1*09
$GNGSA,A,3,85,75,70,71,76,77,,,,,,,1.43,0.71,1.24,2*0A
$GNGSA,A,3,15,21,03,27,08,13,01,,,,,,1.43,0.71,1.24,3*0E
$GNGSA,A,3,08,27,07,10,02,28,13,33,03,,,,1.43,0.71,1.24,4*01
$GPGSV,3,1,10,01,23,057,45,03,51,061,44,06,39,268,45,09,07,143,41,1*68
$GPGSV,3,2,10,14,49,195,40,17,71,357,46,19,50,319,45,28,,,42,1*5D
$GPGSV,3,3,10,41,27,238,36,50,47,179,35,1*66
$GPGSV,2,1,06,01,23,057,40,03,51,061,28,06,39,268,35,09,07,143,25,6*63
$GPGSV,2,2,06,14,49,195,33,17,71,357,36,6*64
$GPGSV,1,1,04,02,00,257,,04,12,113,,11,04,251,,21,03,069,,0*6A
$GLGSV,2,1,08,69,03,019,09,70,39,069,30,71,33,135,42,75,15,203,38,1*74
$GLGSV,2,2,08,76,39,260,38,77,24,317,26,85,37,052,44,87,11,285,19,1*75
$GLGSV,2,1,06,69,03,019,10,71,33,135,31,75,15,203,40,76,39,260,36,3*70
$GLGSV,2,2,06,77,24,317,33,85,37,052,32,3*70
$GLGSV,1,1,02,72,02,172,,86,51,342,,0*77
$GAGSV,2,1,08,01,13,322,41,03,21,085,41,08,16,137,37,13,61,303,43,2*7C
$GAGSV,2,2,08,15,47,047,45,18,55,098,42,21,48,283,45,27,43,201,38,2*78
$GAGSV,2,1,08,01,13,322,40,03,21,085,41,08,16,137,36,13,61,303,44,7*7E
$GAGSV,2,2,08,15,47,047,43,18,55,098,41,21,48,283,42,27,43,201,41,7*71
$GAGSV,1,1,04,05,05,037,,26,14,263,,30,02,165,,34,02,070,,0*73
$GBGSV,3,1,12,01,43,152,36,02,27,236,39,03,44,206,39,04,35,132,35,1*71
$GBGSV,3,2,12,07,75,228,36,08,50,239,36,10,70,272,42,13,40,237,42,1*7D
$GBGSV,3,3,12,27,38,300,46,28,67,028,44,33,47,099,40,37,23,230,42,1*7E
$GBGSV,2,1,06,02,27,236,43,03,44,206,37,07,75,228,36,08,50,239,38,3*73
$GBGSV,2,2,06,10,70,272,35,13,40,237,35,3*73
$GBGSV,1,1,02,05,08,255,,23,01,186,,0*75
$GNRMC,035021.00,A,3726.9912536,N,12639.0701111,E,0.016,,210622,,,R,V*0B
$GNVTG,,T,,M,0.016,N,0.030,K,D*3C
$GNGNS,035021.00,3726.9912536,N,12639.0701111,E,RRRR,28,0.71,16.287,17.831,2.0,4095,V*02
$GNGGA,035021.00,3726.9912536,N,12639.0701111,E,4,12,0.71,16.287,M,17.831,M,2.0,4095*5E
$GNGSA,A,3,14,06,19,03,17,01,,,,,,,1.43,0.71,1.24,1*09
$GNGSA,A,3,85,75,70,71,76,77,,,,,,,1.43,0.71,1.24,2*0A
$GNGSA,A,3,15,21,03,27,08,13,01,,,,,,1.43,0.71,1.24,3*0E
$GNGSA,A,3,08,27,07,10,02,28,13,33,03,,,,1.43,0.71,1.24,4*01
$GPGSV,3,1,10,01,23,057,44,03,51,061,43,06,39,268,44,09,07,143,41,1*6F
$GPGSV,3,2,10,14,49,195,42,17,71,357,45,19,50,319,45,28,,,45,1*5B
$GPGSV,3,3,10,41,27,238,32,50,47,179,37,1*60
$GPGSV,2,1,06,01,23,057,39,03,51,061,28,06,39,268,37,09,07,143,25,6*6F
$GPGSV,2,2,06,14,49,195,36,17,71,357,35,6*62
$GPGSV,1,1,04,02,00,257,,04,12,113,,11,04,251,,21,03,069,,0*6A
$GLGSV,2,1,08,69,03,019,14,70,39,069,29,71,33,135,41,75,15,203,31,1*7A
$GLGSV,2,2,08,76,39,260,37,77,24,317,25,85,37,052,42,87,11,285,18,1*7E
$GLGSV,2,1,06,69,03,019,10,71,33,135,31,75,15,203,41,76,39,260,37,3*70
$GLGSV,2,2,06,77,24,317,33,85,37,052,33,3*71
$GLGSV,1,1,02,72,02,172,,86,51,342,,0*77
$GAGSV,2,1,08,01,13,322,42,03,21,085,39,08,16,137,38,13,61,303,43,2*7F
$GAGSV,2,2,08,15,47,047,44,18,55,098,43,21,48,283,47,27,43,201,41,2*74
$GAGSV,2,1,08,01,13,322,40,03,21,085,39,08,16,137,39,13,61,303,44,7*7E
$GAGSV,2,2,08,15,47,047,43,18,55,098,41,21,48,283,41,27,43,201,43,7*70
$GAGSV,1,1,04,05,05,037,,26,14,263,,30,02,165,,34,02,070,,0*73
$GBGSV,3,1,12,01,43,152,36,02,27,236,35,03,44,206,39,04,35,132,34,1*7C
$GBGSV,3,2,12,07,75,228,38,08,50,239,39,10,70,272,42,13,40,237,42,1*7C
$GBGSV,3,3,12,27,38,300,45,28,67,028,44,33,47,099,42,37,23,230,42,1*7F
$GBGSV,2,1,06,02,27,236,44,03,44,206,39,07,75,228,38,08,50,239,40,3*7B
$GBGSV,2,2,06,10,70,272,40,13,40,237,38,3*7C
$GBGSV,1,1,02,05,08,255,,23,01,186,,0*75
$GNRMC,035022.00,A,3726.9912527,N,12639.0701062,E,0.008,,210622,,,R,V*02
$GNVTG,,T,,M,0.008,N,0.016,K,D*37
$GNGGA,035022.00,3726.9912527,N,12639.0701062,E,4,12,0.71,16.278,M,17.831,M,2.0,4095*58
$GNGSA,A,3,14,06,19,03,17,01,,,,,,,1.43,0.71,1.24,1*09
$GNGSA,A,3,85,75,70,71,76,77,,,,,,,1.43,0.71,1.24,2*0A
$GNGSA,A,3,15,21,03,27,08,13,01,,,,,,1.43,0.71,1.24,3*0E
$GNGSA,A,3,08,27,07,10,02,28,13,33,03,,,,1.43,0.71,1.24,4*01
$GPGSV,3,1,10,01,23,057,40,03,51,061,45,06,39,268,44,09,07,143,41,1*6D
$GPGSV,3,2,10,14,49,195,40,17,71,357,46,19,50,319,45,28,,,44,1*5B
$GPGSV,3,3,10,41,27,238,31,50,47,179,36,1*62
$GPGSV,2,1,06,01,23,057,38,03,51,061,35,06,39,268,39,09,07,143,26,6*6F
$GPGSV,2,2,06,14,49,195,26,17,71,357,38,6*6E
$GPGSV,1,1,04,02,00,257,,04,12,113,,11,04,251,,21,03,069,,0*6A
$GLGSV,2,1,08,69,03,019,11,70,39,069,28,71,33,135,39,75,15,203,31,1*71
$GLGSV,2,2,08,76,39,260,35,77,24,317,22,85,37,052,41,87,11,285,16,1*76
$GLGSV,2,1,06,69,03,019,10,71,33,135,34,75,15,203,41,76,39,260,39,3*7B
$GLGSV,2,2,06,77,24,317,34,85,$GLGSV,1,1,02,72,02,172,,86,51,342,,0*77
$GAGSV,2,1,08,01,13,322,40,03,21,085,41,08,16,137,39,13,61,303,45,2*75
$GAGSV,2,2,08,15,47,047,45,18,55,098,45,21,48,283,46,27,43,201,36,2*72
$GAGSV,2,1,08,01,13,322,37,03,21,085,41,08,16,137,37,13,61,303,45,7*7E
$GAGSV,2,2,08,15,47,047,44,18,55,098,43,21,48,283,41,27,43,201,41,7*77
$GAGSV,1,1,04,05,05,037,,26,14,263,,30,02,165,,34,02,070,,0*73
$GNRMC,035023.00,A,3726.9912553,N,12639.0701035,E,0.007,,210622,,,R,V*0D
$GNVTG,,T,,M,0.007,N,0.013,K,D*3D
$GNGNS,035023.00,3726.9912553,N,12639.0701035,E,RRRR,28,0.71,16.265,17.831,1.0,4095,V*0B
$GNGGA,035023.00,3726.9912553,N,12639.0701035,E,4,12,0.71,16.265,M,17.831,M,1.0,4095*57
$GNGSA,A,3,14,06,19,03,17,01,,,,,,,1.43,0.71,1.24,1*09
$GNGSA,A,3,85,75,70,71,76,77,,,,,,,1.43,0.71,1.24,2*0A
$GNGSA,A,3,15,21,03,27,08,13,01,,,,,,1.43,0.71,1.24,3*0E
$GNGSA,A,3,08,27,07,10,02,28,13,33,03,,,,1.43,0.71,1.24,4*01
$GPGSV,3,1,10,01,23,057,41,03,51,061,45,06,39,268,44,09,07,143,41,1*6C
$GPGSV,3,2,10,14,49,195,41,17,71,357,47,19,50,319,45,28,,,45,1*5A
$GPGSV,3,3,10,41,27,238,31,50,47,179,37,1*63
$GPGSV,2,1,06,01,23,057,36,03,51,061,34,06,39,268,37,09,07,143,26,6*6E
$GPGSV,2,2,06,14,49,195,31,17,71,357,37,6*67
$GPGSV,1,1,04,02,00,257,,04,12,113,,11,04,251,,21,03,069,,0*6A
$GLGSV,2,1,08,69,03,019,09,70,39,069,28,71,33,135,40,75,15,203,30,1*77
$GLGSV,2,2,08,76,39,260,36,77,24,317,22,85,37,052,43,87,11,285,15,1*74
$GLGSV,2,1,06,69,03,019,09,71,33,135,34,75,15,203,41,76,39,260,38,3*72
$GLGSV,2,2,06,77,24,317,34,85,37,052,33,3*76
$GLGSV,1,1,02,72,02,172,,86,51,342,,0*77
$GAGSV,2,1,08,01,13,322,39,03,21,085,42,08,16,137,39,13,61,303,45,2*78
$GAGSV,2,2,08,15,47,047,46,18,55,098,45,21,48,283,46,27,43,201,35,2*72
$GAGSV,2,1,08,01,13,322,40,03,21,085,42,08,16,137,36,13,61,303,46,7*7F
$GAGSV,2,2,08,15,47,047,45,18,55,098,44,21,48,283,42,27,43,201,43,7*70
$GAGSV,1,1,04,05,05,037,,26,14,264,,30,02,165,,34,02,070,,0*74
$GBGSV,3,1,12,01,43,152,38,02,27,236,35,03,44,206,39,04,35,132,34,1*72
$GBGSV,3,2,12,07,75,228,40,08,50,239,39,10,70,272,43,13,40,237,41,1*71
$GBGSV,3,3,12,27,39,300,45,28,67,030,47,33,47,099,44,37,23,230,41,1*71
$GBGSV,2,1,06,02,27,236,42,03,44,206,35,07,75,228,39,08,50,239,41,3*71
$GBGSV,2,2,06,10,70,272,40,13,40,237,37,3*73
$GBGSV,1,1,02,05,08,255,,23,01,186,,0*75
$GNRMC,035024.00,A,3726.9912584,N,12639.0701050,E,0.003,,210622,,,R,V*07
$GNVTG,,T,,M,0.003,N,0.006,K,D*3D
$GNGNS,035024.00,3726.9912584,N,12639.0701050,E,RRRR,28,0.71,16.260,17.831,2.0,4095,V*03
$GNGGA,035024.00,3726.9912584,N,12639.0701050,E,4,12,0.71,16.260,M,17.831,M,2.0,4095*5F
$GNGSA,A,3,14,06,19,03,17,01,,,,,,,1.43,0.71,1.24,1*09
$GNGSA,A,3,85,75,70,71,76,77,,,,,,,1.43,0.71,1.24,2*0A
$GNGSA,A,3,15,21,03,27,08,13,01,,,,,,1.43,0.71,1.24,3*0E
$GNGSA,A,3,08,27,07,10,02,28,13,33,03,,,,1.43,0.71,1.24,4*01
$GPGSV,3,1,10,01,23,057,41,03,51,061,44,06,39,268,43,09,07,143,40,1*6B
$GPGSV,3,2,10,14,49,195,41,17,71,357,46,19,50,319,44,28,,,45,1*5A
$GPGSV,3,3,10,41,27,238,30,50,47,179,37,1*62
$GPGSV,2,1,06,01,23,057,36,03,51,061,33,06,39,268,37,09,07,143,26,6*69
$GPGSV,2,2,06,14,49,195,32,17,71,357,37,6*64
$GPGSV,1,1,04,02,00,257,,04,12,113,,11,04,251,,21,03,069,,0*6A
$GLGSV,2,1,08,69,03,019,11,70,39,069,28,71,33,135,41,75,15,203,30,1*7F
$GLGSV,2,2,08,76,39,260,36,77,24,317,23,85,37,052,45,87,11,285,15,1*73
$GLGSV,2,1,06,69,03,019,11,71,33,135,34,75,15,203,40,76,39,260,38,3*7A
$GLGSV,2,2,06,77,24,317,33,85,37,052,33,3*71
$GLGSV,1,1,02,72,02,172,,86,51,342,,0*77
$GNRMC,035025.00,A,3726.9912576,N,12639.0701070,E,0.013,,210622,,,R,V*08
$GNVTG,,T,,M,0.013,N,0.025,K,D*3D
$GNGNS,035025.00,3726.9912576,N,12639.0701070,E,RRRR,28,0.71,16.271,17.831,2.0,4095,V*0D
$GNGSA,A,3,14,06,19,03,17,01,,,,,,,1.43,0.71,1.24,1*09
$GNGSA,A,3,85,75,70,71,76,77,,,,,,,1.43,0.71,1.24,2*0A
$GNGSA,A,3,15,21,03,27,08,13,01,,,,,,1.43,0.71,1.24,3*0E
$GNGSA,A,3,08,27,07,10,02,28,13,33,03,,,,1.43,0.71,1.24,4*01
$GPGSV,3,1,10,01,23,057,41,03,51,061,44,06,39,268,43,09,07,143,39,1*65
$GPGSV,3,2,10,14,49,195,41,17,71,357,46,19,50,319,44,28,,,45,1*5A
$GPGSV,3,3,10,41,27,238,29,50,47,179,37,1*6A
$GPGSV,2,1,06,01,23,057,36,03,51,061,34,06,39,268,36,09,07,143,27,6*6E
$GPGSV,2,2,06,14,49,195,33,17,71,357,37,6*65
$GPGSV,1,1,04,02,00,257,,04,12,113,,11,04,251,,21,03,069,,0*6A
$GLGSV,2,1,08,69,03,019,11,70,39,069,29,71,33,135,41,75,15,203,31,1*7F
$GLGSV,2,2,08,76,39,260,36,77,24,317,24,85,37,052,45,87,11,285,15,1*74
$GLGSV,2,1,06,69,03,019,09,71,33,135,34,75,15,203,40,76,39,260,38,3*73
$GLGSV,2,2,06,77,24,317,33,85,37,052,33,3*71
$GLGSV,1,1,02,72,02,172,,86,51,342,,0*77
$GAGSV,2,1,08,01,13,322,38,03,21$GAGSV,2,2,08,15,47,047,45,18,55,098,44,21,48,283,45,27,43,201,38,2*7E
$GAGSV,2,1,08,01,13,322,40,03,21,085,42,08,16,137,37,13,61,303,45,7*7D
$GAGSV,2,2,08,15,47,047,44,18,55,098,42,21,48,283,42,27,43,201,44,7*70
$GAGSV,1,1,04,05,05,037,,26,14,264,,30,02,165,,34,02,070,,0*74
$GBGSV,3,1,12,01,43,152,37,02,27,236,34,03,44,206,41,04,35,132,33,1*74
$GBGSV,3,2,12,07,75,228,40,08,50,239,38,10,70,272,43,13,40,237,41,1*70
$GBGSV,3,3,12,27,39,300,44,28,67,030,46,33,47,099,43,37,23,230,41,1*76
$GBGSV,2,1,06,02,27,236,41,03,44,206,37,07,75,228,39,08,50,239,41,3*70
$GBGSV,2,2,06,10,70,272,40,13,40,237,37,3*73
$GBGSV,1,1,02,05,08,255,,23,01,186,,0*75
$GNRMC,035026.00,A,3726.9912556,N,12639.0701058,E,0.014,,210622,,,R,V*04
$GNVTG,,T,,M,0.014,N,0.025,K,D*3A
$GNGNS,035026.00,3726.9912556,N,12639.0701058,E,RRRR,28,0.71,16.263,17.831,2.0,4095,V*05
$GNGGA,035026.00,3726.9912556,N,12639.0701058,E,4,12,0.71,16.263,M,17.831,M,2.0,4095*59
$GNGSA,A,3,14,06,19,03,17,01,,,,,,,1.43,0.71,1.24,1*09
$GNGSA,A,3,85,75,70,71,76,77,,,,,,,1.43,0.71,1.24,2*0A
$GNGSA,A,3,15,21,03,27,08,13,01,,,,,,1.43,0.71,1.24,3*0E
$GNGSA,A,3,08,27,07,10,02,28,13,33,03,,,,1.43,0.71,1.24,4*01
$GPGSV,3,1,10,01,23,057,41,03,51,061,44,06,39,268,43,09,07,143,39,1*65
$GPGSV,3,2,10,14,49,195,41,17,71,357,46,19,50,319,44,28,,,46,1*59
$GPGSV,3,3,10,41,27,238,28,50,47,179,37,1*6B
$GPGSV,2,1,06,01,23,057,36,03,51,061,34,06,39,268,36,09,07,143,27,6*6E
$GPGSV,2,2,06,14,49,195,33,17,71,357,37,6*65
$GPGSV,1,1,04,02,00,257,,04,12,113,,11,04,251,,21,03,069,,0*6A
$GLGSV,2,1,08,69,03,019,12,70,39,069,29,71,33,135,42,75,15,203,32,1*7C
$GLGSV,2,2,08,76,39,260,36,77,24,317,24,85,37,052,45,87,11,285,19,1*78
$GLGSV,2,1,06,69,03,019,11,71,33,135,34,75,15,203,40,76,39,260,38,3*7A
$GLGSV,2,2,06,77,24,317,33,85,37,052,34,3*76
$GLGSV,1,1,02,72,02,172,,86,51,342,,0*77
$GAGSV,2,1,08,01,13,322,38,03,21,085,42,08,16,137,38,13,61,303,44,2*79
$GAGSV,2,2,08,15,47,047,45,18,55,098,44,21,48,283,45,27,43,201,37,2*71
$GAGSV,2,1,08,01,13,322,39,03,21,085,42,08,16,137,37,13,61,303,45,7*73
$GAGSV,2,2,08,15,47,047,44,18,55,098,42,21,48,283,42,27,43,201,44,7*70
$GAGSV,1,1,04,05,05,037,,26,14,264,,30,02,165,,34,02,070,,0*74
$GBGSV,3,1,12,01,43,152,37,02,27,236,34,03,44,206,40,04,35,132,33,1*75
$GBGSV,3,2,12,07,75,228,40,08,50,239,38,10,70,272,43,13,40,237,41,1*70
$GBGSV,3,3,12,27,39,300,44,28,67,030,46,33,48,098,43,37,23,230,41,1*78
$GBGSV,2,1,06,02,27,236,41,03,44,206,37,07,75,228,39,08,50,239,41,3*70
$GBGSV,2,2,06,10,70,272,40,13,40,237,37,3*73
$GBGSV,1,1,02,05,08,255,,23,01,186,,0*75
$GNRMC,035027.00,A,3726.9912557,N,12639.0701052,E,0.007,,210622,,,R,V*0C
$GNVTG,,T,,M,0.007,N,0.013,K,D*3D
$GNGNS,035027.00,3726.9912557,N,12639.0701052,E,RRRR,28,0.71,16.266,17.831,2.0,4095,V*0A
$GNGGA,035027.00,3726.9912557,N,12639.0701052,E,4,12,0.71,16.266,M,17.831,M,2.0,4095*56
$GNGSA,A,3,14,06,19,03,17,01,,,,,,,1.43,0.71,1.24,1*09
$GNGSA,A,3,85,75,70,71,76,77,,,,,,,1.43,0.71,1.24,2*0A
$GNGSA,A,3,15,21,03,27,08,13,01,,,,,,1.43,0.71,1.24,3*0E
$GNGSA,A,3,08,27,07,10,02,28,13,33,03,,,,1.43,0.71,1.24,4*01
$GPGSV,3,1,10,01,23,057,42,03,51,061,45,06,39,268,45,09,07,143,40,1*6F
$GPGSV,3,2,10,14,49,195,43,17,71,357,47,19,50,319,44,28,,,46,1*5A
$GPGSV,2,1,06,01,23,057,35,03,51,061,32,06,39,268,33,09,07,143,27,6*6E
$GPGSV,2,2,06,14,49,195,34,17,71,357,35,6*60
$GPGSV,1,1,04,02,00,257,,04,12,113,,11,04,251,,21,03,069,,0*6A
$GLGSV,2,1,08,69,03,019,09,70,39,069,28,71,33,135,43,75,15,203,30,1*74
$GLGSV,2,2,08,76,39,260,38,77,24,317,25,85,37,052,44,87,11,285,16,1*79
$GLGSV,2,1,06,69,03,019,09,71,33,135,32,75,15,203,37,76,39,260,35,3*78
$GLGSV,2,2,06,77,24,317,31,85,37,052,29,3*78
$GLGSV,1,1,02,72,02,172,,86,51,342,,0*77
$GAGSV,2,1,08,01,13,322,36,03,21,085,40,08,16,137,36,13,61,303,42,2*7D
$GAGSV,2,2,08,15,47,047,43,18,55,098,41,21,48,283,42,27,43,201,36,2*74
$GAGSV,2,1,08,01,13,322,39,03,21,085,42,08,16,137,38,13,61,303,45,7*7C
$GAGSV,2,2,08,15,47,047,44,18,55,098,43,21,48,283,42,27,43,201,45,7*70
$GAGSV,1,1,04,05,05,037,,26,14,264,,30,02,165,,34,02,070,,0*74
$GBGSV,3,1,12,01,43,152,38,02,27,236,36,03,44,206,42,04,35,132,34,1*7D
$GBGSV,3,2,12,07,75,228,40,08,50,239,39,10,70,272,44,13,40,237,43,1*$GBGSV,3,3,12,27,39,300,46,28,67,030,46,33,48,098,43,37,23,229,41,1*72
$GBGSV,2,1,06,02,27,236,38,03,44,206,37,07,75,228,37,08,50,239,39,3*7F
$GBGSV,2,2,06,10,70,272,38,13,40,237,33,3*78
$GBGSV,1,1,02,05,08,255,,23,01,186,,0*75
$GNRMC,035028.00,A,3726.9912556,N,12639.0701068,E,0.006,,210622,,,R,V*0A
$GNVTG,,T,,M,0.006,N,0.011,K,D*3E
$GNGNS,035028.00,3726.9912556,N,12639.0701068,E,RRRR,28,0.71,16.259,17.831,2.0,4095,V*01
$GNGGA,035028.00,3726.9912556,N,12639.0701068,E,4,12,0.71,16.259,M,17.831,M,2.0,4095*5D
$GNGSA,A,3,14,06,19,03,17,01,,,,,,,1.43,0.71,1.24,1*09
$GNGSA,A,3,85,75,70,71,76,77,,,,,,,1.43,0.71,1.24,2*0A
$GNGSA,A,3,08,27,07,10,02,28,13,33,03,,,,1.43,0.71,1.24,4*01
$GPGSV,3,1,10,01,23,057,41,03,51,061,44,06,39,268,44,09,07,143,39,1*62
$GPGSV,3,2,10,14,49,195,42,17,71,357,46,19,50,319,43,28,,,46,1*5D
$GPGSV,3,3,10,41,27,238,27,50,47,179,37,1*64
$GPGSV,2,1,06,01,23,057,36,03,51,061,33,06,39,268,36,09,07,143,27,6*69
$GPGSV,2,2,06,14,49,195,35,17,71,357,36,6*62
$GPGSV,1,1,04,02,00,257,,04,12,113,,11,04,251,,21,03,069,,0*6A
$GLGSV,2,1,08,69,03,019,09,70,39,069,29,71,33,135,41,75,15,203,23,1*75
$GLGSV,2,2,08,76,39,260,37,77,24,317,25,85,37,052,44,87,11,285,18,1*78
$GLGSV,2,1,06,69,03,019,06,71,33,135,31,75,15,203,37,76,39,260,36,3*77
$GLGSV,2,2,06,77,24,317,30,85,37,052,32,3*73
$GLGSV,1,1,02,72,02,172,,86,51,342,,0*77
$GAGSV,2,1,08,01,13,322,40,03,21,085,43,08,16,137,37,13,61,303,44,2*78
$GAGSV,2,2,08,15,47,047,45,18,55,098,42,21,48,283,45,27,43,201,40,2*77
$GAGSV,2,1,08,01,13,322,40,03,21,085,41,08,16,137,37,13,61,303,44,7*7F
$GAGSV,2,2,08,15,$GNRMC,035029.00,A,3726.9912574,N,12639.0701078,E,0.014,,210622,,,R,V*09
$GNVTG,,T,,M,0.014,N,0.026,K,D*39
$GNGNS,035029.00,3726.9912574,N,12639.0701078,E,RRRR,28,0.71,16.250,17.831,2.0,4095,V*08
$GNGGA,035029.00,3726.9912574,N,12639.0701078,E,4,12,0.71,16.250,M,17.831,M,2.0,4095*54
$GNGSA,A,3,14,06,19,03,17,01,,,,,,,1.43,0.71,1.24,1*09
$GNGSA,A,3,85,75,70,71,76,77,,,,,,,1.43,0.71,1.24,2*0A
$GNGSA,A,3,15,21,03,27,08,13,01,,,,,,1.43,0.71,1.24,3*0E
$GNGSA,A,3,08,27,07,10,02,28,13,33,03,,,,1.43,0.71,1.24,4*01
$GPGSV,3,1,09,01,23,057,41,03,51,061,44,06,39,268,44,09,07,143,39,1*6A
$GPGSV,3,2,09,14,49,195,42,17,71,357,46,19,50,319,43,28,,,45,1*56
$GPGSV,3,3,09,50,47,179,37,1*50
$GPGSV,2,1,06,01,23,057,37,03,51,061,33,06,39,268,36,09,07,143,28,6*67
$GPGSV,2,2,06,14,49,195,36,17,71,357,36,6*61
$GPGSV,1,1,04,02,00,257,,04,12,113,,11,04,251,,21,03,069,,0*6A
$GLGSV,2,1,08,69,03,019,08,70,39,069,28,71,33,135,41,75,15,203,26,1*70
$GLGSV,2,2,08,76,39,260,38,77,24,317,25,85,37,052,45,87,11,285,18,1*76
$GLGSV,2,1,06,69,03,019,10,71,33,135,32,75,15,203,39,76,39,260,37,3*7C
$GLGSV,2,2,06,77,24,317,31,85,37,052,33,3*73
$GLGSV,1,1,02,72,02,172,,86,51,342,,0*77
$GAGSV,2,1,08,01,13,322,38,03,21,085,42,08,16,137,37,13,61,303,44,2*76
$GAGSV,2,2,08,15,47,047,44,18,55,098,42,21,48,283,45,27,43,201,39,2*78
$GAGSV,2,1,08,01,13,322,40,03,21,085,41,08,16,137,37,13,61,303,44,7*7F
$GAGSV,2,2,08,15,47,047,44,18,55,098,41,21,48,283,41,27,43,201,44,7*70
$GAGSV,1,1,04,05,05,037,,26,14,264,,30,02,165,,34,02,070,,0*74
$GBGSV,3,1,12,01,43,152,38,02,27,236,34,03,44,206,41,04,35,132,32,1*7A
$GBGSV,3,2,12,07,75,228,40,08,50,239,38,10,70,272,43,13,40,237,42,1*73
$GBGSV,3,3,12,27,39,300,45,28,67,030,45,33,48,098,43,37,23,229,40,1*73
$GBGSV,2,1,06,02,27,236,41,03,44,206,39,07,75,228,40,08,50,239,41,3*70
$GBGSV,2,2,06,10,70,272,41,13,40,237,36,3*73
$GBGSV,1,1,02,05,08,255,,23,01,186,,0*75
$GNRMC,035030.00,A,3726.9912581,N,12639.0700997,E,0.008,,210622,,,R,V*0F
$GNVTG,,T,,M,0.008,N,0.015,K,D*34
$GNGNS,035030.00,3726.9912581,N,12639.0700997,E,RRRR,28,0.71,16.255,17.831,2.0,4095,V*06
$GNGGA,035030.00,3726.9912581,N,12639.0700997,E,4,12,0.71,16.255,M,17.831,M,2.0,4095*5A
$GNGSA,A,3,14,06,19,03,17,01,,,,,,,1.43,0.71,1.24,1*09
$GNGSA,A,3,85,75,70,71,76,77,,,,,,,1.43,0.71,1.24,2*0A
$GNGSA,A,3,15,21,03,27,08,13,01,,,,,,1.43,0.71,1.24,3*0E
$GNGSA,A,3,08,27,07,10,02,28,13,33,03,,,,1.43,0.71,1.24,4*01
$GPGSV,3,1,10,01,23,057,39,03,51,061,44,06,39,268,44,09,07,143,39,1*6D
$GPGSV,2,1,06,01,23,057,38,03,51,061,36,06,39,268,37,09,07,143,28,6*6C
$GPGSV,2,2,06,14,49,195,38,17,71,357,38,6*61
$GPGSV,1,1,04,02,00,257,,04,12,113,,11,04,251,,21,03,069,,0*6A
$GLGSV,2,1,08,69,03,019,10,70,39,069,28,71,33,135,40,75,15,203,28,1*76
$GLGSV,2,2,08,76,39,260,38,77,24,317,25,85,37,052,45,87,11,285,17,1*79
$GNRMC,035031.00,A,3726.9912597,N,12639.0701009,E,0.009,,210622,,,R,V*07
$GNVTG,,T,,M,0.009,N,0.017,K,D*37
$GNGNS,035031.00,3726.9912597,N,12639.0701009,E,RRRR,28,0.71,16.255,17.831,2.0,4095,V*0F
$GNGGA,035031.00,3726.9912597,N,12639.0701009,E,4,12,0.71,16.255,M,17.831,M,2.0,4095*53
$GNGSA,A,3,14,06,19,03,17,01,,,,,,,1.43,0.71,1.24,1*09
$GNGSA,A,3,85,75,70,71,76,77,,,,,,,1.43,0.71,1.24,2*0A
$GNGSA,A,3,15,21,03,27,08,13,01,,,,,,1.43,0.71,1.24,3*0E
$GNGSA,A,3,08,27,07,10,02,28,13,33,03,,,,1.43,0.71,1.24,4*01
$GPGSV,3,1,10,01,23,057,40,03,51,061,43,06,39,268,45,09,07,143,39,1*65
$GPGSV,3,2,10,14,49,195,42,17,71,357,45,19,50,319,43,28,,,45,1*5D
$GPGSV,3,3,10,41,27,238,38,50,47,179,37,1*6A
$GPGSV,2,1,06,01,23,057,40,03,51,061,35,06,39,268,39,09,07,143,27,6*61
$GPGSV,2,2,06,14,49,195,39,17,71,357,39,6*61
$GPGSV,1,1,04,02,00,257,,04,12,113,,11,04,251,,21,03,069,,0*6A
$GLGSV,2,1,08,69,03,019,10,70,39,069,28,71,33,135,40,75,15,203,28,1*76
$GLGSV,2,2,08,76,39,260,38,77,24,317,25,85,37,052,45,87,11,285,14,1*7A
$GLGSV,2,1,06,69,03,019,09,71,33,135,36,75,15,203,42,76,39,260,40,3*7C
$GLGSV,2,2,06,77,24,317,33,85,37,052,37,3*75
$GLGSV,1,1,02,72,02,172,,86,51,342,,0*77
$GAGSV,2,1,08,01,13,322,40,03,21,085,43,08,16,137,39,13,61,303,46,2*74
$GAGSV,2,2,08,15,47,047,46,18,55,098,44,21,48,283,46,27,43,201,42,2*73
$GAGSV,2,1,08,01,13,322,39,03,21,085,42,08,16,137,37,13,61,303,44,7*72
$GAGSV,2,2,08,15,47,047,44,18,55,098,42,21,48,283,41,27,43,201,44,7*73
$GAGSV,1,1,04,05,05,037,,26,14,264,,30,02,165,,34,02,070,,0*74
$GBGSV,3,1,12,01,43,152,37,02,27,236,35,03,44,206,41,04,35,132,32,1*74
$GBGSV,3,2,12,07,75,228,40,08,50,239,38,10,70,272,43,13,40,237,42,1*73
$GBGSV,3,3,12,27,39,300,45,28,67,030,45,33,48,098,43,37,23,229,40,1*73
$GBGSV,2,1,06,02,27,236,42,03,44,206,40,07,75,228,41,08,50,239,42,3*7F
$GBGSV,2,2,06,10,70,272,42,13,40,237,38,3*7E
$GBGSV,1,1,02,05,08,255,,23,01,186,,0*75
$GNRMC,035032.00,A,3726.9912603,N,12639.0701020,E,0.007,,210622,,,R,V*0F
$GNVTG,,T,,M,0.007,N,0.013,K,D*3D
$GNGNS,035032.00,3726.9912603,N,12639.0701020,E,RRRR,28,0.71,16.237,17.831,2.0,4095,V*0D
$GNGGA,035032.00,3726.9912603,N,12639.0701020,E,4,12,0.71,16.237,M,17.831,M,2.0,4095*51
$GNGSA,A,3,14,06,19,03,17,01,,,,,,,1.43,0.71,1.24,1*09
$GNGSA,A,3,85,75,70,71,76,77,,,,,,,1.43,0.71,1.24,2*0A
$GNGSA,A,3,15,21,03,27,08,13,01,,,,,,1.43,0.71,1.24,3*0E
$GNGSA,A,3,08,27,07,10,02,28,13,33,03,,,,1.43,0.71,1.24,4*01
$GPGSV,3,1,10,01,23,057,40,03,51,061,43,06,39,268,45,09,07,143,40,1*6B
$GPGSV,3,2,10,14,49,195,44,17,71,357,46,19,50,319,43,28,,,46,1*5B
$GPGSV,3,3,10,41,27,238,38,50,47,179,38,1*65
$GPGSV,2,1,06,01,23,057,37,03,51,061,34,06,39,268,36,09,07,143,26,6*6E
$GPGSV,2,2,06,14,49,195,38,17,71,357,37,6*6E
$GPGSV,1,1,04,02,00,257,,04,12,113,,11,04,251,,21,03,069,,0*6A
$GLGSV,2,1,08,69,03,019,10,70,39,069,28,71,33,135,40,75,15,203,25,1*7B
$GLGSV,2,2,08,76,39,260,38,77,24,317,25,85,37,052,44,87,11,285,14,1*7B
$GLGSV,2,1,06,69,03,019,09,71,33,135,35,75,15,203,41,76,39,260,39,3*72
$GLGSV,2,2,06,77,24,317,32,85,37,052,36,3*75
$GLGSV,1,1,02,72,02,172,,86,51,342,,0*77
$GAGSV,2,1,08,01,13,322,39,03,21,085,42,08,16,137,37,13,61,303,43,2*70
$GAGSV,2,2,08,15,47,047,45,18,55,098,42,21,48,283,44,27,43,201,41,2*77
$GAGSV,2,1,08,01,13,322,39,03,21,085,42,08,16,137,37,13,61,303,44,7*72
$GAGSV,2,2,08,15,47,047,44,18,55,098,42,21,48,283,43,27,43,201,44,7*71
$GAGSV,1,1,04,05,05,037,,26,14,264,,30,02,165,,34,02,070,,0*74
$GBGSV,3,1,12,01,43,152,38,02,27,236,36,03,44,206,41,04,35,132,33,1*79
$GBGSV,3,2,12,07,75,228,41,08,50,239,38,10,70,272,43,13,40,237,43,1*73
$GBGSV,3,3,12,27,39,300,45,28,67,030,45,33,48,098,43,37,23,229,41,1*72
$GBGSV,2,1,06,02,27,236,40,03,44,206,40,07,75,228,42,08,50,239,41,3*7D
$GBGSV,2,2,06,10,70,272,41,13,40,237,36,3*73
$GNRMC,035033.00,A,3726.9912614,N,12639.0701009,E,0.004,,210622,,,R,V*00
$GNVTG,,T,,M,0.004,N,0.008,K,D*34
$GNGNS,035033.00,3726.9912614,N,12639.0701009,E,RRRR,28,0.71,16.250,17.831,1.0,4095,V*03
$GNGGA,035033.00,3726.9912614,N,12639.0701009,E,4,12,0.71,16.250,M,17.831,M,1.0,4095*5F
$GNGSA,A,3,14,06,19,03,17,01,,,,,,,1.43,0.71,1.24,1*09
$GNGSA,A,3,85,75,70,71,76,77,,,,,,,1.43,0.71,1.24,2*0A
$GNGSA,A,3,15,21,03,27,08,13,01,,,,,,1.43,0.71,1.24,3*0E
$GNGSA,A,3,08,27,07,10,02,28,13,33,03,,,,1.43,0.71,1.24,4*01
$GPGSV,3,1,10,01,23,057,40,03,51,061,43,06,39,268,45,09,07,143,40,1*6B
$GPGSV,3,2,10,14,49,195,43,17,71,357,46,19,50,319,43,28,,,46,1*5C
$GPGSV,3,3,10,41,27,238,38,50,47,179,38,1*65
$GPGSV,2,1,06,01,23,057,38,03,51,061,35,06,39,268,37,09,07,143,26,6*61
$GPGSV,2,2,06,14,49,195,39,17,71,357,37,6*6F
$GPGSV,1,1,04,02,00,257,,04,12,113,,11,04,251,,21,03,069,,0*6A
$GLGSV,2,1,08,69,03,019,04,70,39,069,27,71,33,135,39,75,15,203,20,1*7A
$GLGSV,2,2,08,76,39,260,38,77,24,317,25,85,37,052,44,87,11,285,15,1*7A
$GLGSV,2,1,06,69,03,019,11,71,33,135,34,75,15,203,40,76,39,260,39,3*7B
$GLGSV,2,2,06,77,24,317,32,85,37,052,35,3*76
$GLGSV,1,1,02,72,02,172,,86,51,342,,0*77
$GAGSV,2,1,08,01,13,322,40,03,21,085,42,08,16,137,37,13,61,303,44,2*79
$GAGSV,2,2,08,15,47,047,46,18,55,098,43,21,48,283,44,27,43,201,41,2*75
$GAGSV,2,1,08,01,13,322,40,03,21,085,42,08,16,137,37,13,61,303,44,7*7C
$GAGSV,2,2,08,15,47,047,44,18,55,098,42,21,48,283,42,27,43,201,44,7*70
$GAGSV,1,1,04,05,05,037,,26,14,264,,30,02,165,,34,02,070,,0*74
$GBGSV,3,1,12,01,43,152,38,02,27,236,36,03,44,206,41,04,35,132,33,1*79
$GBGSV,3,2,12,07,75,228,41,08,50,239,39,10,70,272,43,13,40,237,43,1*72
$GBGSV,3,3,12,27,39,300,46,28,67,030,46,33,48,098,44,37,23,229,41,1*75
$GBGSV,2,1,06,02,27,236,40,03,44,206,40,07,75,228,42,08,50,239,41,3*7D
$GBGSV,2,2,06,10,70,272,41,13,40,237,36,3*73
$GBGSV,1,1,02,05,08,255,,23,01,186,,0*75
$GNRMC,035034.00,A,3726.9912582,N,12639.0701007,E,0.003,,210622,,,R,V*02
$GNVTG,,T,,M,0.003,N,0.006,K,D*3D
$GNGNS,035034.00,3726.9912582,N,12639.0701007,E,RRRR,28,0.71,16.244,17.831,2.0,4095,V*00
$GNGGA,035034.00,3726.9912582,N,12639.0701007,E,4,12,0.71,16.244,M,17.831,M,2.0,4095*5C
$GNGSA,A,3,14,06,19,03,17,01,,,,,,,1.43,0.71,1.24,1*09
$GNGSA,A,3,85,75,70,71,76,77,,,,,,,1.43,0.71,1.24,2*0A
$GNGSA,A,3,15,21,03,27,08,13,01,,,,,,1.43,0.71,1.24,3*0E
$GNGSA,A,3,08,27,07,10,02,28,13,33,03,,,,1.43,0.71,1.24,4*01
$GPGSV,3,1,10,01,23,057,40,03,51,061,43,06,39,268,45,09,07,143,40,1*6B
$GPGSV,3,2,10,14,49,195,43,17,71,357,47,19,50,319,43,28,,,46,1*5D
$GPGSV,3,3,10,41,27,238,38,50,47,179,38,1*65
$GPGSV,2,1,06,01,23,057,38,03,51,061,35,06,39,268,37,09,07,143,26,6*61
$GPGSV,2,2,06,14,49,195,39,17,71,357,38,6*60
$GPGSV,1,1,04,02,00,257,,04,12,113,,11,04,251,,21,03,069,,0*6A
$GLGSV,2,1,08,69,03,019,06,70,39,069,27,71,33,135,39,75,15,203,12,1*79
$GLGSV,2,2,08,76,39,260,37,77,24,317,25,85,37,052,44,87,11,285,16,1*76
$GLGSV,2,1,06,69,03,019,11,71,33,135,34,75,15,203,40,76,39,260,38,3*7A
$GLGSV,2,2,06,77,24,317,33,85,37,052,35,3*77
$GLGSV,1,1,02,72,02,172,,86,51,342,,0*77
$GAGSV,2,1,08,01,13,322,40,03,21,085,42,08,16,137,38,13,61,303,44,2*76
$GAGSV,2,2,08,15,47,047,46,18,55,098,43,21,48,283,45,27,43,201,41,2*74
$GAGSV,2,1,08,01,13,322,40,03,21,085,42,08,16,137,38,13,61,303,44,7*73
$GAGSV,2,2,08,15,47,047,44,18,55,098,42,21,48,283,42,27,43,201,44,7*70
$GAGSV,1,1,04,05,05,037,,26,14,264,,30,02,165,,34,02,070,,0*74
$GBGSV,3,1,12,01,43,152,38,02,27,236,35,03,44,206,41,04,35,132,33,1*7A
$GBGSV,3,2,12,07,75,228,41,08,50,239,38,10,70,272,44,13,40,237,43,1*74
$GBGSV,3,3,12,27,39,300,46,28,67,030,46,33,48,098,44,37,23,229,41,1*75
$GBGSV,2,1,06,02,27,236,40,03,44,206,40,07,75,228,42,08,50,239,41,3*7D
$GBGSV,2,2,06,10,70,272,41,13,40,237,35,3*70
$GBGSV,1,1,02,05,08,255,,23,01,186,,0*75
$GNRMC,035035.00,A,3726.9912605,N,12639.0701002,E,0.011,,210622,,,R,V*09
$GNVTG,,T,,M,0.011,N,0.021,K,D*3B
$GNGGA,035035.00,3726.9912605,N,12639.0701002,E,4,12,0.71,16.246,M,17.831,M,2.0,4095*56
$GNGSA,A,3,14,06,19,03,17,01,,,,,,,1.43,0.71,1.24,1*09
$GNGSA,A,3,85,75,70,71,76,77,,,,,,,1.43,0.71,1.24,2*0A
$GNGSA,A,3,15,21,03,27,08,13,01,,,,,,1.43,0.71,1.24,3*0E
$GNGSA,A,3,08,27,07,10,02,28,13,33,03,,,,1.43,0.71,1.24,4*01
$GPGSV,3,1,10,01,23,057,40,03,51,061,44,06,39,268,45,09,07,143,41,1*6D
$GPGSV,3,2,10,14,49,195,42,17,71,357,47,19,50,319,42,28,,,45,1*5E
$GPGSV,3,3,10,41,27,238,39,50,47,179,37,1*6B
$GPGSV,2,1,06,01,23,057,37,03,51,061,36,06,39,268,37,09,07,143,27,6*6C
$GPGSV,2,2,06,14,49,195,38,17,71,357,37,6*6E
$GPGSV,1,1,04,02,00,257,,04,12,113,,11,04,251,,21,03,069,,0*6A
$GLGSV,2,1,08,69,03,019,05,70,39,069,27,71,33,135,39,75,15,203,17,1*7F
$GLGSV,2,2,08,76,39,260,37,77,24,317,25,85,37,052,44,87,11,285,17,1*77
$GLGSV,2,1,06,69,03,019,11,71,33,135,34,75,15,203,40,76,39,260,36,3*74
$GLGSV,2,2,06,77,24,317,33,85,$GLGSV,1,1,02,72,02,172,,86,51,342,,0*77
$GAGSV,2,1,08,01,13,322,41,03,21,085,42,08,16,137,39,13,61,303,44,2*76
$GAGSV,2,2,08,15,47,047,46,18,55,098,44,21,48,283,44,27,43,201,41,2*72
$GAGSV,2,1,08,01,13,322,40,03,21,085,42,08,16,137,38,13,61,303,44,7*73
$GAGSV,2,2,08,15,47,047,44,18,55,098,44,21,48,283,42,27,43,201,44,7*76
$GAGSV,1,1,04,05,05,037,,26,14,264,,30,02,165,,34,02,070,,0*74
$GBGSV,3,1,12,01,43,152,38,02,27,236,36,03,44,206,41,04,35,132,34,1*7E
$GBGSV,3,2,12,07,75,228,42,08,50,239,38,10,70,272,44,13,40,237,43,1*77
$GBGSV,3,3,12,27,39,300,46,28,67,030,46,33,48,098,45,37,23,229,42,1*77
$GBGSV,2,1,06,02,27,236,40,03,44,206,40,07,75,228,42,08,50,239,40,3*7C
$GBGSV,2,2,06,10,70,272,41,13,40,237,35,3*70
$GBGSV,1,1,02,05,08,255,,23,01,186,,0*75
$GNRMC,035036.00,A,3726.9912598,N,12639.0701032,E,0.010,,210622,,,R,V*0F
$GNVTG,,T,,M,0.010,N,0.019,K,D*31
$GNGNS,035036.00,3726.9912598,N,12639.0701032,E,RRRR,28,0.71,16.248,17.831,2.0,4095,V*03
$GNGGA,035036.00,3726.9912598,N,12639.0701032,E,4,12,0.71,16.248,M,17.831,M,2.0,4095*5F
$GNGSA,A,3,14,06,19,03,17,01,,,,,,,1.43,0.71,1.24,1*09
$GNGSA,A,3,85,75,70,71,76,77,,,,,,,1.43,0.71,1.24,2*0A
$GNGSA,A,3,15,21,03,27,08,13,01,,,,,,1.43,0.71,1.24,3*0E
$GNGSA,A,3,08,27,07,10,02,28,13,33,03,,,,1.43,0.71,1.24,4*01
$GLGSV,2,1,08,69,02,018,05,70,39,069,27,71,33,135,39,75,15,203,11,1*79
$GLGSV,2,2,08,76,39,260,37,77,24,317,25,85,37,052,44,87,11,285,18,1*78
$GLGSV,2,1,06,69,02,018,11,71,33,135,33,75,15,203,40,76,39,260,37,3*72
$GLGSV,2,2,06,77,24,317,32,85,37,052,35,3*76
$GLGSV,1,1,02,72,02,172,,86,51,342,,0*77
$GAGSV,2,1,08,01,13,322,41,03,21,085,42,08,16,137,39,13,61,303,44,2*76
$GAGSV,2,2,08,15,47,047,46,18,55,098,44,21,48,283,44,27,43,201,41,2*72
$GAGSV,2,1,08,01,13,322,40,03,21,085,42,08,16,137,37,13,61,303,44,7*7C
$GAGSV,2,2,08,15,47,047,44,18,55,098,43,21,48,283,42,27,43,201,44,7*71
$GAGSV,1,1,04,05,05,037,,26,14,264,,30,02,165,,34,02,070,,0*74
$GBGSV,3,1,12,01,43,152,38,02,27,236,36,03,44,206,41,04,35,132,34,1*7E
$GBGSV,3,2,12,07,75,228,42,08,50,239,38,10,70,272,44,13,40,237,43,1*77
$GBGSV,3,3,12,27,39,300,46,28,67,030,46,33,48,098,44,37,23,229,42,1*76
$GNRMC,035037.00,A,3726.9912579,N,12639.0701005,E,0.005,,210622,,,R,V*01
$GNVTG,,T,,M,0.005,N,0.009,K,D*34
$GNGNS,035037.00,3726.9912579,N,12639.0701005,E,RRRR,28,0.71,16.247,17.831,2.0,4095,V*06
$GNGGA,035037.00,3726.9912579,N,12639.0701005,E,4,12,0.71,16.247,M,17.831,M,2.0,4095*5A
$GNGSA,A,3,14,06,19,03,17,01,,,,,,,1.43,0.71,1.24,1*09
$GNGSA,A,3,85,75,70,71,76,77,,,,,,,1.43,0.71,1.24,2*0A
$GNGSA,A,3,15,21,03,27,08,13,01,,,,,,1.43,0.71,1.24,3*0E
$GNGSA,A,3,08,27,07,10,02,28,13,33,03,,,,1.43,0.71,1.24,4*01
$GPGSV,3,1,10,01,23,057,40,03,51,061,44,06,39,268,44,09,07,143,41,1*6C
$GPGSV,3,2,10,14,49,195,41,17,71,357,46,19,50,319,43,28,,,45,1*5D
$GPGSV,3,3,10,41,27,238,38,50,47,179,36,1*6B
$GPGSV,2,1,06,01,23,057,37,03,51,061,36,06,39,268,37,09,07,143,28,6*63
$GPGSV,2,2,06,14,49,195,38,17,71,357,37,6*6E
$GPGSV,1,1,04,02,00,257,,04,12,113,,11,04,251,,21,03,069,,0*6A
$GLGSV,2,1,08,69,02,018,12,70,39,068,28,71,33,135,39,75,15,203,15,1*75
$GLGSV,2,2,08,76,39,260,36,77,24,317,25,85,37,052,44,87,11,285,18,1*79
$GLGSV,2,1,06,69,02,018,09,71,33,135,32,75,15,203,39,76,39,260,37,3*74
$GLGSV,2,2,06,77,24,317,32,85,37,052,36,3*75
$GLGSV,1,1,02,72,02,172,,86,51,342,,0*77
$GAGSV,2,1,08,01,13,322,41,03,21,085,42,08,16,137,39,13,61,303,44,2*76
$GAGSV,2,2,08,15,47,047,46,18,55,098,44,21,48,283,44,27,43,201,41,2*72
$GAGSV,2,1,08,01,13,322,40,03,21,085,42,08,16,137,38,13,61,303,44,7*73
$GAGSV,2,2,08,15,47,047,44,18,55,098,44,21,48,283,42,27,43,201,44,7*76
$GAGSV,1,1,04,05,05,037,,26,14,264,,30,02,165,,34,02,070,,0*74
$GBGSV,3,1,12,01,43,152,39,02,27,236,36,03,44,206,41,04,35,132,34,1*7F
$GBGSV,3,2,12,07,75,228,42,08,50,239,38,10,70,272,44,13,40,237,42,1*76
$GBGSV,3,3,12,27,39,300,46,28,67,030,46,33,48,098,45,37,23,229,42,1*77
$GBGSV,2,1,06,02,27,236,40,03,44,206,40,07,75,228,42,08,50,239,40,3*7C
$GBGSV,2,2,06,10,70,272,40,13,40,237,35,3*71
$GBGSV,1,1,02,05,08,255,,23,01,186,,0*75
$GNRMC,035038.00,A,3726.9912583,N,12639.0700982,E,0.004,,210622,,,R,V*0D
$GNVTG,,T,,M,0.004,N,0.008,K,D*34
$GNGNS,035038.00,3726.9912583,N,12639.0700982,E,RRRR,28,0.71,16.240,17.831,2.0,4095,V*0C
$GNGGA,035038.00,3726.9912583,N,12639.0700982,E,4,12,0.71,16.240,M,17.831,M,2.0,4095*50
$GNGSA,A,3,14,06,19,03,17,01,,,,,,,1.43,0.71,1.24,1*09
$GNGSA,A,3,85,75,70,71,76,77,,,,,,,1.43,0.71,1.24,2*0A
$GNGSA,A,3,15,21,03,27,08,13,01,,,,,,1.43,0.71,1.24,3*0E
$GNGSA,A,3,08,27,07,10,02,28,13,33,03,,,,1.43,0.71,1.24,4*01
$GPGSV,3,1,10,01,23,057,40,03,51,061,44,06,39,268,44,09,07,143,41,1*6C
$GPGSV,3,2,10,14,49,195,42,17,71,357,46,19,50,319,43,28,,,45,1*5E
$GPGSV,3,3,10,41,27,238,38,50,47,179,36,1*6B
$GPGSV,2,1,06,01,23,057,36,03,51,061,36,06,39,268,36,09,07,143,29,6*62
$GPGSV,2,2,06,14,49,195,37,17,71,357,37,6*61
$GPGSV,1,1,04,02,00,257,,04,12,113,,11,04,251,,21,03,069,,0*6A
$GLGSV,2,1,08,69,02,018,12,70,39,068,28,71,34,134,39,75,15,203,27,1*72
$GLGSV,2,2,08,76,39,260,36,77,24,317,25,85,37,052,44,87,11,285,16,1*77
$GLGSV,2,1,06,69,02,018,09,71,34,134,33,75,15,203,39,76,39,260,37,3*73
$GLGSV,2,2,06,77,24,317,32,85,37,052,36,3*75
$GLGSV,1,1,02,72,02,172,,86,51,342,,0*77
$GAGSV,2,1,08,01,13,322,41,03,21,085,42,08,16,137,39,13,61,303,44,2*76
$GNRMC,035039.00,A,3726.9912588,N,12639.0700994,E,0.008,,210622,,,R,V*0C
$GNVTG,,T,,M,0.008,N,0.015,K,D*34
$GNGNS,035039.00,3726.9912588,N,12639.0700994,E,RRRR,28,0.71,16.245,17.831,2.0,4095,V*04
$GNGGA,035039.00,3726.9912588,N,12639.0700994,E,4,12,0.71,16.245,M,17.831,M,2.0,4095*58
$GNGSA,A,3,14,06,19,03,17,01,,,,,,,1.43,0.71,1.24,1*09
$GNGSA,A,3,85,75,70,71,76,77,,,,,,,1.43,0.71,1.24,2*0A
$GNGSA,A,3,15,21,03,27,08,13,01,,,,,,1.43,0.71,1.24,3*0E
$GNGSA,A,3,08,27,07,10,02,28,13,33,03,,,,1.43,0.71,1.24,4*01
$GPGSV,3,1,10,01,23,057,40,03,51,061,44,06,39,268,44,09,07,143,40,1*6D
$GPGSV,3,2,10,14,49,195,42,17,71,357,46,19,50,319,43,28,,,45,1*5E
$GPGSV,3,3,10,41,27,238,37,50,47,179,36,1*64
$GPGSV,2,1,06,01,23,057,36,03,51,061,36,06,39,268,36,09,07,143,29,6*62
$GPGSV,2,2,06,14,49,195,38,17,71,357,37,6*6E
$GPGSV,1,1,04,02,00,257,,04,12,113,,11,04,251,,21,03,069,,0*6A
$GLGSV,2,1,08,69,02,018,08,70,39,068,28,71,34,134,39,75,15,203,26,1*78
$GLGSV,2,2,08,76,39,260,36,77,24,317,25,85,37,052,44,87,11,285,14,1*75
$GLGSV,2,1,06,69,02,018,12,71,34,134,33,75,15,203,39,76,39,260,37,3*79
$GLGSV,2,2,06,77,24,317,32,85,37,052,36,3*75
$GLGSV,1,1,02,72,03,171,,86,51,342,,0*75
$GAGSV,2,1,08,01,13,322,41,03,21,085,42,08,16,137,39,13,61,303,44,2*76
$GAGSV,2,2,08,15,47,047,46,18,55,098,44,21,48,283,44,27,43,201,41,2*72
$GAGSV,2,1,08,01,13,322,40,03,21,085,42,08,16,137,38,13,61,303,44,7*73
$GAGSV,2,2,08,15,47,047,44,18,55,098,44,21,48,283,42,27,43,201,43,7*71
$GAGSV,1,1,04,05,05,037,,26,14,264,,30,02,165,,34,02,070,,0*74
$GBGSV,3,1,12,01,43,152,39,02,27,236,36,03,44,206,41,04,35,132,34,1*7F
$GBGSV,3,2,12,07,75,228,42,08,50,239,38,10,70,272,44,13,40,237,43,1*77
$GBGSV,3,3,12,27,39,300,46,28,67,030,46,33,48,098,45,37,23,229,42,1*77
$GBGSV,2,1,06,02,27,236,40,03,44,206,40,07,75,228,42,08,50,239,40,3*7C
$GBGSV,2,2,06,10,70,272,40,13,40,237,34,3*70
$GBGSV,1,1,02,05,08,255,,23,01,186,,0*75
$GNRMC,035040.00,A,3726.9912569,N,12639.0701022,E,0.004,,210622,,,R,V*04
$GNVTG,,T,,M,0.004,N,0.007,K,D*3B
$GNGNS,035040.00,3726.9912569,N,12639.0701022,E,RRRR,28,0.71,16.253,17.831,2.0,4095,V*07
$GNGGA,035040.00,3726.9912569,N,12639.0701022,E,4,12,0.71,16.253,M,17.831,M,2.0,4095*5B
$GNGSA,A,3,14,06,19,03,17,01,,,,,,,1.43,0.71,1.24,1*09
$GNGSA,A,3,85,75,70,71,76,77,,,,,,,1.43,0.71,1.24,2*0A
$GNGSA,A,3,15,21,03,27,08,13,01,,,,,,1.43,0.71,1.24,3*0E
$GNGSA,A,3,08,27,07,10,02,28,13,33,03,,,,1.43,0.71,1.24,4*01
$GPGSV,3,1,10,01,23,057,40,03,51,061,45,06,39,268,44,09,07,143,41,1*6D
$GPGSV,3,2,10,14,49,195,42,17,71,357,46,19,50,319,43,28,,,45,1*5E
$GPGSV,3,3,10,41,27,238,37,50,47,179,36,1*64
$GPGSV,2,1,06,01,23,057,36,03,51,061,36,06,39,268,36,09,07,143,28,6*63
$GPGSV,2,2,06,14,49,195,38,17,71,357,37,6*6E
$GPGSV,1,1,04,02,00,257,,04,12,113,,11,04,251,,21,03,069,,0*6A
$GLGSV,2,1,08,69,02,018,01,70,39,068,26,71,34,134,39,75,15,203,27,1*7E
$GLGSV,2,2,08,76,39,260,36,77,24,317,25,85,37,052,44,87,11,285,12,1*73
$GLGSV,2,1,06,69,02,018,12,71,34,134,33,75,15,203,39,76,39,260,37,3*79
$GLGSV,2,2,06,77,24,317,32,85,37,052,36,3*75
$GLGSV,1,1,02,72,03,171,,86,51,342,,0*75
$GAGSV,2,1,08,01,13,322,42,03,21,085,42,08,16,137,39,13,61,303,44,2*75
