$GNRMC,034548.00,A,3727.0608485,N,12639.0858469,E,0.015,,220622,,,R,V*0C
$GNVTG,,T,,M,0.015,N,0.028,K,D*36
$GNGNS,034548.00,3727.0608485,N,12639.0858469,E,RRRR,27,0.61,20.273,17.831,2.0,4095,V*05
$GNGGA,034548.00,3727.0608485,N,12639.0858469,E,4,12,0.61,20.273,M,17.831,M,2.0,4095*56
$GNGSA,A,3,01,19,06,17,03,14,,,,,,,1.19,0.61,1.03,1*02
$GNGSA,A,3,78,76,77,88,87,72,71,,,,,,1.19,0.61,1.03,2*0C
$GNGSA,A,3,30,09,02,11,36,,,,,,,,1.19,0.61,1.03,3*02
$GNGSA,A,3,28,11,23,03,37,08,07,10,34,,,,1.19,0.61,1.03,4*0D
$GPGSV,2,1,08,01,23,057,36,03,51,060,45,06,39,268,39,14,49,195,31,1*65
$GPGSV,2,2,08,17,71,358,48,19,50,319,44,28,,,36,41,27,238,40,1*5A
$GPGSV,2,1,06,01,23,057,29,03,51,060,40,04,,,36,06,39,268,33,6*5B
$GPGSV,2,2,06,14,49,195,35,17,71,358,31,6*6A
$GLGSV,2,1,08,65,05,171,39,71,37,066,43,72,35,130,35,76,17,205,40,1*7E
$GLGSV,2,2,08,77,38,255,25,78,22,320,35,87,48,330,44,88,17,288,27,1*74
$GLGSV,2,1,07,65,05,171,24,71,37,066,40,72,35,130,26,76,17,205,35,3*7C
$GLGSV,2,2,07,77,38,255,31,78,22,320,38,88,17,288,22,3*47
$GLGSV,1,1,02,70,08,024,,86,33,057,,0*7E
$GAGSV,2,1,05,02,53,226,40,09,22,107,41,18,28,300,44,30,36,303,45,2*7B
$GAGSV,2,2,05,36,63,018,48,2*46
$GAGSV,2,1,06,02,53,226,39,09,22,107,36,11,21,062,38,18,28,300,45,7*79
$GAGSV,2,2,06,30,36,303,41,36,63,018,45,7*7E
$GBGSV,2,1,08,07,75,228,40,08,50,238,38,10,70,272,40,11,51,065,46,1*7B
$GBGSV,2,2,08,23,25,238,33,28,31,296,43,34,33,084,46,37,21,293,42,1*73
$GBGSV,2,1,07,02,,,33,03,44,206,33,07,75,228,38,08,50,238,40,3*43
$GBGSV,2,2,07,10,70,272,35,11,51,065,49,13,,,35,3*7A
$GNRMC,034549.00,A,3727.0608505,N,12639.0858499,E,0.001,,220622,,,R,V*0E
$GNVTG,,T,,M,0.001,N,0.003,K,D*3A
$GNGNS,034549.00,3727.0608505,N,12639.0858499,E,RRRR,27,0.61,20.280,17.831,2.0,4095,V*0E
$GNGGA,034549.00,3727.0608505,N,12639.0858499,E,4,12,0.61,20.280,M,17.831,M,2.0,4095*5D
$GNGSA,A,3,01,19,06,17,03,14,,,,,,,1.19,0.61,1.03,1*02
$GNGSA,A,3,78,76,77,88,87,72,71,,,,,,1.19,0.61,1.03,2*0C
$GNGSA,A,3,30,09,02,11,36,,,,,,,,1.19,0.61,1.03,3*02
$GNGSA,A,3,28,11,23,03,37,08,07,10,34,,,,1.19,0.61,1.03,4*0D
$GPGSV,2,1,08,01,23,057,37,03,51,060,46,06,39,268,38,14,49,195,31,1*66
$GPGSV,2,2,08,17,71,358,48,19,51,319,46,28,,,35,41,27,238,40,1*5A
$GPGSV,2,1,06,01,23,057,30,03,51,060,40,04,,,36,06,39,268,34,6*54
$GPGSV,2,2,06,14,49,195,35,17,71,358,31,6*6A
$GLGSV,2,1,08,65,05,171,37,71,37,066,43,72,35,130,37,76,17,205,40,1*72
$GLGSV,2,2,08,77,38,255,25,78,22,320,38,87,48,330,45,88,17,288,27,1*78
$GLGSV,2,1,07,65,05,171,22,71,37,066,41,72,35,130,27,76,17,205,36,3*79
$GLGSV,2,2,07,77,38,255,31,78,22,320,37,88,17,288,22,3*48
$GLGSV,1,1,02,70,08,024,,86,33,057,,0*7E
$GAGSV,2,1,05,02,53,226,40,09,22,107,40,18,28,300,44,30,36,303,45,2*7A
$GAGSV,2,2,05,36,63,018,48,2*46
$GAGSV,2,1,06,02,53,226,39,09,22,107,36,11,21,062,37,18,28,300,45,7*76
$GAGSV,2,2,06,30,36,303,41,36,63,018,45,7*7E
$GBGSV,3,1,09,03,44,206,30,07,75,228,39,08,50,238,38,10,70,272,39,1*7A
$GBGSV,3,2,09,11,51,065,46,23,25,238,35,28,31,296,41,34,33,084,46,1*7B
$GBGSV,3,3,09,37,21,293,42,1*46
$GBGSV,2,1,07,02,,,33,03,44,206,34,07,75,228,37,08,50,238,39,3*45
$GBGSV,2,2,07,10,70,272,34,11,51,065,49,13,,,36,3*78
$GNRMC,034550.00,A,3727.0608478,N,12639.0858473,E,0.027,,220622,,,R,V*0D
$GNVTG,,T,,M,0.027,N,0.050,K,D*38
$GNGNS,034550.00,3727.0608478,N,12639.0858473,E,RRRR,28,0.61,20.269,17.831,2.0,4095,V*01
$GNGGA,034550.00,3727.0608478,N,12639.0858473,E,4,12,0.61,20.269,M,17.831,M,2.0,4095*5D
$GNGSA,A,3,01,19,06,17,03,41,14,,,,,,1.19,0.61,1.03,1*07
$GNGSA,A,3,78,76,77,88,87,72,71,,,,,,1.19,0.61,1.03,2*0C
$GNGSA,A,3,30,09,02,11,36,,,,,,,,1.19,0.61,1.03,3*02
$GNGSA,A,3,28,11,23,03,37,08,07,10,34,,,,1.19,0.61,1.03,4*0D
$GPGSV,2,1,08,01,23,057,35,03,51,060,47,06,39,268,29,14,49,195,35,1*61
$GPGSV,2,2,08,17,71,358,47,19,51,319,38,28,,,35,41,27,238,37,1*5C
$GPGSV,2,1,06,01,23,057,29,03,51,060,39,04,,,36,06,39,268,34,6*52
$GPGSV,2,2,06,14,49,195,35,17,71,358,31,6*6A
$GLGSV,2,1,08,65,05,171,36,71,37,066,44,72,35,130,38,76,17,205,40,1*7B
$GLGSV,2,2,08,77,38,255,23,78,22,320,40,87,48,330,43,88,17,288,36,1*77
$GLGSV,2,1,07,65,05,171,19,71,37,066,43,72,35,130,28,76,17,205,35,3*7F
$GLGSV,2,2,07,77,38,255,31,78,22,320,37,88,17,288,23,3*49
$GLGSV,1,1,02,70,08,024,,86,33,057,,0*7E
$GAGSV,2,1,06,02,53,226,38,09,22,107,38,11,21,062,35,18,28,300,43,2*78
$GAGSV,2,2,06,30,36,303,44,36,63,018,45,2*7E
$GAGSV,2,1,06,02,53,226,40,09,22,107,38,11,21,062,37,18,28,300,47,7*74
$GAGSV,2,2,06,30,36,303,40,36,63,018,44,7*7E
$GBGSV,3,1,09,03,44,206,31,07,75,228,39,08,50,238,35,10,70,272,34,1*7B
$GBGSV,3,2,09,11,51,065,46,23,25,238,33,28,31,296,43,34,33,084,45,1*7C
$GBGSV,3,3,09,37,21,293,43,1*47
$GBGSV,2,1,07,02,,,33,03,44,206,34,07,75,228,38,08,50,238,40,3*44
$GBGSV,2,2,07,10,70,272,34,11,51,065,47,13,,,35,3*75
$GNRMC,034551.00,A,3727.0608467,N,12639.0858456,E,0.010,,220622,,,R,V*01
$GNVTG,,T,,M,0.010,N,0.019,K,D*31
$GNGNS,034551.00,3727.0608467,N,12639.0858456,E,RRRR,28,0.61,20.271,17.831,2.0,4095,V*00
$GNGSA,A,3,01,19,06,17,03,41,14,,,,,,1.19,0.61,1.03,1*07
$GNGSA,A,3,78,76,77,88,87,72,71,,,,,,1.19,0.61,1.03,2*0C
$GNGSA,A,3,30,09,02,11,36,,,,,,,,1.19,0.61,1.03,3*02
$GNGSA,A,3,28,11,23,03,37,08,07,10,34,,,,1.19,0.61,1.03,4*0D
$GPGSV,2,1,08,01,23,057,35,03,51,060,47,06,39,268,31,14,49,195,34,1*69
$GPGSV,2,2,08,17,71,358,48,19,51,319,44,28,,,35,41,27,238,41,1*59
$GPGSV,2,1,06,01,23,057,29,03,51,060,39,04,,,35,06,39,268,33,6*56
$GPGSV,2,2,06,14,49,195,34,17,71,358,31,6*6B
$GPGSV,1,1,01,40,06,259,,0*58
$GLGSV,2,1,08,65,05,171,37,71,37,066,43,72,35,130,38,76,17,205,40,1*7D
$GLGSV,2,2,08,77,38,255,21,78,22,320,38,87,48,330,45,88,17,288,36,1*7C
$GLGSV,2,1,07,65,05,171,18,71,37,066,42,72,35,130,28,76,17,205,36,3*7C
$GLGSV,2,2,07,77,38,255,31,78,22,320,37,88,17,288,26,3*4C
$GLGSV,1,1,02,70,08,024,,86,33,057,,0*7E
$GAGSV,2,1,06,02,53,226,39,09,22,107,38,11,21,062,34,18,28,300,42,2*79
$GAGSV,2,2,06,30,36,303,44,36,6$GAGSV,2,1,06,02,53,226,39,09,22,107,38,11,21,062,37,18,28,300,44,7*79
$GAGSV,2,2,06,30,36,303,41,36,63,018,45,7*7E
$GBGSV,3,1,09,03,44,206,31,07,75,228,39,08,50,238,35,10,70,272,35,1*7A
$GBGSV,3,2,09,11,51,065,46,23,25,238,35,28,31,296,44,34,33,084,45,1*7D
$GBGSV,3,3,09,37,21,293,44,1*40
$GBGSV,2,1,07,02,,,31,03,44,206,33,07,75,228,37,08,50,238,39,3*40
$GBGSV,2,2,07,10,70,272,34,11,51,065,46,13,,,33,3*72
$GNRMC,034552.00,A,3727.0608449,N,12639.0858480,E,0.009,,220622,,,R,V*0D
$GNVTG,,T,,M,0.009,N,0.017,K,D*37
$GNGNS,034552.00,3727.0608449,N,12639.0858480,E,RRRR,28,0.61,20.287,17.831,2.0,4095,V*0D
$GNGGA,034552.00,3727.0608449,N,12639.0858480,E,4,12,0.61,20.287,M,17.831,M,2.0,4095*51
$GNGSA,A,3,01,19,06,17,03,41,14,,,,,,1.19,0.61,1.03,1*07
$GNGSA,A,3,78,76,77,88,87,72,71,,,,,,1.19,0.61,1.03,2*0C
$GNGSA,A,3,30,09,02,11,36,,,,,,,,1.19,0.61,1.03,3*02
$GNGSA,A,3,28,11,23,03,37,08,07,10,34,,,,1.19,0.61,1.03,4*0D
$GPGSV,2,1,08,01,23,057,35,03,51,060,47,06,39,268,32,14,49,195,33,1*6D
$GPGSV,2,2,08,17,71,358,47,19,51,319,44,28,,,35,41,27,238,39,1*59
$GPGSV,2,1,06,01,23,057,29,03,51,060,39,04,,,36,06,39,268,34,6*52
$GPGSV,2,2,06,14,49,195,34,17,71,358,30,6*6A
$GPGSV,1,1,01,40,06,259,,0*58
$GLGSV,2,1,08,65,05,171,37,71,37,066,42,72,35,130,37,76,17,205,41,1*72
$GLGSV,2,2,08,77,38,255,21,78,22,320,40,87,48,330,45,88,17,288,34,1*71
$GLGSV,2,1,07,65,05,171,18,71,37,066,41,72,35,130,28,76,17,205,36,3*7F
$GLGSV,2,2,07,77,38,255,32,78,22,320,38,88,17,288,26,3*40
$GLGSV,1,1,02,70,08,024,,86,33,057,,0*7E
$GAGSV,2,1,06,02,53,226,39,09,22,107,39,11,21,062,34,18,28,300,43,2*79
$GAGSV,2,2,06,30,36,303,45,36,63,018,46,2*7C
$GAGSV,2,1,06,02,53,226,40,09,22,107,40,11,21,062,38,18,28,300,46,7*75
$GAGSV,2,2,06,30,36,303,40,36,63,018,44,7*7E
$GBGSV,3,1,09,03,44,206,31,07,75,228,38,08,50,238,36,10,70,272,35,1*78
$GBGSV,3,2,09,11,51,065,46,23,25,238,35,28,31,296,43,34,33,084,46,1*79
$GBGSV,3,3,09,37,21,293,42,1*46
$GBGSV,2,1,07,02,,,34,03,44,206,33,07,75,228,37,08,50,238,39,3*45
$GBGSV,2,2,07,10,70,272,34,11,51,065,46,13,,,34,3*75
$GNRMC,034553.00,A,3727.0608478,N,12639.0858480,E,0.018,,220622,,,R,V*0E
$GNVTG,,T,,M,0.018,N,0.033,K,D*31
$GNGNS,034553.00,3727.0608478,N,12639.0858480,E,RRRR,28,0.61,20.292,17.831,1.0,4095,V*09
$GNGGA,034553.00,3727.0608478,N,12639.0858480,E,4,12,0.61,20.292,M,17.831,M,1.0,4095*55
$GNGSA,A,3,01,19,06,17,03,41,14,,,,,,1.19,0.61,1.03,1*07
$GNGSA,A,3,78,76,77,88,87,72,71,,,,,,1.19,0.61,1.03,2*0C
$GNGSA,A,3,30,09,02,11,36,,,,,,,,1.19,0.61,1.03,3*02
$GNGSA,A,3,28,11,23,03,37,08,07,10,34,,,,1.19,0.61,1.03,4*0D
$GPGSV,2,1,08,01,23,057,35,03,51,060,47,06,39,268,33,14,49,195,32,1*6D
$GPGSV,2,2,08,17,71,358,47,19,51,319,46,28,,,34,41,27,238,39,1*5A
$GPGSV,2,1,06,01,23,057,30,03,51,060,39,04,,,36,06,39,268,34,6*5A
$GPGSV,2,2,06,14,49,195,34,17,71,358,30,6*6A
$GPGSV,1,1,01,40,06,259,,0*58
$GLGSV,2,1,08,65,05,171,36,71,37,066,41,72,35,130,37,76,17,205,40,1*71
$GLGSV,2,2,08,77,38,255,22,78,22,320,38,87,48,330,45,88,17,288,34,1*7D
$GLGSV,2,1,07,65,05,171,19,71,37,066,41,72,35,130,28,76,17,205,37,3*7F
$GLGSV,2,2,07,77,38,255,33,78,22,320,36,88,17,288,26,3*4F
$GLGSV,1,1,02,70,08,024,,86,33,057,,0*7E
$GAGSV,2,1,06,02,53,226,39,09,22,107,39,11,21,062,34,18,28,300,42,2*78
$GAGSV,2,2,06,30,36,303,44,36,63,018,46,2*7D
$GAGSV,2,1,06,02,53,226,40,09,22,107,40,11,21,062,38,18,28,300,45,7*76
$GAGSV,2,2,06,30,36,303,40,36,63,018,45,7*7F
$GBGSV,3,1,09,03,44,206,31,07,75,228,38,08,50,238,37,10,70,272,37,1*7B
$GBGSV,3,2,09,11,51,065,47,23,25,238,34,28,31,296,43,34,33,084,46,1*79
$GBGSV,3,3,09,37,21,293,43,1*47
$GBGSV,2,1,07,02,,,36,03,44,206,33,07,75,228,37,08,50,238,38,3*46
$GBGSV,2,2,07,10,70,272,34,11,51,065,45,13,,,32,3*70
$GNRMC,034554.00,A,3727.0608481,N,12639.0858464,E,0.002,,220622,,,R,V*0E
$GNVTG,,T,,M,0.002,N,0.004,K,D*3E
$GNGNS,034554.00,3727.0608481,N,12639.0858464,E,RRRR,28,0.61,20.288,17.831,2.0,4095,V*0A
$GNGGA,034554.00,3727.0608481,N,12639.0858464,E,4,12,0.61,20.288,M,17.831,M,2.0,4095*56
$GNGSA,A,3,01,19,06,17,03,41,14,,,,,,1.19,0.61,1.03,1*07
$GNGSA,A,3,78,76,77,88,87,72,71,,,,,,1.19,0.61,1.03,2*0C
$GNGSA,A,3,30,09,02,11,36,,,,,,,,1.19,0.61,1.03,3*02
$GNGSA,A,3,28,11,23,03,37,08,07,10,34,,,,1.19,0.61,1.03,4*0D
$GPGSV,2,1,08,01,23,057,35,03,51,060,46,06,39,268,32,14,49,195,29,1*67
$GPGSV,2,2,08,17,71,358,48,19,51,319,45,28,,,35,41,27,238,41,1*58
$GPGSV,2,1,06,01,23,057,30,03,51,060,39,04,,,36,06,39,268,34,6*5A
$GPGSV,2,2,06,14,49,195,35,17,71,358,30,6*6B
$GPGSV,1,1,01,40,06,259,,0*58
$GLGSV,2,1,08,65,05,171,36,71,37,066,41,72,35,130,37,76,17,205,41,1*70
$GLGSV,2,2,08,77,38,255,23,78,22,320,39,87,48,330,44,88,17,288,35,1*7D
$GLGSV,2,1,07,65,05,171,19,71,37,066,41,72,35,130,28,76,17,205,36,3*7E
$GLGSV,2,2,07,77,38,255,32,78,22,320,37,88,17,288,26,3*4F
$GLGSV,1,1,02,70,08,024,,86,33,057,,0*7E
$GAGSV,2,1,06,02,53,226,38,09,22,107,39,11,21,062,33,18,28,300,42,2*7E
$GAGSV,2,2,06,30,36,303,44,36,63,018,46,2*7D
$GAGSV,2,1,06,02,53,226,39,09,22,107,40,11,21,062,38,18,28,300,46,7*7B
$GAGSV,2,2,06,30,36,303,40,36,63,018,44,7*7E
$GBGSV,3,1,09,03,44,206,32,07,75,228,38,08,50,238,38,10,70,272,37,1*77
$GBGSV,3,2,09,11,51,065,47,23,25,238,38,28,31,296,42,34,33,084,46,1*74
$GBGSV,3,3,09,37,21,293,43,1*47
$GBGSV,2,1,07,02,,,36,03,44,206,33,07,75,228,37,08,50,238,40,3*49
$GBGSV,2,2,07,10,70,272,34,11,51,065,46,13,,,34,3*75
$GNRMC,034555.00,A,3727.0608469,N,12639.0858461,E,0.007,,220622,,,R,V*09
$GNVTG,,T,,M,0.007,N,0.013,K,D*3D
$GNGNS,034555.00,3727.0608469,N,12639.0858461,E,RRRR,28,0.61,20.277,17.831,2.0,4095,V*08
$GNGGA,034555.00,3727.0608469,N,12639.0858461,E,4,12,0.61,20.277,M,17.831,M,2.0,4095*54
$GNGSA,A,3,01,19,06,17,03,41,14,,,,,,1.19,0.61,1.03,1*07
$GNGSA,A,3,78,76,77,88,87,72,71,,,,,,1.19,0.61,1.03,2*0C
$GNGSA,A,3,30,09,02,11,36,,,,,,,,1.19,0.61,1.03,3*02
$GNGSA,A,3,28,11,23,03,37,08,07,10,34,,,,1.19,0.61,1.03,4*0D
$GPGSV,2,1,08,01,23,057,35,03,51,060,46,06,39,268,29,14,49,195,30,1*65
$GPGSV,2,2,08,17,71,358,48,19,51,319,45,28,,,35,41,27,238,39,1*57
$GPGSV,2,1,06,01,23,057,30,03,51,060,39,04,,,36,06,39,268,33,6*5D
$GPGSV,2,2,06,14,49,195,35,17,71,358,31,6*6A
$GPGSV,1,1,01,40,06,259,,0*58
$GLGSV,2,1,08,65,05,171,36,71,37,066,41,72,35,130,37,76,17,205,41,1*70
$GLGSV,2,2,08,77,38,255,22,78,22,320,38,87,48,330,44,88,17,288,34,1*7C
$GLGSV,2,1,07,65,05,171,19,71,37,066,41,72,35,130,29,76,17,205,36,3*7F
$GLGSV,2,2,07,77,38,255,32,78,22,320,37,88,17,288,25,3*4C
$GLGSV,1,1,02,70,08,024,,86,33,057,,0*7E
$GAGSV,2,1,06,02,53,226,39,09,22,107,39,11,21,062,33,18,28,300,42,2*7F
$GAGSV,2,2,06,30,36,303,44,36,63,018,47,2*7C
$GAGSV,2,1,06,02,53,226,40,09,22,107,39,11,21,062,38,18,28,300,46,7*7B
$GAGSV,2,2,06,30,36,303,39,36,63,018,45,7*71
$GBGSV,3,1,09,03,44,206,33,07,75,228,38,08,50,238,37,10,70,272,37,1*79
$GBGSV,3,2,09,11,51,065,47,23,25,238,35,28,31,296,43,34,33,084,46,1*78
$GBGSV,3,3,09,37,21,293,43,1*47
$GBGSV,2,1,07,02,,,32,03,44,206,33,07,75,228,37,08,50,238,40,3*4D
$GBGSV,2,2,07,10,70,272,34,11,51,065,47,13,,,33,3*73
$GNRMC,034556.00,A,3727.0608499,N,12639.0858489,E,0.019,,220622,,,R,V*0C
$GNVTG,,T,,M,0.019,N,0.035,K,D*36
$GNGNS,034556.00,3727.0608499,N,12639.0858489,E,RRRR,28,0.61,20.290,17.831,2.0,4095,V*0B
$GNGGA,034556.00,3727.0608499,N,12639.0858489,E,4,12,0.61,20.290,M,17.831,M,2.0,4095*57
$GNGSA,A,3,01,19,06,17,03,41,14,,,,,,1.19,0.61,1.03,1*07
$GNGSA,A,3,78,76,77,88,87,72,71,,,,,,1.19,0.61,1.03,2*0C
$GNGSA,A,3,30,09,02,11,36,,,,,,,,1.19,0.61,1.03,3*02
$GNGSA,A,3,28,11,23,03,37,08,07,10,34,,,,1.19,0.61,1.03,4*0D
$GPGSV,2,1,08,01,23,057,37,03,51,060,46,06,39,268,22,14,49,195,32,1*6E
$GPGSV,2,1,06,01,23,057,30,03,51,060,40,04,,,36,06,39,268,34,6*54
$GPGSV,2,2,06,14,49,195,35,17,71,358,31,6*6A
$GPGSV,1,1,01,40,06,259,,0*58
$GLGSV,2,1,08,65,05,171,36,71,37,066,41,72,35,130,37,76,17,205,39,1*7F
$GLGSV,2,2,08,77,38,255,22,78,22,320,36,87,48,330,44,88,17,288,31,1*77
$GLGSV,2,1,07,65,05,171,19,71,37,066,41,72,35,130,29,76,17,205,35,3*7C
$GLGSV,2,2,07,77,38,255,32,78,22,320,38,88,17,288,25,3*43
$GLGSV,1,1,02,70,08,024,,86,33,057,,0*7E
$GAGSV,2,1,06,02,53,226,39,09,22,107,38,11,21,062,33,18,28,300,43,2*7F
$GAGSV,2,2,06,30,36,303,45,36,63,018,47,2*7D
$GAGSV,2,1,06,02,53,226,39,09,22,107,39,11,21,062,38,18,28,300,45,7*76
$GAGSV,2,2,06,30,36,303,40,36,63,018,45,7*7F
$GBGSV,3,1,09,03,44,206,31,07,75,228,39,08,50,238,37,10,70,272,37,1*7A
$GBGSV,3,2,09,11,51,065,47,23,25,238,34,28,31,296,42,34,33,084,46,1*78
$GBGSV,3,3,09,37,21,293,41,1*45
$GBGSV,2,1,07,02,,,32,03,44,206,34,07,75,228,38,08,50,238,39,3*4B
$GBGSV,2,2,07,10$GNRMC,034557.00,A,3727.0608525,N,12639.0858468,E,0.026,,220622,,,R,V*08
$GNVTG,,T,,M,0.026,N,0.048,K,D*30
$GNGNS,034557.00,3727.0608525,N,12639.0858468,E,RRRR,28,0.61,20.284,17.831,2.0,4095,V*06
$GNGGA,034557.00,3727.0608525,N,12639.0858468,E,4,12,0.61,20.284,M,17.831,M,2.0,4095*5A
$GNGSA,A,3,01,19,06,17,03,41,14,,,,,,1.19,0.61,1.03,1*07
$GNGSA,A,3,78,76,77,88,87,72,71,,,,,,1.19,0.61,1.03,2*0C
$GNGSA,A,3,30,09,02,11,36,,,,,,,,1.19,0.61,1.03,3*02
$GNGSA,A,3,28,11,23,03,37,08,07,10,34,,,,1.19,0.61,1.03,4*0D
$GPGSV,2,1,08,01,23,057,37,03,51,060,46,06,39,268,34,14,49,195,32,1*69
$GPGSV,2,2,08,17,71,358,48,19,51,319,45,28,,,35,41,27,238,38,1*56
$GPGSV,2,1,06,01,23,057,30,03,51,060,40,04,,,36,06,39,268,33,6*53
$GPGSV,2,2,06,14,49,195,35,17,71,358,31,6*6A
$GPGSV,1,1,01,40,06,259,,0*58
$GLGSV,2,1,08,65,05,171,37,71,37,066,42,72,35,130,39,76,17,205,40,1*7D
$GLGSV,2,2,08,77,38,255,21,78,22,320,36,87,48,330,44,88,17,288,30,1*75
$GLGSV,2,1,07,65,05,171,17,71,37,066,41,72,35,130,29,76,17,205,35,3*72
$GLGSV,2,2,07,77,38,255,33,78,22,320,38,88,17,288,25,3*42
$GLGSV,1,1,02,70,08,024,,86,33,057,,0*7E
$GAGSV,2,1,06,02,53,226,39,09,22,107,39,11,21,062,34,18,28,300,42,2*78
$GAGSV,2,2,06,30,36,303,44,36,63,018,46,2*7D
$GAGSV,2,1,06,02,53,226,40,09,22,107,38,11,21,062,38,18,28,300,43,7*7F
$GAGSV,2,2,06,30,36,303,40,36,63,018,45,7*7F
$GBGSV,3,1,09,03,44,206,30,07,75,228,39,08,50,238,37,10,70,272,38,1*74
$GNRMC,034558.00,A,3727.0608527,N,12639.0858485,E,0.010,,220622,,,R,V*03
$GNVTG,,T,,M,0.010,N,0.018,K,D*30
$GNGNS,034558.00,3727.0608527,N,12639.0858485,E,RRRR,28,0.61,20.247,17.831,2.0,4095,V*07
$GNGGA,034558.00,3727.0608527,N,12639.0858485,E,4,12,0.61,20.247,M,17.831,M,2.0,4095*5B
$GNGSA,A,3,01,19,06,17,03,41,14,,,,,,1.19,0.61,1.03,1*07
$GNGSA,A,3,78,76,77,88,87,72,71,,,,,,1.19,0.61,1.03,2*0C
$GNGSA,A,3,30,09,02,11,36,,,,,,,,1.19,0.61,1.03,3*02
$GNGSA,A,3,28,11,23,03,37,08,07,10,34,,,,1.19,0.61,1.03,4*0D
$GPGSV,2,1,08,01,23,057,36,03,51,060,47,06,39,268,33,14,49,195,32,1*6E
$GPGSV,2,2,08,17,71,358,47,19,51,319,45,28,,,36,41,27,238,39,1*5B
$GPGSV,2,1,06,01,23,057,31,03,51,060,39,04,,,36,06,39,268,35,6*5A
$GPGSV,2,2,06,14,49,195,34,17,71,358,31,6*6B
$GPGSV,1,1,01,40,06,259,,0*58
$GLGSV,2,1,08,65,05,171,38,71,37,066,42,72,35,130,39,76,17,205,40,1*72
$GLGSV,2,2,08,77,38,255,21,78,22,320,37,87,48,330,44,88,17,288,33,1*77
$GLGSV,2,1,07,65,05,171,19,71,37,066,41,72,35,130,29,76,17,205,35,3*7C
$GLGSV,2,2,07,77,38,255,33,78,22,320,34,88,17,288,26,3*4D
$GLGSV,1,1,02,70,08,024,,86,33,057,,0*7E
$GAGSV,2,1,06,02,53,226,38,09,22,107,39,11,21,062,34,18,28,300,44,2*7F
$GAGSV,2,2,06,30,36,303,45,36,63,018,47,2*7D
$GAGSV,2,1,06,02,53,226,40,09,22,107,40,11,21,062,37,18,28,300,46,7*7A
$GAGSV,2,2,06,30,36,303,40,36,63,018,44,7*7E
$GBGSV,3,1,09,03,44,206,31,07,75,228,38,08,50,238,36,10,70,272,37,1*7A
$GBGSV,3,2,09,11,51,065,47,23,25,238,38,28,31,296,43,34,33,084,46,1*75
$GBGSV,3,3,09,37,21,293,43,1*47
$GBGSV,2,1,08,02,,,36,03,44,206,35,07,75,228,39,08,50,238,41,3*4F
$GBGSV,2,2,08,10,70,272,36,11,51,065,47,13,,,37,23,25,238,17,3*43
$GNRMC,034559.00,A,3727.0608495,N,12639.0858515,E,0.015,,220622,,,R,V*07
$GNVTG,,T,,M,0.015,N,0.028,K,D*36
$GNGGA,034559.00,3727.0608495,N,12639.0858515,E,4,12,0.61,20.253,M,17.831,M,2.0,4095*5F
$GNGSA,A,3,01,19,06,17,03,41,14,,,,,,1.19,0.61,1.03,1*07
$GNGSA,A,3,78,76,77,88,87,72,71,,,,,,1.19,0.61,1.03,2*0C
$GNGSA,A,3,30,09,02,11,36,,,,,,,,1.19,0.61,1.03,3*02
$GNGSA,A,3,28,11,23,03,37,08,07,10,34,,,,1.19,0.61,1.03,4*0D
$GPGSV,2,1,08,01,23,057,36,03,51,060,46,06,39,268,33,14,49,195,33,1*6E
$GPGSV,2,2,08,17,71,358,47,19,51,319,46,28,,,36,41,27,238,39,1*58
$GPGSV,2,1,06,01,23,057,30,03,51,060,39,04,,,36,06,39,268,34,6*5A
$GPGSV,2,2,06,14,49,195,33,17,71,358,31,6*6C
$GPGSV,1,1,01,40,06,259,,0*58
$GLGSV,2,1,08,65,05,171,38,71,37,066,42,72,35,130,37,76,17,205,41,1*7D
$GLGSV,2,2,08,77,38,255,21,78,22,320,40,87,48,330,44,88,17,288,33,1*77
$GLGSV,2,1,07,65,05,171,20,71,37,066,41,72,35,130,29,76,17,205,35,3*76
$GLGSV,2,2,07,77,38,255,33,78,22,320,38,88,17,288,24,3*43
$GLGSV,1,1,02,70,08,024,,86,33,057,,0*7E
$GAGSV,2,1,06$GAGSV,2,2,06,30,36,303,45,36,63,018,46,2*7C
$GAGSV,2,1,06,02,53,226,39,09,22,107,40,11,21,062,37,18,28,300,45,7*77
$GAGSV,2,2,06,30,36,303,41,36,63,018,44,7*7F
$GBGSV,3,1,09,03,44,206,31,07,75,228,38,08,50,238,36,10,70,272,37,1*7A
$GBGSV,3,2,09,11,51,065,46,23,25,238,37,28,31,296,44,34,33,084,46,1*7C
$GBGSV,3,3,09,37,21,293,43,1*47
$GBGSV,2,1,08,02,,,34,03,44,206,34,07,75,228,39,08,50,238,41,3*4C
$GBGSV,2,2,08,10,70,272,35,11,51,065,47,13,,,36,23,25,238,14,3*42
$GNRMC,034600.00,A,3727.0608497,N,12639.0858517,E,0.006,,220622,,,R,V*0A
$GNVTG,,T,,M,0.006,N,0.012,K,D*3D
$GNGNS,034600.00,3727.0608497,N,12639.0858517,E,RRRR,28,0.61,20.261,17.831,2.0,4095,V*0D
$GNGGA,034600.00,3727.0608497,N,12639.0858517,E,4,12,0.61,20.261,M,17.831,M,2.0,4095*51
$GNGSA,A,3,01,19,06,17,03,41,14,,,,,,1.19,0.61,1.03,1*07
$GNGSA,A,3,78,76,77,88,87,72,71,,,,,,1.19,0.61,1.03,2*0C
$GNGSA,A,3,30,09,02,11,36,,,,,,,,1.19,0.61,1.03,3*02
$GNGSA,A,3,28,11,23,03,37,08,07,10,34,,,,1.19,0.61,1.03,4*0D
$GPGSV,2,1,08,01,23,057,36,03,51,060,47,06,39,268,34,14,49,195,34,1*6F
$GPGSV,2,2,08,17,71,358,48,19,51,319,46,28,,,38,41,27,238,40,1*57
$GPGSV,2,1,06,01,23,057,30,03,51,060,39,04,,,36,06,39,268,35,6*5B
$GPGSV,2,2,06,14,49,195,33,17,71,358,31,6*6C
$GPGSV,1,1,01,40,06,259,,0*58
$GLGSV,2,1,08,65,05,171,38,71,37,066,41,72,35,130,38,76,17,205,42,1*72
$GLGSV,2,2,08,77,38,255,21,78,22,320,38,87,48,330,46,88,17,288,27,1*7F
$GLGSV,2,1,07,65,05,171,20,71,37,066,40,72,35,130,28,76,17,205,34,3*77
$GLGSV,2,2,07,77,38,255,32,78,22,320,36,88,17,288,23,3*4B
$GLGSV,1,1,02,70,08,024,,86,33,057,,0*7E
$GAGSV,2,1,06,02,53,226,39,09,22,107,40,11,21,062,34,18,28,300,44,2*70
$GAGSV,2,2,06,30,36,303,45,36,63,018,47,2*7D
$GAGSV,2,1,06,02,53,226,40,09,22,107,40,11,21,062,37,18,28,300,43,7*7F
$GAGSV,2,2,06,30,36,303,38,36,63,018,45,7*70
$GBGSV,3,1,09,03,44,206,30,07,75,228,38,08,50,238,37,10,70,272,37,1*7A
$GBGSV,3,2,09,11,51,065,47,23,25,238,35,28,31,296,43,34,33,084,47,1*79
$GBGSV,3,3,09,37,21,293,44,1*40
$GBGSV,2,1,08,02,,,34,03,44,206,34,07,75,228,38,08,50,238,40,3*4C
$GBGSV,2,2,08,10,70,272,35,11,51,065,48,13,,,36,23,25,238,11,3*48
$GNRMC,034601.00,A,3727.0608530,N,12639.0858527,E,0.039,,220622,,,R,V*08
$GNVTG,,T,,M,0.039,N,0.072,K,D*37
$GNGNS,034601.00,3727.0608530,N,12639.0858527,E,RRRR,28,0.61,20.250,17.831,2.0,4095,V*01
$GNGGA,034601.00,3727.0608530,N,12639.0858527,E,4,12,0.61,20.250,M,17.831,M,2.0,4095*5D
$GNGSA,A,3,01,19,06,17,03,41,14,,,,,,1.19,0.61,1.03,1*07
$GNGSA,A,3,78,76,77,88,87,72,71,,,,,,1.19,0.61,1.03,2*0C
$GNGSA,A,3,30,09,02,11,36,,,,,,,,1.19,0.61,1.03,3*02
$GNGSA,A,3,28,11,23,03,37,08,07,10,34,,,,1.19,0.61,1.03,4*0D
$GPGSV,2,1,08,01,23,057,36,03,51,060,46,06,39,268,33,14,49,195,32,1*6F
$GPGSV,2,2,08,17,71,358,47,19,51,319,45,28,,,35,41,27,238,39,1*58
$GPGSV,2,1,06,01,23,057,30,03,51,060,40,04,,,37,06,39,268,36,6*57
$GPGSV,2,2,06,14,49,195,33,17,71,358,31,6*6C
$GPGSV,1,1,01,40,06,259,,0*58
$GLGSV,2,1,08,65,05,171,38,71,37,066,41,72,35,130,37,76,17,205,41,1*7E
$GLGSV,2,2,08,77,38,255,22,78,22,320,38,87,48,330,46,88,17,288,32,1*78
$GLGSV,2,1,07,65,05,171,19,71,37,066,40,72,35,130,29,76,17,205,34,3*7C
$GLGSV,2,2,07,77,38,255,32,78,22,320,37,88,17,288,23,3*4A
$GLGSV,1,1,02,70,08,024,,86,33,057,,0*7E
$GAGSV,2,1,06,02,53,226,37,09,22,107,40,11,21,062,34,18,28,300,43,2*79
$GAGSV,2,2,06,30,36,303,45,36,63,018,46,2*7C
$GAGSV,2,1,06,02,53,226,40,09,22,107,40,11,21,062,37,18,28,300,44,7*78
$GAGSV,2,2,06,30,36,303,39,36,63,018,44,7*70
$GBGSV,3,1,09,03,44,206,31,07,75,228,38,08,50,238,37,10,70,272,37,1*7B
$GBGSV,3,2,09,11,51,065,46,23,25,238,35,28,31,296,43,34,33,084,46,1*79
$GBGSV,3,3,09,37,21,293,43,1*47
$GBGSV,2,1,08,02,,,34,03,44,206,35,07,75,228,37,08,50,238,39,3*4C
$GBGSV,2,2,08,10,70,272,35,11,51,065,46,13,,,35,23,25,238,08,3*4D
$GNRMC,034602.00,A,3727.0608548,N,12639.0858546,E,0.016,,220622,,,R,V*0E
$GNVTG,,T,,M,0.016,N,0.029,K,D*34
$GNGNS,034602.00,3727.0608548,N,12639.0858546,E,RRRR,28,0.61,20.266,17.831,2.0,4095,V*0F
$GNGGA,034602.00,3727.0608548,N,12639.0858546,E,4,12,0.61,20.266,M,17.831,M,2.0,4095*53
$GNGSA,A,3,01,19,06,17,03,41,14,,,,,,1.19,0.61,1.03,1*07
$GNGSA,A,3,78,76,77,88,87,72,71,,,,,,1.19,0.61,1.03,2*0C
$GNGSA,A,3,30,09,02,11,36,,,,,,,,1.19,0.61,1.03,3*02
$GNGSA,A,3,28,11,23,03,37,08,07,10,34,,,,1.19,0.61,1.03,4*0D
$GPGSV,2,1,08,01,23,057,36,03,51,060,46,06,39,268,34,14,49,195,32,1*68
$GPGSV,2,2,08,17,71,358,47,19,51,319,45,28,,,36,41,27,238,39,1*5B
$GPGSV,2,1,06,01,23,057,30,03,51,060,39,04,,,37,06,39,268,36,6*59
$GPGSV,2,2,06,14,49,195,33,17,71,358,30,6*6D
$GPGSV,1,1,01,40,06,259,,0*58
$GLGSV,2,1,08,65,05,171,38,71,37,066,42,72,35,130,37,76,17,205,40,1*7C
$GLGSV,2,2,08,77,38,255,22,78,22,320,38,87,48,330,46,88,17,288,26,1*7D
$GLGSV,2,1,07,65,05,171,20,71,37,066,42,72,35,130,30,76,17,205,36,3*7E
$GLGSV,2,2,07,77,38,255,33,78,22,320,38,88,17,288,24,3*43
$GLGSV,1,1,02,70,08,024,,86,33,057,,0*7E
$GAGSV,2,1,06,02,53,226,37,09,22,107,39,11,21,062,34,18,28,300,43,2*77
$GAGSV,2,2,06,30,36,303,44,36,63,018,46,2*7D
$GAGSV,2,1,06,02,53,226,40,09,22,107,40,11,21,062,37,18,28,300,44,7*78
$GAGSV,2,2,06,30,36,303,39,36,63,018,44,7*70
$GBGSV,3,1,09,03,44,206,31,07,75,228,37,08,50,238,36,10,70,272,37,1*75
$GBGSV,3,2,09,11,51,065,46,23,25,238,36,28,31,296,43,34,33,084,46,1*7A
$GBGSV,3,3,09,37,21,293,43,1*47
$GBGSV,2,1,08,02,,,34,03,44,206,34,07,75,228,38,08,50,238,39,3*42
$GBGSV,2,2,08,10,70,272,34,11,51,065,46,13,,,35,23,25,238,08,3*4C
$GNRMC,034603.00,A,3727.0608486,N,12639.0858530,E,0.028,,220622,,,R,V*00
$GNVTG,,T,,M,0.028,N,0.052,K,D*35
$GNGNS,034603.00,3727.0608486,N,12639.0858530,E,RRRR,28,0.61,20.259,17.831,1.0,4095,V*03
$GNGGA,034603.00,3727.0608486,N,12639.0858530,E,4,12,0.61,20.259,M,17.831,M,1.0,4095*5F
$GNGSA,A,3,01,19,06,17,03,41,14,,,,,,1.19,0.61,1.03,1*07
$GNGSA,A,3,78,76,77,88,87,72,71,,,,,,1.19,0.61,1.03,2*0C
$GNGSA,A,3,30,09,02,11,36,,,,,,,,1.19,0.61,1.03,3*02
$GNGSA,A,3,28,11,23,03,37,08,07,10,34,,,,1.19,0.61,1.03,4*0D
$GPGSV,2,1,08,01,23,057,36,03,51,060,47,06,39,268,37,14,49,195,28,1*61
$GPGSV,2,2,08,17,71,358,47,19,51,319,46,28,,,36,41,27,238,40,1*56
$GPGSV,2,1,06,01,23,057,31,03,51,060,41,04,,,38,06,39,268,37,6*59
$GPGSV,2,2,06,14,49,195,34,17,71,358,30,6*6A
$GPGSV,1,1,01,40,06,259,,0*58
$GLGSV,2,1,08,65,05,171,38,71,37,066,42,72,35,130,37,76,17,205,41,1*7D
$GLGSV,2,2,08,77,38,255,24,78,22,320,38,87,48,330,45,88,17,288,33,1*7C
$GLGSV,2,1,07,65,05,171,22,71,37,066,43,72,35,130,32,76,17,205,38,3*71
$GLGSV,2,2,07,77,38,255,35,78,22,320,37,88,17,288,22,3*4C
$GLGSV,1,1,02,70,08,024,,86,33,057,,0*7E
$GAGSV,2,1,06,02,52,226,38,09,22,107,40,11,21,062,34,18,28,300,44,2*70
$GAGSV,2,2,06,30,36,303,45,36,63,018,46,2*7C
$GAGSV,2,1,06,02,52,226,40,09,22,107,41,11,21,062,38,18,28,300,45,7*76
$GAGSV,2,2,06,30,36,303,40,36,63,018,45,7*7F
$GBGSV,3,1,09,03,44,206,31,07,75,228,38,08,50,238,36,10,70,272,37,1*7A
$GBGSV,3,2,09,11,51,065,47,23,25,238,36,28,31,296,44,34,33,084,47,1*7D
$GBGSV,3,3,09,37,21,293,43,1*47
$GBGSV,2,1,08,02,,,35,03,44,206,35,07,75,228,39,08,50,238,40,3*4D
$GBGSV,2,2,08,10,70,272,36,11,51,065,47,13,,,36,23,25,238,09,3*4D
$GNRMC,034604.00,A,3727.0608513,N,12639.0858509,E,0.005,,220622,,,R,V*0F
$GNVTG,,T,,M,0.005,N,0.009,K,D*34
$GNGNS,034604.00,3727.0608513,N,12639.0858509,E,RRRR,28,0.61,20.242,17.831,2.0,4095,V*0A
$GNGGA,034604.00,3727.0608513,N,12639.0858509,E,4,12,0.61,20.242,M,17.831,M,2.0,4095*56
$GNGSA,A,3,01,19,06,17,03,41,14,,,,,,1.19,0.61,1.03,1*07
$GNGSA,A,3,78,76,77,88,87,72,71,,,,,,1.19,0.61,1.03,2*0C
$GNGSA,A,3,30,09,02,11,36,,,,,,,,1.19,0.61,1.03,3*02
$GNGSA,A,3,28,11,23,03,37,08,07,10,34,,,,1.19,0.61,1.03,4*0D
$GPGSV,2,1,08,01,23,057,36,03,51,060,46,06,39,268,37,14,49,195,31,1*68
$GPGSV,2,2,08,17,71,358,48,19,51,319,47,28,,,37,41,27,238,39,1*57
$GPGSV,2,1,06,01,23,057,31,03,51,060,40,04,,,37,06,39,268,37,6*57
$GPGSV,2,2,06,14,49,195,34,17,71,358,31,6*6B
$GPGSV,1,1,01,40,06,259,,0*58
$GLGSV,2,1,08,65,05,171,37,71,37,066,40,72,35,130,37,76,17,205,41,1*70
$GLGSV,2,2,08,77,38,255,24,78,22,320,36,87,48,330,45,88,17,288,36,1*77
$GLGSV,2,1,07,65,05,171,22,71,37,066,42,72,35,130,32,76,17,205,37,3*7F
$GLGSV,2,2,07,77,38,255,34,78,22,320,37,88,17,288,22,3*4D
$GLGSV,1,1,02,70,08,024,,86,33,057,,0*7E
$GAGSV,2,1,06,02,52,226,38,09,22,107,41,11,21,062,34,18,28,300,42,2*77
$GAGSV,2,2,06,30,36,303,44,36,63,018,46,2*7D
$GAGSV,2,1,06,02,52,226,40,09,22,107,41,11,21,062,38,18,28,300,43,7*70
$GAGSV,2,2,06,30,36,303,41,36,63,018,45,7*7E
$GBGSV,3,1,09,03,44,206,31,07,75,228,38,08,50,238,37,10,70,272,37,1*7B
$GBGSV,3,2,09,11,51,065,47,23,25,238,37,28,31,296,43,34,33,084,47,1*7B
$GBGSV,3,3,09,37,21,293,43,1*47
$GBGSV,2,1,08,02,,,34,03,44,206,35,07,75,228,38,08,50,238,41,3*4C
$GBGSV,2,2,08,10,70,272,34,11,51,065,47,13,,,36,23,25,238,09,3*4F
$GNRMC,034605.00,A,3727.0608485,N,12639.0858496,E,0.017,,220622,,,R,V*04
$GNVTG,,T,,M,0.017,N,0.032,K,D*3F
$GNGNS,034605.00,3727.0608485,N,12639.0858496,E,RRRR,28,0.61,20.248,17.831,2.0,4095,V*08
$GNGGA,034605.00,3727.0608485,N,12639.0858496,E,4,12,0.61,20.248,M,17.831,M,2.0,4095*54
$GNGSA,A,3,01,19,06,17,03,41,14,,,,,,1.19,0.61,1.03,1*07
$GNGSA,A,3,78,76,77,88,87,72,71,,,,,,1.19,0.61,1.03,2*0C
$GNGSA,A,3,30,09,02,11,36,,,,,,,,1.19,0.61,1.03,3*02
$GNGSA,A,3,28,11,23,03,37,08,07,10,34,,,,1.19,0.61,1.03,4*0D
$GPGSV,2,1,08,01,23,057,36,03,51,060,47,06,39,268,35,14,49,195,32,1*68
$GPGSV,2,2,08,17,71,358,48,19,51,319,46,28,,,36,41,27,238,39,1*57
$GPGSV,2,1,06,01,23,057,31,03,51,060,41,04,,,37,06,39,268,36,6*57
$GPGSV,2,2,06,14,49,195,34,17,71,358,31,6*6B
$GPGSV,1,1,01,40,06,259,,0*58
$GLGSV,2,1,08,65,05,171,38,71,37,066,41,72,35,130,38,76,17,205,40,1*70
$GLGSV,2,2,08,77,38,255,24,78,22,320,38,87,48,330,44,88,17,288,32,1*7C
$GLGSV,2,1,07,65,05,171,22,71,37,066,42,72,35,130,31,76,17,205,37,3*7C
$GLGSV,2,2,07,77,38,255,33,78,22,320,39,88,17,288,23,3*45
$GLGSV,1,1,02,70,08,024,,86,33,057,,0*7E
$GAGSV,2,1,06,02,52,226,39,09,22,106,41,11,21,062,34,18,28,300,42,2*77
$GAGSV,2,2,06,30,36,303,44,36,63,018,46,2*7D
$GAGSV,2,1,06,02,52,226,40,09,22,106,40,11,21,062,38,18,28,300,44,7*77
$GAGSV,2,2,06,30,36,303,40,36,63,018,45,7*7F
$GBGSV,3,1,09,03,44,206,31,07,75,228,38,08,50,238,37,10,70,272,36,1*7A
$GBGSV,3,2,09,11,51,065,47,23,25,238,36,28,31,296,42,34,33,084,47,1*7B
$GBGSV,3,3,09,37,21,293,40,1*44
$GBGSV,2,1,08,02,,,31,03,44,206,34,07,75,228,38,08,50,238,40,3*49
$GBGSV,2,2,08,10,70,272,34,11,51,065,46,13,,,35,23,25,238,08,3*4C
$GNRMC,034606.00,A,3727.0608477,N,12639.0858494,E,0.003,,220622,,,R,V*0D
$GNVTG,,T,,M,0.003,N,0.005,K,D*3E
$GNGNS,034606.00,3727.0608477,N,12639.0858494,E,RRRR,28,0.61,20.241,17.831,2.0,4095,V*0D
$GNGGA,034606.00,3727.0608477,N,12639.0858494,E,4,12,0.61,20.241,M,17.831,M,2.0,4095*51
$GNGSA,A,3,01,19,06,17,03,41,14,,,,,,1.19,0.61,1.03,1*07
$GNGSA,A,3,78,76,77,88,87,72,71,,,,,,1.19,0.61,1.03,2*0C
$GNGSA,A,3,30,09,02,11,36,,,,,,,,1.19,0.61,1.03,3*02
$GNGSA,A,3,28,11,23,03,37,08,07,10,34,,,,1.19,0.61,1.03,4*0D
$GPGSV,2,1,08,01,23,057,35,03,51,060,47,06,39,268,30,14,49,195,30,1*6C
$GPGSV,2,2,08,17,71,358,47,19,51,319,45,28,,,37,41,27,238,40,1*54
$GPGSV,2,1,06,01,23,057,31,03,51,060,40,04,,,35,06,39,268,32,6*50
$GPGSV,2,2,06,14,49,195,32,17,71,358,30,6*6C
$GPGSV,1,1,01,40,06,259,,0*58
$GLGSV,2,1,08,65,05,171,36,71,37,066,42,72,35,130,37,76,17,205,42,1*70
$GLGSV,2,2,08,77,38,255,24,78,22,320,41,87,48,330,45,88,17,288,30,1*71
$GLGSV,2,1,07,65,05,171,23,71,37,066,41,72,35,130,31,76,17,205,38,3*71
$GLGSV,2,2,07,77,38,255,32,78,22,320,39,88,17,288,23,3*44
$GLGSV,1,1,02,70,08,024,,86,33,057,,0*7E
$GAGSV,2,1,06,02,52,226,38,09,22,106,39,11,21,062,35,18,28,300,41,2*7B
$GAGSV,2,2,06,30,36,303,44,36,63,018,46,2*7D
$GAGSV,2,1,06,02,52,226,39,09,22,106,41,11,21,062,37,18,28,300,46,7*75
$GAGSV,2,2,06,30,36,303,37,36,63,018,45,7*7F
$GBGSV,3,1,09,03,44,206,31,07,75,228,38,08,50,238,37,10,70,272,36,1*7A
$GBGSV,3,2,09,11,51,065,47,23,25,238,34,28,31,296,42,34,33,084,47,1*79
$GBGSV,3,3,09,37,21,293,43,1*47
$GBGSV,2,1,08,02,,,35,03,44,206,34,07,75,228,37,08,50,238,42,3*40
$GBGSV,2,2,08,10,70,272,34,11,51,065,47,13,,,36,23,25,238,08,3*4E
$GNRMC,034607.00,A,3727.0608510,N,12639.0858511,E,0.013,,220622,,,R,V*01
$GNVTG,,T,,M,0.013,N,0.025,K,D*3D
$GNGNS,034607.00,3727.0608510,N,12639.0858511,E,RRRR,28,0.61,20.246,17.831,2.0,4095,V*07
$GNGGA,034607.00,3727.0608510,N,12639.0858511,E,4,12,0.61,20.246,M,17.831,M,2.0,4095*5B
$GNGSA,A,3,01,19,06,17,03,41,14,,,,,,1.19,0.61,1.03,1*07
$GNGSA,A,3,78,76,77,88,87,72,71,,,,,,1.19,0.61,1.03,2*0C
$GNGSA,A,3,30,09,02,11,36,,,,,,,,1.19,0.61,1.03,3*02
$GNGSA,A,3,28,11,23,03,37,08,07,10,34,,,,1.19,0.61,1.03,4*0D
$GPGSV,2,1,08,01,23,057,35,03,51,060,47,06,39,268,30,14,49,195,30,1*6C
$GPGSV,2,2,08,17,71,358,47,19,51,319,45,28,,,37,41,27,238,40,1*54
$GPGSV,2,1,06,01,23,057,31,03,51,060,40,04,,,35,06,39,268,34,6*56
$GPGSV,2,2,06,14,49,195,32,17,71,358,31,6*6D
$GPGSV,1,1,01,40,06,259,,0*58
$GLGSV,2,1,08,65,05,171,36,71,37,066,40,72,35,130,36,76,17,205,43,1*72
$GLGSV,2,2,08,77,38,255,24,78,22,320,43,87,48,330,44,88,17,288,30,1*72
$GLGSV,2,1,07,65,05,171,23,71,37,066,41,72,35,130,31,76,17,205,38,3*71
$GLGSV,2,2,07,77,38,255,32,78,22,320,39,88,17,288,24,3*43
$GLGSV,1,1,02,70,08,024,,86,33,057,,0*7E
$GAGSV,2,1,06,02,52,226,35,09,22,106,39,11,21,063,35,18,28,300,41,2*77
$GAGSV,2,2,06,30,36,303,44,36,63,018,46,2*7D
$GAGSV,2,1,06,02,52,226,39,09,22,106,40,11,21,063,37,18,28,300,45,7*76
$GAGSV,2,2,06,30,36,303,40,36,63,018,45,7*7F
$GBGSV,3,1,09,03,44,206,32,07,75,228,37,08,50,238,37,10,70,272,36,1*76
$GBGSV,3,2,09,11,51,065,47,23,25,238,34,28,31,296,42,34,33,084,47,1*79
$GBGSV,3,3,09,37,21,293,43,1*47
$GBGSV,2,1,08,02,,,32,03,44,206,34,07,75,228,37,08,50,238,41,3*44
$GBGSV,2,2,08,10,70,272,34,11,51,065,46,13,,,36,23,25,238,08,3*4F
$GNRMC,034608.00,A,3727.0608500,N,12639.0858532,E,0.013,,220622,,,R,V*0E
$GNVTG,,T,,M,0.013,N,0.024,K,D*3C
$GNGNS,034608.00,3727.0608500,N,12639.0858532,E,RRRR,28,0.61,20.254,17.831,2.0,4095,V*0B
$GNGGA,034608.00,3727.0608500,N,12639.0858532,E,4,12,0.61,20.254,M,17.831,M,2.0,4095*57
$GNGSA,A,3,01,19,06,17,03,41,14,,,,,,1.19,0.61,1.03,1*07
$GNGSA,A,3,78,76,77,88,87,72,71,,,,,,1.19,0.61,1.03,2*0C
$GNGSA,A,3,30,09,02,11,36,,,,,,,,1.19,0.61,1.03,3*02
$GNGSA,A,3,28,11,23,03,37,08,07,10,34,,,,1.19,0.61,1.03,4*0D
$GPGSV,2,1,08,01,23,057,35,03,51,060,46,06,39,268,31,14,49,195,31,1*6D
$GPGSV,2,2,08,17,71,358,48,19,51,319,45,28,,,35,41,27,238,37,1*59
$GPGSV,2,1,06,01,23,057,30,03,51,060,38,04,,,32,06,39,268,34,6*5F
$GPGSV,2,2,06,14,49,195,32,17,71,358,31,6*6D
$GPGSV,1,1,01,40,06,259,,0*58
$GLGSV,2,1,08,65,05,171,38,71,37,066,42,72,35,130,36,76,17,205,41,1*7C
$GLGSV,2,2,08,77,38,255,23,78,22,320,41,87,48,330,45,88,17,288,30,1*76
$GLGSV,2,1,07,65,05,171,23,71,37,066,39,72,35,130,30,76,17,205,35,3*72
$GLGSV,2,2,07,77,38,255,31,78,22,320,38,88,17,288,24,3*41
$GLGSV,1,1,02,70,08,024,,86,33,057,,0*7E
$GAGSV,2,1,06,02,52,226,33,09,22,106,37,11,21,063,32,18,28,300,39,2*77
$GAGSV,2,2,06,30,36,303,42,36,63,018,43,2*7E
$GAGSV,2,1,06,02,52,226,38,09,22,106,40,11,21,063,36,18,28,300,46,7*75
$GAGSV,2,2,06,30,36,303,37,36,63,018,44,7*7E
$GBGSV,3,1,09,03,44,206,31,07,75,228,37,08,50,238,35,10,70,272,36,1*77
$GBGSV,3,2,09,11,51,065,46,23,25,238,32,28,31,296,41,34,33,084,47,1*7D
$GBGSV,3,3,09,37,21,293,43,1*47
$GBGSV,2,1,08,02,,,29,03,44,206,30,07,75,228,33,08,50,238,36,3*4E
$GBGSV,2,2,08,10,70,272,29,11,51,065,42,13,,,30,23,25,238,07,3*4E
$GNRMC,034609.00,A,3727.0608547,N,12639.0858529,E,0.009,,220622,,,R,V*0D
$GNVTG,,T,,M,0.009,N,0.016,K,D*36
$GNGNS,034609.00,3727.0608547,N,12639.0858529,E,RRRR,28,0.61,20.243,17.831,2.0,4095,V*05
$GNGGA,034609.00,3727.0608547,N,12639.0858529,E,4,12,0.61,20.243,M,17.831,M,2.0,4095*59
$GNGSA,A,3,01,19,06,17,03,41,14,,,,,,1.19,0.61,1.03,1*07
$GNGSA,A,3,78,76,77,88,87,72,71,,,,,,1.19,0.61,1.03,2*0C
$GNGSA,A,3,30,09,02,11,36,,,,,,,,1.19,0.61,1.03,3*02
$GNGSA,A,3,28,11,23,03,37,08,07,10,34,,,,1.19,0.61,1.03,4*0D
$GPGSV,2,1,08,01,23,057,35,03,51,060,45,06,39,268,32,14,49,195,32,1*6E
$GPGSV,2,2,08,17,71,358,47,19,51,319,43,28,,,35,41,27,238,38,1*5F
$GPGSV,2,1,06,01,23,057,29,03,51,060,38,04,,,33,06,39,268,33,6*51
$GPGSV,2,2,06,14,49,195,32,17,71,358,30,6*6C
$GPGSV,1,1,01,40,06,259,,0*58
$GLGSV,2,1,08,65,05,171,37,71,37,066,40,72,35,130,36,76,17,205,42,1*72
$GLGSV,2,2,08,77,38,255,24,78,22,320,41,87,48,330,44,88,17,288,32,1*72
$GLGSV,2,1,07,65,05,171,22,71,37,066,40,72,35,130,29,76,17,205,37,3*77
$GLGSV,2,2,07,77,38,255,31,78,22,320,37,88,17,288,23,3*49
$GLGSV,1,1,02,70,08,024,,86,33,057,,0*7E
$GAGSV,2,1,06,02,52,226,35,09,22,106,39,11,21,063,33,18,28,300,40,2*70
$GAGSV,2,2,06,30,36,303,43,36,63,018,44,2*78
$GAGSV,2,1,06,02,52,226,38,09,22,106,41,11,21,063,36,18,28,300,45,7*77
$GAGSV,2,2,06,30,36,303,36,36,63,018,44,7*7F
$GBGSV,3,1,09,03,44,206,31,07,75,228,38,08,50,238,36,10,70,272,35,1*78
$GBGSV,3,2,09,11,51,065,46,23,25,238,33,28,31,296,41,34,33,084,47,1*7C
$GBGSV,3,3,09,37,21,293,41,1*45
$GNRMC,034610.00,A,3727.0608591,N,12639.0858521,E,0.036,,220622,,,R,V*0A
$GNVTG,,T,,M,0.036,N,0.067,K,D*3C
$GNGNS,034610.00,3727.0608591,N,12639.0858521,E,RRRR,28,0.61,20.226,17.831,2.0,4095,V*0D
$GNGGA,034610.00,3727.0608591,N,12639.0858521,E,4,12,0.61,20.226,M,17.831,M,2.0,4095*51
$GNGSA,A,3,01,19,06,17,03,41,14,,,,,,1.19,0.61,1.03,1*07
$GNGSA,A,3,78,76,77,88,87,72,71,,,,,,1.19,0.61,1.03,2*0C
$GNGSA,A,3,30,09,02,11,36,,,,,,,,1.19,0.61,1.03,3*02
$GNGSA,A,3,28,11,23,03,37,08,07,10,34,,,,1.19,0.61,1.03,4*0D
$GPGSV,2,1,08,01,23,057,35,03,51,060,46,06,39,268,26,14,49,195,32,1*68
$GPGSV,2,2,08,17,71,358,47,19,51,319,43,28,,,35,41,27,238,40,1*50
$GPGSV,2,1,06,01,23,057,30,03,51,060,39,04,,,34,06,39,268,32,6*5E
$GPGSV,2,2,06,14,49,195,31,17,71,358,31,6*6E
$GPGSV,1,1,01,40,06,259,,0*58
$GLGSV,2,1,08,65,05,171,37,71,37,066,42,72,35,130,37,76,17,205,42,1*71
$GLGSV,2,2,08,77,38,255,22,78,22,320,38,87,48,330,44,88,17,288,35,1*7D
$GLGSV,2,1,07,65,05,171,22,71,37,066,40,72,35,130,29,76,17,205,35,3*75
$GLGSV,2,2,07,77,38,255,30,78,22,320,38,88,17,288,24,3*40
$GLGSV,1,1,02,70,08,024,,86,33,057,,0*7E
$GAGSV,2,1,06,02,52,226,34,09,22,106,39,11,21,063,33,18,28,301,35,2*72
$GAGSV,2,2,06,30,36,303,41,36,63,018,45,2*7B
$GAGSV,2,1,06,02,52,226,38,09,22,106,38,11,21,063,36,18,28,301,44,7*79
$GAGSV,2,2,06,30,36,303,37,36,63,018,44,7*7E
$GBGSV,3,1,09,03,44,206,31,07,75,228,38,08,50,238,36,10,70,272,35,1*78
$GBGSV,3,2,09,11,51,065,46,23,25,238,33,28,31,296,40,34,33,084,47,1*7D
$GBGSV,3,3,09,37,21,293,37,1*44
$GBGSV,2,1,08,02,,,29,03,44,206,31,07,75,228,34,08,50,238,40,3*49
$GBGSV,2,2,08,10,70,272,29,11,51,065,45,13,,,34,23,25,238,07,3*4D
$GNRMC,034611.00,A,3727.0608557,N,12639.0858527,E,0.040,,220622,,,R,V*06
$GNVTG,,T,,M,0.040,N,0.075,K,D*3E
$GNGNS,034611.00,3727.0608557,N,12639.0858527,E,RRRR,28,0.61,20.234,17.831,3.0,4095,V*02
$GNGGA,034611.00,3727.0608557,N,12639.0858527,E,4,12,0.61,20.234,M,17.831,M,3.0,4095*5E
$GNGSA,A,3,01,19,06,17,03,41,14,,,,,,1.19,0.61,1.03,1*07
$GNGSA,A,3,78,76,77,88,87,72,71,,,,,,1.19,0.61,1.03,2*0C
$GNGSA,A,3,30,09,02,11,36,,,,,,,,1.19,0.61,1.03,3*02
$GNGSA,A,3,28,11,23,03,37,08,07,10,34,,,,1.19,0.61,1.03,4*0D
$GPGSV,2,1,08,01,23,057,35,03,51,060,46,06,39,268,25,14,49,195,31,1*68
$GPGSV,2,2,08,17,71,358,47,19,51,319,44,28,,,34,41,27,238,38,1*59
$GPGSV,2,1,06,01,23,057,30,03,51,060,39,04,,,34,06,39,268,32,6*5E
$GPGSV,2,2,06,14,49,195,31,17,71,358,31,6*6E
$GPGSV,1,1,01,40,06,259,,0*58
$GLGSV,2,1,08,65,05,171,37,71,37,066,42,72,35,130,36,76,17,205,42,1*70
$GLGSV,2,2,08,77,38,255,22,78,22,320,38,87,48,330,43,88,17,288,38,1*77
$GLGSV,2,1,07,65,05,171,21,71,37,066,40,72,35,130,30,76,17,205,36,3*7D
$GLGSV,2,2,07,77,38,255,31,78,22,320,35,88,17,288,25,3*4D
$GLGSV,1,1,02,70,08,024,,86,33,057,,0*7E
$GAGSV,2,1,06,02,52,226,35,09,22,106,39,11,21,063,34,18,28,301,43,2*75
$GAGSV,2,2,06,30,36,303,43,36,63,018,44,2*78
$GAGSV,2,1,06,02,52,226,38,09,22,106,39,11,21,063,36,18,28,301,46,7*7A
$GAGSV,2,2,06,30,36,303,41,36,63,018,43,7*78
$GBGSV,3,1,09,03,44,206,32,07,75,228,38,08,50,238,36,10,70,272,35,1*7B
$GBGSV,3,2,09,11,51,065,47,23,25,238,29,28,31,296,38,34,33,084,47,1*78
$GBGSV,3,3,09,37,21,293,44,1*40
$GNRMC,034612.00,A,3727.0608553,N,12639.0858514,E,0.017,,220622,,,R,V*03
$GNVTG,,T,,M,0.017,N,0.031,K,D*3C
$GNGNS,034612.00,3727.0608553,N,12639.0858514,E,RRRR,28,0.61,20.240,17.831,2.0,4095,V*07
$GNGGA,034612.00,3727.0608553,N,12639.0858514,E,4,12,0.61,20.240,M,17.831,M,2.0,4095*5B
$GNGSA,A,3,01,19,06,17,03,41,14,,,,,,1.19,0.61,1.03,1*07
$GNGSA,A,3,78,76,77,88,87,72,71,,,,,,1.19,0.61,1.03,2*0C
$GNGSA,A,3,30,09,02,11,36,,,,,,,,1.19,0.61,1.03,3*02
$GNGSA,A,3,28,11,23,03,37,08,07,10,34,,,,1.19,0.61,1.03,4*0D
$GPGSV,2,1,08,01,23,057,35,03,51,060,45,06,39,268,23,14,49,195,26,1*6B
$GPGSV,2,2,08,17,71,358,46,19,51,319,44,28,,,35,41,27,238,39,1*58
$GPGSV,2,1,06,01,23,057,31,03,51,060,39,04,,,35,06,39,268,33,6*5F
$GPGSV,2,2,06,14,49,195,31,17,71,358,33,6*6C
$GPGSV,1,1,01,40,06,259,,0*58
$GLGSV,2,1,08,65,05,171,37,71,37,066,42,72,35,130,35,76,17,205,40,1*71
$GLGSV,2,2,08,77,38,255,22,78,22,320,38,87,48,330,42,88,17,288,36,1*78
$GLGSV,2,1,07,65,05,171,20,71,37,066,40,72,35,130,30,76,17,205,36,3*7C
$GLGSV,2,2,07,77,38,255,31,78,22,320,36,88,17,288,24,3*4F
$GLGSV,1,1,02,70,08,024,,86,33,057,,0*7E
$GAGSV,2,1,06,02,52,226,36,09,22,106,40,11,21,063,34,18,28,301,42,2*79
$GAGSV,2,2,06,30,36,302,42,36,63,018,44,2*78
$GAGSV,2,1,06,02,52,226,38,09,22,106,37,11,21,063,36,18,28,301,47,7*75
$GAGSV,2,2,06,30,36,302,38,36,63,018,44,7*70
$GBGSV,3,1,09,03,44,206,32,07,75,228,39,08,50,238,37,10,70,272,34,1*7A
$GBGSV,3,2,09,11,51,065,47,23,25,238,32,28,31,296,38,34,33,084,47,1*72
$GBGSV,3,3,09,37,21,293,43,1*47
$GBGSV,2,1,08,02,,,27,03,44,206,32,07,75,228,36,08,50,238,41,3*47
$GBGSV,2,2,08,10,70,272,27,11,51,065,45,13,,,35,23,25,238,07,3*42
$GNRMC,034613.00,A,3727.0608495,N,12639.0858514,E,0.015,,220622,,,R,V*0B
$GNVTG,,T,,M,0.015,N,0.028,K,D*36
$GNGNS,034613.00,3727.0608495,N,12639.0858514,E,RRRR,28,0.61,20.239,17.831,1.0,4095,V*00
$GNGGA,034613.00,3727.0608495,N,12639.0858514,E,4,12,0.61,20.239,M,17.831,M,1.0,4095*5C
$GNGSA,A,3,01,19,06,17,03,41,14,,,,,,1.19,0.61,1.03,1*07
$GNGSA,A,3,78,76,77,88,87,72,71,,,,,,1.19,0.61,1.03,2*0C
$GNGSA,A,3,30,09,02,11,36,,,,,,,,1.19,0.61,1.03,3*02
$GNGSA,A,3,28,11,23,03,37,08,07,10,34,,,,1.19,0.61,1.03,4*0D
$GPGSV,2,1,08,01,23,057,35,03,51,060,46,06,39,268,31,14,49,195,26,1*6B
$GPGSV,2,2,08,17,71,358,47,19,51,319,43,28,,,35,41,27,238,38,1*5F
$GPGSV,2,1,06,01,23,057,31,03,51,060,39,04,,,33,06,39,268,32,6*58
$GPGSV,2,2,06,14,49,195,30,17,71,358,32,6*6C
$GPGSV,1,1,01,40,06,259,,0*58
$GLGSV,2,1,08,65,05,171,37,71,37,066,42,72,35,130,35,76,17,205,42,1*73
$GLGSV,2,2,08,77,38,255,21,78,22,320,40,87,48,330,43,88,17,288,38,1*7B
$GLGSV,2,1,07,65,05,171,21,71,37,066,40,72,35,130,29,76,17,205,37,3*74
$GLGSV,2,2,07,77,38,255,32,78,22,320,36,88,17,288,22,3*4A
$GLGSV,1,1,02,70,08,024,,86,33,057,,0*7E
$GAGSV,2,1,06,02,52,226,36,09,22,106,39,11,21,063,33,18,28,301,41,2*73
$GAGSV,2,2,06,30,36,302,43,36,63,018,44,2*79
$GAGSV,2,1,06,02,52,226,38,09,22,106,39,11,21,063,36,18,28,301,45,7*79
$GAGSV,2,2,06,30,36,302,40,36,63,018,44,7*7F
$GBGSV,3,1,09,03,44,206,32,07,75,228,39,08,50,238,37,10,70,272,34,1*7A
$GBGSV,3,2,09,11,51,065,47,23,25,238,33,28,31,296,42,34,33,084,47,1*7E
$GBGSV,3,3,09,37,21,293,43,1*47
$GBGSV,2,1,07,03,44,206,31,07,75,228,36,08,50,238,41,10,70,272,28,3*77
$GBGSV,2,2,07,11,51,065,44,13,,,35,23,25,238,07,3*78
$GNRMC,034614.00,A,3727.0608568,N,12639.0858513,E,0.035,,220622,,,R,V*0A
$GNVTG,,T,,M,0.035,N,0.064,K,D*3C
$GNGNS,034614.00,3727.0608568,N,12639.0858513,E,RRRR,28,0.61,20.224,17.831,2.0,4095,V*0C
$GNGGA,034614.00,3727.0608568,N,12639.0858513,E,4,12,0.61,20.224,M,17.831,M,2.0,4095*50
$GNGSA,A,3,01,19,06,17,03,41,14,,,,,,1.19,0.61,1.03,1*07
$GNGSA,A,3,78,76,77,88,87,72,71,,,,,,1.19,0.61,1.03,2*0C
$GNGSA,A,3,30,09,02,11,36,,,,,,,,1.19,0.61,1.03,3*02
$GNGSA,A,3,28,11,23,03,37,08,07,10,34,,,,1.19,0.61,1.03,4*0D
$GPGSV,2,1,08,01,23,057,35,03,51,060,46,06,39,268,24,14,49,195,26,1*6F
$GPGSV,2,2,08,17,71,358,47,19,51,319,41,28,,,35,41,27,238,38,1*5D
$GPGSV,2,1,06,01,23,057,31,03,51,060,40,04,,,36,06,39,268,32,6*53
$GPGSV,2,2,06,14,49,195,32,17,71,358,33,6*6F
$GPGSV,1,1,01,40,06,259,,0*58
$GLGSV,2,1,08,65,05,171,37,71,37,066,42,72,35,130,36,76,17,205,40,1*72
$GLGSV,2,2,08,77,38,255,20,78,22,320,43,87,48,330,42,88,17,288,37,1*77
$GLGSV,2,1,07,65,05,171,22,71,37,066,40,72,35,130,29,76,17,205,36,3*76
$GLGSV,2,2,07,77,38,255,31,78,22,320,36,88,17,288,19,3*41
$GLGSV,1,1,02,70,08,024,,86,33,057,,0*7E
$GAGSV,2,1,06,02,52,226,40,09,22,106,38,11,21,063,34,18,28,301,40,2*75
$GAGSV,2,2,06,30,36,302,44,36,63,019,45,2*7E
$GAGSV,2,1,06,02,52,226,39,09,22,106,36,11,21,063,37,18,28,301,46,7*75
$GAGSV,2,2,06,30,36,302,40,36,63,019,44,7*7E
$GBGSV,3,1,09,03,44,206,32,07,75,228,39,08,50,238,38,10,70,272,33,1*72
$GBGSV,3,2,09,11,51,065,47,23,25,238,30,28,31,296,39,34,33,084,46,1*70
$GBGSV,3,3,09,37,21,293,43,1*47
$GBGSV,2,1,07,03,44,206,31,07,75,228,38,08,50,238,41,10,70,272,28,3*79
$GBGSV,2,2,07,11,51,065,44,13,,,35,23,25,238,08,3*77
$GNRMC,034615.00,A,3727.0608571,N,12639.0858496,E,0.020,,220622,,,R,V*0B
$GNVTG,,T,,M,0.020,N,0.038,K,D*31
$GNGNS,034615.00,3727.0608571,N,12639.0858496,E,RRRR,28,0.61,20.225,17.831,2.0,4095,V*08
$GNGGA,034615.00,3727.0608571,N,12639.0858496,E,4,12,0.61,20.225,M,17.831,M,2.0,4095*54
$GNGSA,A,3,01,19,06,17,03,41,14,,,,,,1.19,0.61,1.03,1*07
$GNGSA,A,3,78,76,77,88,87,72,71,,,,,,1.19,0.61,1.03,2*0C
$GNGSA,A,3,30,09,02,11,36,,,,,,,,1.19,0.61,1.03,3*02
$GNGSA,A,3,28,11,23,03,37,08,07,10,34,,,,1.19,0.61,1.03,4*0D
$GPGSV,2,1,08,01,23,057,35,03,51,060,46,06,39,268,29,14,49,195,32,1*67
$GPGSV,2,2,08,17,71,358,47,19,51,319,43,28,,,32,41,27,238,37,1*57
$GPGSV,2,1,06,01,23,057,30,03,51,060,40,04,,,35,06,39,268,33,6*50
$GPGSV,2,2,06,14,49,195,34,17,71,358,36,6*6C
$GPGSV,1,1,01,40,06,259,,0*58
$GLGSV,2,1,08,65,05,171,38,71,37,066,41,72,35,130,36,76,17,205,39,1*70
$GLGSV,2,2,08,77,38,255,20,78,22,320,41,87,48,330,43,88,17,288,35,1*76
$GLGSV,2,1,07,65,05,171,23,71,37,066,40,72,35,130,30,76,17,205,35,3*7C
$GLGSV,2,2,07,77,38,255,28,78,22,320,36,88,17,288,18,3*48
$GLGSV,1,1,02,70,08,024,,86,33,057,,0*7E
$GAGSV,2,1,06,02,52,226,42,09,22,106,38,11,21,063,34,18,28,301,38,2*78
$GAGSV,2,2,06,30,36,302,41,36,63,019,45,2*7B
$GAGSV,2,1,06,02,52,226,37,09,22,106,39,11,21,063,34,18,28,301,44,7*75
$GAGSV,2,2,06,30,36,302,38,36,63,019,46,7*73
$GBGSV,3,1,09,03,44,206,33,07,75,228,40,08,50,238,38,10,70,272,34,1*7A
$GBGSV,3,2,09,11,51,065,47,23,25,238,23,28,31,296,39,34,33,084,45,1*71
$GBGSV,3,3,09,37,21,293,42,1*46
$GBGSV,2,1,06,03,44,206,33,07,75,228,39,08,50,238,42,10,70,272,28,3*78
$GBGSV,2,2,06,11,51,065,46,13,,,38,3*4E
$GNRMC,034616.00,A,3727.0608554,N,12639.0858479,E,0.015,,220622,,,R,V*08
$GNVTG,,T,,M,0.015,N,0.028,K,D*36
$GNGNS,034616.00,3727.0608554,N,12639.0858479,E,RRRR,28,0.61,20.226,17.831,3.0,4095,V*0F
$GNGSA,A,3,01,19,06,17,03,41,14,,,,,,1.19,0.61,1.03,1*07
$GNGSA,A,3,78,76,77,88,87,72,71,,,,,,1.19,0.61,1.03,2*0C
$GNGSA,A,3,30,09,02,11,36,,,,,,,,1.19,0.61,1.03,3*02
$GNGSA,A,3,28,11,23,03,37,08,07,10,34,,,,1.19,0.61,1.03,4*0D
$GPGSV,2,1,08,01,23,057,35,03,51,060,46,06,39,268,29,14,49,195,32,1*67
$GPGSV,2,2,08,17,71,358,48,19,51,319,42,28,,,31,41,27,238,37,1*5A
$GPGSV,2,1,06,01,23,057,30,03,51,060,40,04,,,34,06,39,268,34,6*56
$GPGSV,2,2,06,14,49,195,33,17,71,358,35,6*68
$GPGSV,1,1,01,40,06,259,,0*58
$GLGSV,2,1,08,65,05,171,38,71,37,066,42,72,35,130,35,76,17,205,40,1*7E
$GLGSV,2,2,08,77,38,255,18,78,22,320,39,87,48,330,42,88,17,288,32,1*74
$GLGSV,2,1,07,65,05,171,24,71,37,066,40,72,35,130,30,76,17,205,34,3*7A
$GLGSV,2,2,07,77,38,255,27,78,22,320,36,88,17,288,18,3*47
$GLGSV,1,1,02,70,08,024,,86,33,057,,0*7E
$GAGSV,2,1,06,02,52,226,41,09,22,106,40,11,21,063,34,18,28,301,41,2*7A
$GAGSV,2,2,06,30,36,302,43,36,6$GAGSV,2,1,06,02,52,226,38,09,22,106,38,11,21,063,35,18,28,301,45,7*7B
$GAGSV,2,2,06,30,36,302,38,36,63,019,45,7*70
$GBGSV,3,1,09,03,44,206,33,07,75,228,40,08,50,238,38,10,70,272,34,1*7A
$GBGSV,3,2,09,11,51,065,47,23,25,238,25,28,31,296,39,34,33,084,45,1*77
$GBGSV,3,3,09,37,21,293,42,1*46
$GBGSV,2,1,06,03,44,206,33,07,75,228,39,08,50,238,43,10,70,272,28,3*79
$GBGSV,2,2,06,11,51,065,47,13,,,38,3*4F
$GNRMC,034617.00,A,3727.0608573,N,12639.0858494,E,0.028,,220622,,,R,V*01
$GNGNS,034617.00,3727.0608573,N,12639.0858494,E,RRRR,28,0.61,20.213,17.831,4.0,4095,V*09
$GNGGA,034617.00,3727.0608573,N,12639.0858494,E,4,12,0.61,20.213,M,17.831,M,4.0,4095*55
$GNGSA,A,3,01,19,06,17,03,41,14,,,,,,1.19,0.61,1.03,1*07
$GNGSA,A,3,78,76,77,88,87,72,71,,,,,,1.19,0.61,1.03,2*0C
$GNGSA,A,3,30,09,02,11,36,,,,,,,,1.19,0.61,1.03,3*02
$GNGSA,A,3,28,11,23,03,37,08,07,10,34,,,,1.19,0.61,1.03,4*0D
$GPGSV,2,1,08,01,23,057,36,03,51,060,46,06,39,268,31,14,49,195,33,1*6C
$GPGSV,2,2,08,17,71,358,48,19,51,319,43,28,,,31,41,27,238,38,1*54
$GPGSV,2,1,06,01,23,057,31,03,51,060,41,04,,,35,06,39,268,36,6*55
$GPGSV,2,2,06,14,49,195,34,17,71,358,38,6*62
$GPGSV,1,1,01,40,06,259,,0*58
$GLGSV,2,1,08,65,05,171,38,71,37,066,44,72,35,130,34,76,17,205,40,1*79
$GLGSV,2,2,08,77,38,255,18,78,22,320,41,87,48,330,42,88,17,288,33,1*7A
$GLGSV,2,1,07,65,05,171,24,71,37,066,40,72,35,130,31,76,17,205,35,3*7A
$GLGSV,2,2,07,77,38,255,27,78,22,320,36,88,17,288,16,3*49
$GLGSV,1,1,02,70,08,$GAGSV,2,1,06,02,52,226,42,09,22,106,40,11,21,063,35,18,28,301,41,2*78
$GAGSV,2,2,06,30,36,302,42,36,63,019,46,2*7B
$GAGSV,2,1,06,02,52,226,39,09,22,106,38,11,21,063,35,18,28,301,44,7*7B
$GAGSV,2,2,06,30,36,302,38,36,63,019,45,7*70
$GBGSV,3,1,09,03,44,206,33,07,75,228,39,08,50,239,38,10,70,272,34,1*75
$GBGSV,3,2,09,11,51,065,47,23,25,238,27,28,31,296,39,34,33,084,46,1*76
$GBGSV,3,3,09,37,21,293,43,1*47
$GBGSV,2,1,06,03,44,206,32,07,75,228,39,08,50,239,43,10,70,272,28,3*79
$GBGSV,2,2,06,11,51,065,47,13,,,37,3*40
$GNRMC,034618.00,A,3727.0608564,N,12639.0858462,E,0.011,,220622,,,R,V*0B
$GNVTG,,T,,M,0.011,N,0.021,K,D*3B
$GNGNS,034618.00,3727.0608564,N,12639.0858462,E,RRRR,28,0.61,20.210,17.831,5.0,4095,V*0B
$GNGGA,034618.00,3727.0608564,N,12639.0858462,E,4,12,0.61,20.210,M,17.831,M,5.0,4095*57
$GNGSA,A,3,01,19,06,17,03,41,14,,,,,,1.19,0.61,1.03,1*07
$GNGSA,A,3,30,09,02,11,36,,,,,,,,1.19,0.61,1.03,3*02
$GNGSA,A,3,28,11,23,03,37,08,07,10,34,,,,1.19,0.61,1.03,4*0D
$GPGSV,2,1,08,01,23,057,36,03,51,060,46,06,39,268,31,14,49,195,35,1*6A
$GPGSV,2,2,08,17,71,358,47,19,51,319,42,28,,,30,41,27,238,39,1*5A
$GPGSV,2,1,06,01,23,057,32,03,51,060,41,04,,,35,06,39,268,34,6*54
$GPGSV,2,2,06,14,49,195,33,17,71,358,37,6*6A
$GPGSV,1,1,01,40,06,259,,0*58
$GLGSV,2,1,08,65,05,171,38,71,37,066,43,72,35,130,35,76,17,205,40,1*7F
$GLGSV,2,2,08,77,38,255,15,78,22,320,40,87,48,330,41,88,17,288,33,1*75
$GLGSV,2,1,07,65,05,171,26,71,37,066,40,72,35,130,30,76,17,205,35,3*79
$GLGSV,2,2,07,77,38,255,27,78,22,320,37,88,17,288,12,3*4C
$GLGSV,1,1,02,70,08,024,,86,33,057,,0*7E
$GAGSV,2,1,06,02,52,226,41,09,22,106,41,11,21,063,35,18,28,301,40,2*7B
$GAGSV,2,2,06,30,36,302,41,36,63,019,45,2*7B
$GAGSV,2,1,06,02,52,226,39,09,22,106,37,11,21,063,36,18,28,301,43,7*70
$GAGSV,2,2,06,30,36,302,38,36,63,019,45,7*70
$GBGSV,3,1,09,$GBGSV,3,2,09,11,51,065,47,23,25,238,29,28,31,296,40,34,33,084,46,1*76
$GBGSV,3,3,09,37,21,293,42,1*46
$GBGSV,2,1,06,03,44,206,33,07,75,228,39,08,50,239,43,10,70,272,27,3*77
$GBGSV,2,2,06,11,51,065,46,13,,,37,3*41
$GNRMC,034619.00,A,3727.0608558,N,12639.0858493,E,0.005,,220622,,,R,V*0E
$GNVTG,,T,,M,0.005,N,0.008,K,D*35
$GNGNS,034619.00,3727.0608558,N,12639.0858493,E,RRRR,28,0.61,20.210,17.831,6.0,4095,V*08
$GNGGA,034619.00,3727.0608558,N,12639.0858493,E,4,12,0.61,20.210,M,17.831,M,6.0,4095*54
$GNGSA,A,3,01,19,06,17,03,41,14,,,,,,1.19,0.61,1.03,1*07
$GNGSA,A,3,78,76,77,88,87,72,71,,,,,,1.19,0.61,1.03,2*0C
$GNGSA,A,3,30,09,02,11,36,,,,,,,,1.19,0.61,1.03,3*02
$GNGSA,A,3,28,11,23,03,37,08,07,10,34,,,,1.19,0.61,1.03,4*0D
$GPGSV,2,1,08,01,23,057,36,03,51,060,46,06,39,268,31,14,49,195,35,1*6A
$GPGSV,2,2,08,17,71,358,47,19,51,319,42,28,,,30,41,27,238,40,1*54
$GPGSV,2,1,06,01,23,057,31,03,51,060,39,04,,,34,06,39,268,34,6*59
$GPGSV,2,2,06,14,49,195,32,17,71,358,36,6*6A
$GPGSV,1,1,01,40,06,259,,0*58
$GLGSV,2,1,08,65,05,171,37,71,37,066,43,72,35,130,36,76,17,205,40,1*73
$GLGSV,2,2,08,77,38,255,11,78,22,320,40,87,48,330,41,88,17,288,33,1*71
$GLGSV,2,1,07,65,05,171,26,71,37,066,40,72,35,130,31,76,17,205,35,3*78
$GLGSV,2,2,07,77,38,255,28,78,22,320,37,88,17,288,09,3*49
$GLGSV,1,1,02,70,08,024,,86,33,057,,0*7E
$GAGSV,2,1,06,02,52,226,41,09,22,106,41,11,21,063,36,18,28,301,42,2*7A
$GAGSV,2,2,06,30,36,302,43,36,63,019,46,2*7A
$GAGSV,2,1,06,02,52,226,39,09,22,106,36,11,21,063,36,18,28,301,44,7*76
$GAGSV,2,2,06,30,36,302,39,36,63,019,45,7*71
$GBGSV,3,1,09,03,44,206,32,07,75,228,39,08,50,239,38,10,70,272,33,1*73
$GBGSV,3,2,09,11,50,065,48,23,25,238,31,28,31,296,40,34,33,084,47,1*70
$GBGSV,3,3,09,37,21,293,42,1*46
$GBGSV,2,1,06,03,44,206,32,07,75,228,39,08,50,239,43,10,70,272,26,3*77
$GBGSV,2,2,06,11,50,065,46,13,,,37,3*40
$GNRMC,034620.00,A,3727.0608544,N,12639.0858482,E,0.005,,220622,,,R,V*09
$GNVTG,,T,,M,0.005,N,0.009,K,D*34
$GNGNS,034620.00,3727.0608544,N,12639.0858482,E,RRRR,28,0.61,20.222,17.831,7.0,4095,V*0F
$GNGGA,034620.00,3727.0608544,N,12639.0858482,E,4,12,0.61,20.222,M,17.831,M,7.0,4095*53
$GNGSA,A,3,01,19,06,17,03,41,14,,,,,,1.19,0.61,1.03,1*07
$GNGSA,A,3,78,76,77,88,87,72,71,,,,,,1.19,0.61,1.03,2*0C
$GNGSA,A,3,30,09,02,11,36,,,,,,,,1.19,0.61,1.03,3*02
$GNGSA,A,3,28,11,23,03,37,08,07,10,34,,,,1.19,0.61,1.03,4*0D
$GPGSV,2,1,08,01,23,057,36,03,51,060,46,06,39,268,29,14,49,195,36,1*60
$GPGSV,2,2,08,17,71,358,47,19,51,319,42,28,,,30,41,27,238,39,1*5A
$GPGSV,2,1,06,01,23,057,31,03,51,060,40,04,,,34,06,39,268,34,6*57
$GPGSV,2,2,06,14,49,195,32,17,71,358,36,6*6A
$GPGSV,1,1,01,40,06,259,,0*58
$GLGSV,2,1,08,65,05,171,36,71,37,066,44,72,35,130,35,76,17,205,40,1*76
$GLGSV,2,2,08,77,38,255,09,78,22,320,41,87,48,330,41,88,17,288,34,1*7E
$GLGSV,2,1,07,65,05,171,26,71,37,066,41,72,35,130,30,76,17,205,36,3*7B
$GLGSV,2,2,07,77,38,255,29,78,22,320,36,88,17,288,09,3*49
$GLGSV,1,1,02,70,08,024,,86,33,057,,0*7E
$GAGSV,2,1,06,02,52,226,41,09,22,106,41,11,21,063,36,18,28,301,42,2*7A
$GAGSV,2,2,06,30,36,302,42,36,63,019,46,2*7B
$GAGSV,2,1,06,02,52,226,38,09,22,106,36,11,21,063,36,18,28,301,44,7*77
$GAGSV,2,2,06,30,36,302,39,36,63,019,45,7*71
$GBGSV,3,1,09,03,44,206,33,07,75,228,39,08,50,239,38,10,70,272,33,1*72
$GBGSV,3,2,09,11,50,065,48,23,25,238,32,28,31,296,40,34,33,084,47,1*73
$GBGSV,3,3,09,37,21,293,43,1*47
$GBGSV,2,1,06,03,44,206,32,07,75,228,39,08,50,239,43,10,70,272,26,3*77
$GBGSV,2,2,06,11,50,065,45,13,,,37,3*43
$GNRMC,034621.00,A,3727.0608567,N,12639.0858496,E,0.017,,220622,,,R,V*0F
$GNVTG,,T,,M,0.017,N,0.031,K,D*3C
$GNGNS,034621.00,3727.0608567,N,12639.0858496,E,RRRR,28,0.61,20.220,17.831,8.0,4095,V*07
$GNGGA,034621.00,3727.0608567,N,12639.0858496,E,4,12,0.61,20.220,M,17.831,M,8.0,4095*5B
$GNGSA,A,3,01,19,06,17,03,41,14,,,,,,1.19,0.61,1.03,1*07
$GNGSA,A,3,78,76,77,88,87,72,71,,,,,,1.19,0.61,1.03,2*0C
$GNGSA,A,3,30,09,02,11,36,,,,,,,,1.19,0.61,1.03,3*02
$GNGSA,A,3,28,11,23,03,37,08,07,10,34,,,,1.19,0.61,1.03,4*0D
$GPGSV,2,1,08,01,23,057,36,03,51,060,46,06,39,268,29,14,49,195,37,1*61
$GPGSV,2,2,08,17,71,358,47,19,51,319,42,28,,,29,41,27,238,40,1*5C
$GPGSV,2,1,06,01,23,057,31,03,51,060,40,04,,,34,06,39,268,34,6*57
$GPGSV,2,2,06,14,49,195,31,17,71,358,36,6*69
$GPGSV,1,1,01,40,06,259,,0*58
$GLGSV,2,1,08,65,05,171,36,71,37,066,44,72,35,130,34,76,17,205,40,1*77
$GLGSV,2,2,08,77,38,255,09,78,22,320,41,87,48,330,41,88,17,288,35,1*7F
$GLGSV,2,1,07,65,05,171,26,71,37,066,40,72,35,130,29,76,17,205,36,3*72
$GLGSV,2,2,07,77,38,255,29,78,22,320,36,88,17,288,11,3*40
$GLGSV,1,1,02,70,08,024,,86,33,057,,0*7E
$GAGSV,2,1,06,02,52,226,41,09,22,106,41,11,21,063,35,18,28,301,41,2*7A
$GAGSV,2,2,06,30,36,302,42,36,63,019,45,2*78
$GAGSV,2,1,06,02,52,226,38,09,22,106,35,11,21,063,36,18,28,301,44,7*74
$GAGSV,2,2,06,30,36,302,39,36,63,019,45,7*71
$GBGSV,3,1,09,03,44,206,32,07,75,228,39,08,50,239,38,10,70,272,34,1*74
$GBGSV,3,2,09,11,50,065,48,23,25,238,32,28,31,296,40,34,33,084,47,1*73
$GBGSV,3,3,09,37,21,293,43,1*47
$GBGSV,2,1,06,03,44,206,31,07,75,228,38,08,50,239,43,10,70,272,25,3*76
$GBGSV,2,2,06,11,50,065,45,13,,,37,3*43
$GNRMC,034622.00,A,3727.0608567,N,12639.0858510,E,0.013,,220622,,,R,V*07
$GNVTG,,T,,M,0.013,N,0.025,K,D*3D
$GNGNS,034622.00,3727.0608567,N,12639.0858510,E,RRRR,28,0.61,20.226,17.831,9.0,4095,V*0C
$GNGGA,034622.00,3727.0608567,N,12639.0858510,E,4,12,0.61,20.226,M,17.831,M,9.0,4095*50
$GNGSA,A,3,01,19,06,17,03,41,14,,,,,,1.19,0.61,1.03,1*07
$GNGSA,A,3,78,76,77,88,87,72,71,,,,,,1.19,0.61,1.03,2*0C
$GNGSA,A,3,30,09,02,11,36,,,,,,,,1.19,0.61,1.03,3*02
$GNGSA,A,3,28,11,23,03,37,08,07,10,34,,,,1.19,0.61,1.03,4*0D
$GPGSV,2,1,08,01,23,057,36,03,51,060,46,06,39,268,26,14,49,195,36,1*6F
$GPGSV,2,2,08,17,71,358,47,19,51,319,41,28,,,30,41,27,238,40,1*57
$GPGSV,2,1,06,01,23,057,31,03,51,060,40,04,,,33,06,39,268,34,6*50
$GPGSV,2,2,06,14,49,195,30,17,71,358,36,6*68
$GPGSV,1,1,01,40,06,259,,0*58
$GLGSV,2,1,08,65,05,171,36,71,37,066,44,72,35,130,34,76,17,205,41,1*76
$GLGSV,2,2,08,77,38,255,14,78,22,320,41,87,48,330,39,88,17,288,35,1*7C
$GLGSV,2,1,07,65,05,171,26,71,37,066,40,72,35,130,29,76,17,205,36,3*72
$GLGSV,2,2,07,77,38,255,30,78,22,320,37,88,17,288,15,3*4D
$GLGSV,1,1,02,70,08,024,,86,33,057,,0*7E
$GAGSV,2,1,06,02,52,226,39,09,22,106,41,11,21,063,35,18,28,301,42,2*76
$GAGSV,2,2,06,30,36,302,43,36,63,019,45,2*79
$GAGSV,2,1,06,02,52,226,38,09,22,106,35,11,21,063,36,18,28,301,44,7*74
$GAGSV,2,2,06,30,36,302,39,36,63,019,45,7*71
$GBGSV,3,1,09,03,44,206,33,07,75,228,39,08,50,239,38,10,70,272,34,1*75
$GBGSV,3,2,09,11,50,065,48,23,25,238,34,28,31,296,40,34,33,085,47,1*74
$GBGSV,3,3,09,37,21,293,43,1*47
$GBGSV,2,1,06,03,44,206,31,07,75,228,38,08,50,239,43,10,70,272,26,3*75
$GBGSV,2,2,06,11,50,065,45,13,,,37,3*43
$GNRMC,034623.00,A,3727.0608566,N,12639.0858530,E,0.006,,220622,,,R,V*01
$GNVTG,,T,,M,0.006,N,0.010,K,D*3F
$GNGNS,034623.00,3727.0608566,N,12639.0858530,E,RRRR,28,0.61,20.228,17.831,10.0,4095,V*38
$GNGGA,034623.00,3727.0608566,N,12639.0858530,E,4,12,0.61,20.228,M,17.831,M,10.0,4095*64
$GNGSA,A,3,01,19,06,17,03,41,14,,,,,,1.19,0.61,1.03,1*07
$GNGSA,A,3,78,76,77,88,87,72,71,,,,,,1.19,0.61,1.03,2*0C
$GNGSA,A,3,30,09,02,11,36,,,,,,,,1.19,0.61,1.03,3*02
$GNGSA,A,3,28,11,23,03,37,08,07,10,34,,,,1.19,0.61,1.03,4*0D
$GPGSV,2,1,08,01,23,057,36,03,51,060,46,06,39,268,24,14,49,195,36,1*6D
$GPGSV,2,2,08,17,71,358,47,19,51,319,41,28,,,29,41,27,238,40,1*5F
$GPGSV,2,1,06,01,23,057,31,03,51,060,39,04,,,33,06,39,268,34,6*5E
$GPGSV,2,2,06,14,49,195,29,17,71,358,35,6*63
$GPGSV,1,1,01,40,06,259,,0*58
$GLGSV,2,1,08,65,05,171,36,71,37,066,44,72,35,130,33,76,17,205,41,1*71
$GLGSV,2,2,08,77,38,255,15,78,22,320,42,87,48,330,39,88,17,288,34,1*7F
$GLGSV,2,1,07,65,05,171,26,71,37,066,40,72,35,130,28,76,17,205,36,3*73
$GLGSV,2,2,07,77,38,255,31,78,22,320,36,88,17,288,11,3*49
$GLGSV,1,1,02,70,08,024,,86,33,057,,0*7E
$GAGSV,2,1,06,02,52,226,40,09,22,106,41,11,21,063,35,18,28,301,43,2*79
$GAGSV,2,2,06,30,36,302,44,36,63,019,45,2*7E
$GAGSV,2,1,06,02,52,226,38,09,22,106,36,11,21,063,36,18,28,301,45,7*76
$GAGSV,2,2,06,30,36,302,39,36,63,019,44,7*70
$GBGSV,3,1,09,03,44,206,33,07,75,228,39,08,50,239,38,10,70,272,34,1*75
$GBGSV,3,2,09,11,50,065,47,23,25,238,35,28,31,296,40,34,33,085,47,1*7A
$GBGSV,3,3,09,37,21,292,43,1*46
$GBGSV,2,1,06,03,44,206,30,07,75,228,38,08,50,239,43,10,70,272,26,3*74
$GBGSV,2,2,06,11,50,065,45,13,,,37,3*43
$GNRMC,034624.00,A,3727.0608562,N,12639.0858516,E,0.015,,220622,,,R,V*04
$GNVTG,,T,,M,0.015,N,0.028,K,D*36
$GNGNS,034624.00,3727.0608562,N,12639.0858516,E,RRRR,28,0.61,20.226,17.831,11.0,4095,V*30
$GNGGA,034624.00,3727.0608562,N,12639.0858516,E,4,12,0.61,20.226,M,17.831,M,11.0,4095*6C
$GNGSA,A,3,01,19,06,17,03,41,14,,,,,,1.19,0.61,1.03,1*07
$GNGSA,A,3,78,76,77,88,87,72,71,,,,,,1.19,0.61,1.03,2*0C
$GNGSA,A,3,30,09,02,11,36,,,,,,,,1.19,0.61,1.03,3*02
$GNGSA,A,3,28,11,23,03,37,08,07,10,34,,,,1.19,0.61,1.03,4*0D
$GPGSV,2,1,08,01,23,057,37,03,51,060,46,06,39,268,21,14,49,195,37,1*68
$GPGSV,2,2,08,17,71,358,46,19,51,319,40,28,,,31,41,27,238,39,1*58
$GPGSV,2,1,06,01,23,057,31,03,51,060,39,04,,,34,06,39,268,34,6*59
$GPGSV,2,2,06,14,49,195,30,17,71,358,36,6*68
$GPGSV,1,1,01,40,06,259,,0*58
$GLGSV,2,1,08,65,05,171,36,71,37,066,44,72,35,130,31,76,17,205,41,1*73
$GLGSV,2,2,08,77,38,255,12,78,22,320,41,87,48,330,39,88,17,288,34,1*7B
$GLGSV,2,1,07,65,05,171,26,71,37,066,41,72,35,130,27,76,17,205,35,3*7E
$GLGSV,2,2,07,77,38,255,31,78,22,320,36,88,17,288,17,3*4F
$GLGSV,1,1,02,70,08,024,,86,33,057,,0*7E
$GAGSV,2,1,06,02,52,226,40,09,22,106,41,11,21,063,36,18,28,301,41,2*78
$GAGSV,2,2,06,30,36,302,43,36,63,019,45,2*79
$GAGSV,2,1,06,02,52,226,37,09,22,106,33,11,21,063,37,18,28,301,44,7*7C
$GAGSV,2,2,06,30,36,302,39,36,63,019,43,7*77
$GBGSV,3,1,09,03,44,206,33,07,75,228,39,08,50,239,38,10,70,272,34,1*75
$GBGSV,3,2,09,11,50,065,47,23,25,238,32,28,31,296,40,34,33,085,47,1*7D
$GBGSV,3,3,09,37,21,292,43,1*46
$GBGSV,2,1,06,03,44,206,31,07,75,228,38,08,50,239,42,10,70,272,26,3*74
$GBGSV,2,2,06,11,50,065,45,13,,,37,3*43
$GNRMC,034625.00,A,3727.0608556,N,12639.0858514,E,0.018,,220622,,,R,V*0D
$GNVTG,,T,,M,0.018,N,0.033,K,D*31
$GNGNS,034625.00,3727.0608556,N,12639.0858514,E,RRRR,28,0.61,20.226,17.831,12.0,4095,V*37
$GNGGA,034625.00,3727.0608556,N,12639.0858514,E,4,12,0.61,20.226,M,17.831,M,12.0,4095*6B
$GNGSA,A,3,01,19,06,17,03,41,14,,,,,,1.19,0.61,1.03,1*07
$GNGSA,A,3,78,76,77,88,87,72,71,,,,,,1.19,0.61,1.03,2*0C
$GNGSA,A,3,30,09,02,11,36,,,,,,,,1.19,0.61,1.03,3*02
$GNGSA,A,3,28,11,23,03,37,08,07,10,34,,,,1.19,0.61,1.03,4*0D
$GPGSV,2,1,08,01,23,057,37,03,51,060,46,06,39,268,28,14,49,195,36,1*60
$GPGSV,2,2,08,17,71,358,47,19,51,319,40,28,,,32,41,27,238,39,1*5A
$GPGSV,2,1,06,01,23,057,31,03,51,060,39,04,,,34,06,39,268,34,6*59
$GPGSV,2,2,06,14,49,195,29,17,71,358,35,6*63
$GPGSV,1,1,01,40,06,259,,0*58
$GLGSV,3,1,09,65,05,171,36,70,08,024,18,71,37,066,44,72,35,130,30,1*77
