$GPGSV,4,1,13,02,09,267,46,03,39,047,33,04,19,099,36,06,47,284,44,1*61
$GPGSV,4,2,13,09,17,133,29,11,12,260,32,12,07,323,35,14,33,188,41,1*62
$GPGSV,4,3,13,17,76,047,44,19,63,330,44,28,00,000,38,01,12,064,,1*69
$GPGSV,4,4,13,20,00,000,,1*54
$GLGSV,2,1,07,70,34,047,23,77,26,298,27,76,27,241,36,87,20,298,33,1*74
$GLGSV,2,2,07,85,28,070,36,71,47,118,42,72,17,167,40,1*46
$GAGSV,3,1,10,01,19,314,28,03,24,071,34,08,25,129,39,13,63,326,42,7*78
$GAGSV,3,2,10,15,39,057,38,21,45,264,38,26,20,272,30,27,30,196,37,7*73
$GAGSV,3,3,10,05,00,000,,07,02,172,,7*76
$GQGSV,1,1,03,02,29,178,44,03,79,075,36,04,00,000,42,1*59
$GBGSV,5,1,17,33,48,077,25,28,62,059,35,27,47,310,32,14,28,050,21,1*77
$GBGSV,5,2,17,13,42,246,44,10,66,257,40,08,52,251,39,07,68,219,39,1*7C
$GBGSV,5,3,17,04,35,130,36,03,43,205,32,02,27,234,28,01,42,150,40,1*7E
$GBGSV,5,4,17,05,07,254,,30,01,291,,32,02,195,,36,04,319,,1*7C
$GBGSV,5,5,17,37,12,219,,1*4D
$GNGSA,A,3,02,03,04,06,09,11,12,14,17,19,,,0.8,0.5,0.6,1*38
$GNGSA,A,3,71,72,76,77,85,87,,,,,,,0.8,0.5,0.6,2*39
$GNGSA,A,3,01,03,08,13,15,21,26,27,,,,,0.8,0.5,0.6,3*36
$GNGSA,A,3,01,02,03,04,07,08,10,13,27,28,33,,0.8,0.5,0.6,4*38
$GNGSA,A,3,02,03,,,,,,,,,,,0.8,0.5,0.6,5*3F
$GNVTG,,T,,M,0.0,N,0.0,K,A*3D
$GNDTM,P90,,0000.000025,S,00000.000001,W,0.982,W84*49
$GNRMC,042159.00,A,3726.929547,N,12639.251798,E,0.0,,210622,6.0,W,A,V*6E
$GNGNS,042159.00,3726.929547,N,12639.251798,E,AAAAAN,37,0.5,11.9,18.0,,,V*1C
$GNGGA,042159.00,3726.929547,N,12639.251798,E,1,12,0.5,11.9,M,18.0,M,,*44
$PSMSG,magcal=PASS,bluesky=0*00
$GPGSV,4,1,13,02,09,267,47,03,39,047,39,04,19,099,37,06,47,284,42,1*6D
$GPGSV,4,2,13,09,17,133,27,11,12,260,35,12,07,323,33,14,33,188,37,1*6C
$GPGSV,4,3,13,17,76,047,46,19,63,330,45,28,00,000,43,01,12,064,,1*66
$GPGSV,4,4,13,20,00,000,,1*54
$GLGSV,2,1,07,70,34,047,21,77,26,298,25,76,27,241,31,87,20,298,32,1*72
$GLGSV,2,2,07,85,28,070,30,71,47,118,41,72,17,167,40,1*43
$GAGSV,3,1,10,01,19,314,34,03,24,071,26,08,25,129,37,13,63,326,44,7*7E
$GAGSV,3,2,10,15,39,057,35,21,45,264,35,26,20,272,29,27,30,196,38,7*74
$GAGSV,3,3,10,05,00,000,,07,02,172,,7*76
$GQGSV,1,1,03,02,29,178,43,03,79,075,37,04,00,000,42,1*5F
$GBGSV,5,1,17,33,48,077,36,28,62,059,38,27,47,310,36,14,28,050,27,1*7A
$GBGSV,5,2,17,13,42,246,45,10,66,257,42,08,52,251,42,07,68,219,37,1*7D
$GBGSV,5,3,17,04,35,130,36,03,43,205,37,02,27,234,28,01,42,150,39,1*75
$GBGSV,5,4,17,05,07,254,,30,01,291,,32,02,195,,36,04,319,,1*7C
$GBGSV,5,5,17,37,12,219,,1*4D
$GNGSA,A,3,02,03,04,06,09,11,12,14,17,19,,,0.8,0.4,0.6,1*39
$GNGSA,A,3,71,72,76,77,85,87,,,,,,,0.8,0.4,0.6,2*38
$GNGSA,A,3,01,03,08,13,15,21,26,27,,,,,0.8,0.4,0.6,3*37
$GNGSA,A,3,01,02,03,04,07,08,10,13,14,27,28,33,0.8,0.4,0.6,4*3C
$GNGSA,A,3,02,03,,,,,,,,,,,0.8,0.4,0.6,5*3E
$GNVTG,,T,,M,0.0,N,0.0,K,A*3D
$GNDTM,P90,,0000.000025,S,00000.000001,W,0.982,W84*49
$GNRMC,042200.00,A,3726.929554,N,12639.251796,E,0.0,,210622,6.0,W,A,V*6D
$GNGNS,042200.00,3726.929554,N,12639.251796,E,AAAAAN,38,0.4,11.8,18.0,,,V*10
$GNGGA,042200.00,3726.929554,N,12639.251796,E,1,12,0.4,11.8,M,18.0,M,,*47
$PSMSG,magcal=PASS,bluesky=0*00
$GPGSV,4,1,13,02,09,267,47,03,39,047,42,04,19,099,30,06,47,284,42,1*66
$GPGSV,4,2,13,09,17,133,24,11,13,261,36,12,07,323,33,14,33,188,39,1*62
$GPGSV,4,3,13,17,76,047,47,19,63,330,45,28,00,000,43,01,12,064,,1*67
$GPGSV,4,4,13,20,00,000,,1*54
$GLGSV,2,1,07,70,34,047,33,77,26,298,26,76,27,241,25,87,20,298,33,1*76
$GLGSV,2,2,07,85,28,070,33,71,47,118,43,72,17,167,42,1*40
$GAGSV,3,1,10,01,19,314,34,03,24,071,31,08,25,129,38,13,63,326,43,7*70
$GAGSV,3,2,10,15,39,057,30,21,45,264,35,26,20,272,31,27,30,196,38,7*78
$GAGSV,3,3,10,05,00,000,,07,02,172,,7*76
$GQGSV,1,1,03,02,29,178,43,03,79,075,40,04,00,000,42,1*5F
$GBGSV,5,1,17,37,12,219,31,33,48,077,39,28,62,059,44,27,47,310,36,1*7E
$GBGSV,5,2,17,14,28,050,34,13,42,246,45,10,66,257,42,08,52,251,42,1*77
$GBGSV,5,3,17,07,68,219,38,04,35,130,36,03,43,205,37,02,27,234,28,1*74
$GBGSV,5,4,17,01,42,150,38,05,07,254,,30,01,291,,32,02,195,,1*7E
$GBGSV,5,5,17,36,04,319,,1*4A
$GNGSA,A,3,02,03,04,06,09,11,12,14,17,19,,,0.7,0.4,0.6,1*36
$GNGSA,A,3,70,71,72,76,77,85,87,,,,,,0.7,0.4,0.6,2*30
$GNGSA,A,3,01,03,08,13,15,21,26,27,,,,,0.7,0.4,0.6,3*38
$GNGSA,A,3,01,02,03,04,07,08,10,13,14,27,28,33,0.7,0.4,0.6,4*33
$GNGSA,A,3,02,03,,,,,,,,,,,0.7,0.4,0.6,5*31
$GNVTG,,T,,M,0.0,N,0.0,K,A*3D
$GNDTM,P90,,0000.000025,S,00000.000001,W,0.982,W84*49
$GNRMC,042201.00,A,3726.929559,N,12639.251794,E,0.0,,210622,6.0,W,A,V*63
$GNGNS,042201.00,3726.929559,N,12639.251794,E,AAAAAN,40,0.4,11.8,18.0,,,V*11
$GNGGA,042201.00,3726.929559,N,12639.251794,E,1,12,0.4,11.8,M,18.0,M,,*49
$PSMSG,magcal=PASS,bluesky=0*00
$GPGSV,4,1,13,02,09,267,47,03,39,047,45,04,19,099,33,06,47,284,43,1*63
$GPGSV,4,2,13,09,17,133,24,11,13,261,35,12,07,323,33,14,33,188,41,1*6E
$GPGSV,4,3,13,17,76,047,46,19,63,330,45,28,00,000,44,01,12,064,,1*61
$GPGSV,4,4,13,20,00,000,,1*54
$GLGSV,2,1,07,70,34,047,33,77,26,298,27,76,27,241,25,87,20,298,33,1*77
$GLGSV,2,2,07,85,28,070,36,71,47,118,43,72,17,167,39,1*49
$GAGSV,3,1,10,01,19,314,34,03,24,071,34,08,25,129,37,13,63,326,43,7*7A
$GAGSV,3,2,10,15,39,057,29,21,45,264,36,26,20,272,32,27,30,196,37,7*7F
$GAGSV,3,3,10,05,00,000,,07,02,172,,7*76
$GQGSV,1,1,03,02,29,178,43,03,79,075,40,04,00,000,42,1*5F
$GBGSV,5,1,17,37,12,219,31,33,48,077,42,28,62,059,45,27,47,310,36,1*73
$GBGSV,5,2,17,14,28,050,35,13,42,246,45,10,66,257,42,08,52,251,42,1*76
$GBGSV,5,3,17,07,68,219,38,04,35,130,30,03,43,205,38,02,27,234,28,1*7D
$GBGSV,5,4,17,01,42,150,39,05,07,254,,30,01,291,,32,02,195,,1*7F
$GBGSV,5,5,17,36,04,319,,1*4A
$GNGSA,A,3,02,03,04,06,09,11,12,14,17,19,,,0.7,0.4,0.6,1*36
$GNGSA,A,3,70,71,72,76,77,85,87,,,,,,0.7,0.4,0.6,2*30
$GNGSA,A,3,01,03,08,13,15,21,26,27,,,,,0.7,0.4,0.6,3*38
$GNGSA,A,3,01,02,03,04,07,08,10,13,14,27,28,33,0.7,0.4,0.6,4*33
$GNGSA,A,3,02,03,,,,,,,,,,,0.7,0.4,0.6,5*31
$GNVTG,,T,,M,0.0,N,0.0,K,A*3D
$GNDTM,P90,,0000.000025,S,00000.000001,W,0.982,W84*49
$GNRMC,042202.00,A,3726.929560,N,12639.251794,E,0.0,,210622,6.0,W,A,V*6A
$GNGNS,042202.00,3726.929560,N,12639.251794,E,AAAAAN,40,0.4,11.9,18.0,,,V*19
$GNGGA,042202.00,3726.929560,N,12639.251794,E,1,12,0.4,11.9,M,18.0,M,,*41
$PSMSG,magcal=PASS,bluesky=0*00
$GPGSV,4,1,13,02,09,267,48,03,39,047,42,04,19,099,36,06,47,284,44,1*69
$GPGSV,4,2,13,09,17,133,28,11,13,261,34,12,07,323,33,14,33,188,40,1*62
$GPGSV,4,3,13,17,76,047,46,19,63,330,46,28,00,000,43,01,12,064,,1*65
$GPGSV,4,4,13,20,00,000,,1*54
$GLGSV,2,1,07,70,34,047,32,77,26,298,27,76,27,241,25,87,20,298,30,1*75
$GLGSV,2,2,07,85,28,070,36,71,47,118,43,72,17,167,39,1*49
$GAGSV,3,1,10,01,19,314,35,03,24,071,35,08,25,129,38,13,63,326,43,7*75
$GAGSV,3,2,10,15,39,057,32,21,45,264,35,26,20,272,32,27,30,196,39,7*78
$GAGSV,3,3,10,05,00,000,,07,02,172,,7*76
$GQGSV,1,1,03,02,29,178,44,03,79,075,41,04,00,000,43,1*58
$GBGSV,5,1,17,37,12,219,31,33,48,077,40,32,02,195,19,28,62,059,45,1*76
$GBGSV,5,2,17,27,47,310,38,14,28,050,33,13,42,246,45,10,66,257,42,1*70
$GBGSV,5,3,17,08,52,251,42,07,68,219,38,04,35,130,33,03,43,205,38,1*79
$GBGSV,5,4,17,02,27,234,28,01,42,150,40,05,07,254,,30,01,291,,1*77
$GBGSV,5,5,17,36,04,319,,1*4A
$GNGSA,A,3,02,03,04,06,09,11,12,14,17,19,,,0.7,0.4,0.6,1*36
$GNGSA,A,3,70,71,72,76,77,85,87,,,,,,0.7,0.4,0.6,2*30
$GNGSA,A,3,01,03,08,13,15,21,26,27,,,,,0.7,0.4,0.6,3*38
$GNGSA,A,3,01,02,03,04,07,08,10,13,14,27,28,33,0.7,0.4,0.6,4*33
$GNGSA,A,3,02,03,,,,,,,,,,,0.7,0.4,0.6,5*31
$GNVTG,,T,,M,0.0,N,0.0,K,A*3D
$GNDTM,P90,,0000.000025,S,00000.000001,W,0.982,W84*49
$GNRMC,042203.00,A,3726.929559,N,12639.251793,E,0.0,,210622,6.0,W,A,V*66
$GNGNS,042203.00,3726.929559,N,12639.251793,E,AAAAAN,40,0.4,11.9,18.0,,,V*15
$GNGGA,042203.00,3726.929559,N,12639.251793,E,1,12,0.4,11.9,M,18.0,M,,*4D
$PSMSG,magcal=PASS,bluesky=0*00
$GPGSV,4,1,13,02,09,267,48,03,39,047,44,04,19,099,35,06,47,284,44,1*6C
$GPGSV,4,2,13,09,17,133,28,11,13,261,34,12,07,323,31,14,33,188,41,1*61
$GPGSV,4,3,13,17,76,047,44,19,63,330,45,28,00,000,43,01,12,064,,1*64
$GPGSV,4,4,13,20,00,000,,1*54
$GLGSV,2,1,07,70,34,047,33,77,26,298,26,76,27,241,32,87,20,298,30,1*73
$GLGSV,2,2,07,85,28,070,44,71,47,118,43,72,17,167,41,1*43
$GAGSV,3,1,10,01,19,314,36,03,24,071,40,08,25,129,39,13,63,326,45,7*73
$GAGSV,3,2,10,15,39,057,32,21,45,264,37,26,20,272,35,27,30,196,39,7*7D
$GAGSV,3,3,10,05,00,000,,07,02,172,,7*76
$GQGSV,1,1,03,02,29,178,44,03,79,075,44,04,00,000,43,1*5D
$GBGSV,5,1,17,37,12,219,33,33,48,077,40,32,02,195,19,28,62,059,45,1*74
$GBGSV,5,2,17,27,47,310,37,14,28,050,34,13,42,246,46,10,66,257,42,1*7B
$GBGSV,5,3,17,08,52,251,42,07,68,219,37,04,35,130,33,03,43,205,38,1*76
$GBGSV,5,4,17,02,27,234,24,01,42,150,40,05,07,254,,30,01,291,,1*7B
$GBGSV,5,5,17,36,04,319,,1*4A
$GNGSA,A,3,02,03,04,06,09,11,12,14,17,19,,,0.7,0.4,0.6,1*36
$GNGSA,A,3,70,71,72,76,77,85,87,,,,,,0.7,0.4,0.6,2*30
$GNGSA,A,3,01,03,08,13,15,21,26,27,,,,,0.7,0.4,0.6,3*38
$GNGSA,A,3,01,02,03,04,07,08,10,13,14,27,28,33,0.7,0.4,0.6,4*33
$GNGSA,A,3,02,03,,,,,,,,,,,0.7,0.4,0.6,5*31
$GNVTG,,T,,M,0.0,N,0.0,K,A*3D
$GNDTM,P90,,0000.000025,S,00000.000001,W,0.982,W84*49
$GNRMC,042204.00,A,3726.929556,N,12639.251792,E,0.0,,210622,6.0,W,A,V*6F
$GNGNS,042204.00,3726.929556,N,12639.251792,E,AAAAAN,40,0.4,11.9,18.0,,,V*1C
$GNGGA,042204.00,3726.929556,N,12639.251792,E,1,12,0.4,11.9,M,18.0,M,,*44
$PSMSG,magcal=PASS,bluesky=0*00
$GPGSV,4,1,13,02,09,267,48,03,39,047,45,04,19,099,36,06,47,284,47,1*6D
$GPGSV,4,2,13,09,17,133,32,11,13,261,33,12,07,323,31,14,33,188,43,1*6F
$GPGSV,4,3,13,17,76,047,45,19,63,330,45,28,00,000,43,01,12,064,,1*65
$GPGSV,4,4,13,20,00,000,,1*54
$GLGSV,2,1,07,70,34,047,36,77,26,298,26,76,27,241,35,87,20,298,35,1*74
$GLGSV,2,2,07,85,28,070,44,71,47,118,44,72,17,167,40,1*45
$GAGSV,3,1,10,01,19,314,39,03,24,071,38,08,25,129,40,13,63,326,45,7*7D
$GAGSV,3,2,10,15,39,057,38,21,45,264,38,26,20,272,38,27,30,196,42,7*79
$GAGSV,3,3,10,05,00,000,,07,02,172,,7*76
$GQGSV,1,1,03,02,29,178,45,03,79,075,39,04,00,000,45,1*50
$GBGSV,5,1,17,37,12,219,34,33,48,077,43,28,62,059,43,27,47,310,36,1*71
$GBGSV,5,2,17,14,28,050,34,13,42,246,43,10,66,257,43,08,52,251,42,1*70
$GBGSV,5,3,17,07,68,219,39,05,07,254,23,04,35,130,33,03,43,205,39,1*76
$GBGSV,5,4,17,02,27,234,35,01,42,150,39,30,01,291,,32,02,195,,1*7A
$GBGSV,5,5,17,36,04,319,,1*4A
$GNGSA,A,3,02,03,04,06,09,11,12,14,17,19,,,0.7,0.4,0.6,1*36
$GNGSA,A,3,70,71,72,76,77,85,87,,,,,,0.7,0.4,0.6,2*30
$GNGSA,A,3,01,03,08,13,15,21,26,27,,,,,0.7,0.4,0.6,3*38
$GNGSA,A,3,01,02,03,04,07,08,10,13,14,27,28,33,0.7,0.4,0.6,4*33
$GNGSA,A,3,02,03,,,,,,,,,,,0.7,0.4,0.6,5*31
$GNVTG,,T,,M,0.0,N,0.0,K,A*3D
$GNDTM,P90,,0000.000025,S,00000.000001,W,0.982,W84*49
$GNRMC,042205.00,A,3726.929555,N,12639.251792,E,0.0,,210622,6.0,W,A,V*6D
$GNGNS,042205.00,3726.929555,N,12639.251792,E,AAAAAN,40,0.4,11.9,18.0,,,V*1E
$GNGGA,042205.00,3726.929555,N,12639.251792,E,1,12,0.4,11.9,M,18.0,M,,*46
$PSMSG,magcal=PASS,bluesky=0*00
$GPGSV,4,1,13,02,09,267,47,03,39,047,45,04,19,099,34,06,47,284,50,1*66
$GPGSV,4,2,13,09,17,133,34,11,13,261,36,14,33,188,42,17,76,047,44,1*6D
$GPGSV,4,3,13,19,63,330,47,28,00,000,45,01,12,064,,12,07,323,,1*62
$GPGSV,4,4,13,20,00,000,,1*54
$GLGSV,2,1,07,70,34,047,36,77,26,298,26,76,27,241,41,87,20,298,37,1*75
$GLGSV,2,2,07,85,28,070,45,71,47,118,45,72,17,167,41,1*44
$GAGSV,3,1,10,01,19,314,36,03,24,071,39,08,25,129,40,13,63,326,46,7*70
$GAGSV,3,2,10,15,39,057,39,21,45,264,37,26,20,272,38,27,30,196,44,7*71
$GAGSV,3,3,10,05,00,000,,07,02,172,,7*76
$GQGSV,1,1,03,02,29,178,44,03,79,075,41,04,00,000,45,1*5E
$GBGSV,5,1,17,37,12,219,38,33,48,077,44,32,02,195,26,28,62,059,45,1*77
$GBGSV,5,2,17,27,47,310,37,14,28,050,34,13,42,246,39,10,66,257,39,1*7F
$GBGSV,5,3,17,08,52,251,38,07,68,219,41,04,35,130,30,03,43,205,42,1*74
$GBGSV,5,4,17,02,27,234,35,01,42,150,41,05,07,254,,30,01,291,,1*7A
$GBGSV,5,5,17,36,04,319,,1*4A
$GNGSA,A,3,02,03,04,06,09,11,12,14,17,19,,,0.7,0.4,0.6,1*36
$GNGSA,A,3,70,71,72,76,77,85,87,,,,,,0.7,0.4,0.6,2*30
$GNGSA,A,3,01,03,08,13,15,21,26,27,,,,,0.7,0.4,0.6,3*38
$GNGSA,A,3,01,02,03,04,07,08,10,13,14,27,28,33,0.7,0.4,0.6,4*33
$GNGSA,A,3,02,03,,,,,,,,,,,0.7,0.4,0.6,5*31
$GNVTG,,T,,M,0.0,N,0.0,K,A*3D
$GNDTM,P90,,0000.000025,S,00000.000001,W,0.982,W84*49
$GNRMC,042206.00,A,3726.929553,N,12639.251790,E,0.0,,210622,6.0,W,A,V*6A
$GNGNS,042206.00,3726.929553,N,12639.251790,E,AAAAAN,40,0.4,11.9,18.0,,,V*19
$GNGGA,042206.00,3726.929553,N,12639.251790,E,1,12,0.4,11.9,M,18.0,M,,*41
$PSMSG,magcal=PASS,bluesky=0*00
$GPGSV,4,1,13,01,12,064,28,02,09,267,40,03,39,047,46,04,19,099,35,1*67
$GPGSV,4,2,13,06,47,284,49,09,17,133,35,11,13,261,36,14,33,188,41,1*6D
$GPGSV,4,3,13,17,76,047,46,19,63,330,46,28,00,000,47,12,07,323,,1*67
$GPGSV,4,4,13,20,00,000,,1*54
$GLGSV,2,1,07,70,34,047,36,77,26,298,26,76,27,241,37,87,20,298,37,1*74
$GLGSV,2,2,07,85,28,070,44,71,47,118,45,72,17,167,40,1*44
$GAGSV,3,1,10,01,19,314,37,03,24,071,40,08,25,129,41,13,63,326,45,7*7D
$GAGSV,3,2,10,15,39,057,39,21,45,264,40,26,20,272,37,27,30,196,43,7*79
$GAGSV,3,3,10,05,00,000,,07,02,172,,7*76
$GQGSV,1,1,03,02,29,178,44,03,79,075,42,04,00,000,45,1*5D
$GBGSV,5,1,17,37,12,219,37,33,48,077,41,32,02,195,25,28,62,059,44,1*7F
$GBGSV,5,2,17,27,47,310,37,14,28,050,34,13,42,246,41,10,66,257,40,1*7E
$GBGSV,5,3,17,08,52,251,42,07,68,219,41,04,35,130,30,03,43,205,41,1*7A
$GBGSV,5,4,17,02,27,234,35,01,42,150,41,05,07,254,,30,01,291,,1*7A
$GBGSV,5,5,17,36,04,319,,1*4A
$GNGSA,A,3,01,02,03,04,06,09,11,12,14,17,19,,0.7,0.4,0.6,1*37
$GNGSA,A,3,70,71,72,76,77,85,87,,,,,,0.7,0.4,0.6,2*30
$GNGSA,A,3,01,03,08,13,15,21,26,27,,,,,0.7,0.4,0.6,3*38
$GNGSA,A,3,01,02,03,04,07,08,10,13,14,27,28,33,0.7,0.4,0.6,4*33
$GNGSA,A,3,02,03,,,,,,,,,,,0.7,0.4,0.6,5*31
$GNVTG,,T,,M,0.0,N,0.0,K,A*3D
$GNDTM,P90,,0000.000025,S,00000.000001,W,0.982,W84*49
$GNRMC,042207.00,A,3726.929550,N,12639.251788,E,0.0,,210622,6.0,W,A,V*61
$GNGNS,042207.00,3726.929550,N,12639.251788,E,AAAAAN,41,0.4,11.9,18.0,,,V*13
$GNGGA,042207.00,3726.929550,N,12639.251788,E,1,12,0.4,11.9,M,18.0,M,,*4A
$PSMSG,magcal=PASS,bluesky=0*00
$GPGSV,4,1,13,01,12,064,28,02,09,267,45,03,39,047,46,04,19,099,34,1*63
$GPGSV,4,2,13,06,47,284,49,09,17,133,35,11,13,261,38,14,33,188,43,1*61
$GPGSV,4,3,13,17,76,047,46,19,63,330,46,28,00,000,47,12,07,323,,1*67
$GPGSV,4,4,13,20,00,000,,1*54
$GLGSV,2,1,07,70,34,047,37,77,26,298,20,76,27,241,40,87,20,298,39,1*7D
$GLGSV,2,2,07,85,28,070,44,71,47,118,44,72,17,167,41,1*44
$GAGSV,3,1,10,01,19,314,37,03,24,071,40,08,25,129,41,13,63,326,45,7*7D
$GAGSV,3,2,10,15,39,057,40,21,45,264,41,26,20,272,38,27,30,196,44,7*7E
$GAGSV,3,3,10,05,00,000,,07,02,172,,7*76
$GQGSV,1,1,03,02,29,178,44,03,79,075,42,04,00,000,45,1*5D
$GBGSV,5,1,17,37,12,219,38,33,48,077,42,32,02,195,24,28,62,059,44,1*72
$GBGSV,5,2,17,27,47,310,35,14,28,050,35,13,42,246,45,10,66,257,42,1*7B
$GBGSV,5,3,17,08,52,251,43,07,68,219,40,04,35,130,30,03,43,205,41,1*7A
$GBGSV,5,4,17,02,27,234,34,01,42,150,40,05,07,254,,30,01,291,,1*7A
$GBGSV,5,5,17,36,04,319,,1*4A
$GNGSA,A,3,01,02,03,04,06,09,11,12,14,17,19,,0.7,0.4,0.6,1*37
$GNGSA,A,3,70,71,72,76,77,85,87,,,,,,0.7,0.4,0.6,2*30
$GNGSA,A,3,01,03,08,13,15,21,26,27,,,,,0.7,0.4,0.6,3*38
$GNGSA,A,3,01,02,03,04,07,08,10,13,14,27,28,33,0.7,0.4,0.6,4*33
$GNGSA,A,3,02,03,,,,,,,,,,,0.7,0.4,0.6,5*31
$GNVTG,,T,,M,0.0,N,0.0,K,A*3D
$GNDTM,P90,,0000.000025,S,00000.000001,W,0.982,W84*49
$GNRMC,042208.00,A,3726.929548,N,12639.251785,E,0.0,,210622,6.0,W,A,V*6A
$GNGNS,042208.00,3726.929548,N,12639.251785,E,AAAAAN,41,0.4,11.9,18.0,,,V*18
$GNGGA,042208.00,3726.929548,N,12639.251785,E,1,12,0.4,11.9,M,18.0,M,,*41
$PSMSG,magcal=PASS,bluesky=0*00
$GPGSV,4,1,13,01,12,064,26,02,09,267,48,03,39,047,46,04,19,099,35,1*61
$GPGSV,4,2,13,06,47,284,48,09,17,133,33,11,13,261,39,12,07,323,30,1*61
$GPGSV,4,3,13,14,33,188,42,17,76,047,46,19,63,330,45,28,00,000,46,1*61
$GPGSV,4,4,13,20,00,000,,1*54
$GLGSV,2,1,07,70,34,047,36,77,26,298,20,76,27,241,39,87,20,298,37,1*7C
$GLGSV,2,2,07,85,28,070,44,71,47,118,43,72,17,167,41,1*43
$GAGSV,3,1,10,01,19,314,36,03,24,071,39,08,25,129,39,13,63,326,45,7*7D
$GAGSV,3,2,10,15,39,057,39,21,45,264,38,26,20,272,38,27,30,196,43,7*79
$GAGSV,3,3,10,05,00,000,,07,02,172,,7*76
$GQGSV,1,1,03,02,29,178,43,03,79,075,42,04,00,000,45,1*5A
$GBGSV,5,1,17,37,12,219,37,33,48,077,41,32,02,195,24,28,62,059,44,1*7E
$GBGSV,5,2,17,27,47,310,35,14,28,050,34,13,42,246,44,10,66,257,41,1*78
$GBGSV,5,3,17,08,52,251,42,07,68,219,40,04,35,130,30,03,43,205,41,1*7B
$GBGSV,5,4,17,02,27,234,34,01,42,150,40,05,07,254,,30,01,291,,1*7A
$GBGSV,5,5,17,36,04,319,,1*4A
$GNGSA,A,3,01,02,03,04,06,09,11,12,14,17,19,,0.7,0.4,0.6,1*37
$GNGSA,A,3,70,71,72,76,77,85,87,,,,,,0.7,0.4,0.6,2*30
$GNGSA,A,3,01,03,08,13,15,21,26,27,,,,,0.7,0.4,0.6,3*38
$GNGSA,A,3,01,02,03,07,08,10,13,14,27,28,33,37,0.7,0.4,0.6,4*33
$GNGSA,A,3,02,03,,,,,,,,,,,0.7,0.4,0.6,5*31
$GNVTG,,T,,M,0.0,N,0.0,K,A*3D
$GNDTM,P90,,0000.000025,S,00000.000001,W,0.982,W84*49
$GNRMC,042209.00,A,3726.929546,N,12639.251782,E,0.0,,210622,6.0,W,A,V*62
$GNGNS,042209.00,3726.929546,N,12639.251782,E,AAAAAN,40,0.4,11.9,18.0,,,V*11
$GNGGA,042209.00,3726.929546,N,12639.251782,E,1,12,0.4,11.9,M,18.0,M,,*49
$PSMSG,magcal=PASS,bluesky=0*00
$GPGSV,4,1,13,01,12,064,27,02,09,267,48,03,39,047,46,04,19,099,34,1*61
$GPGSV,4,2,13,06,47,284,48,09,17,133,33,11,13,261,39,12,07,323,32,1*63
$GPGSV,4,3,13,14,33,188,42,17,76,047,46,19,63,330,46,28,00,000,46,1*62
$GPGSV,4,4,13,20,00,000,,1*54
$GLGSV,2,1,07,70,34,047,37,77,26,298,23,76,27,241,39,87,20,298,36,1*7F
$GLGSV,2,2,07,85,28,070,44,71,47,118,44,72,17,167,41,1*44
$GAGSV,3,1,10,01,19,314,35,03,24,071,39,08,25,129,39,13,63,326,46,7*7D
$GAGSV,3,2,10,15,39,057,38,21,45,264,37,26,20,272,40,27,30,196,43,7*78
$GAGSV,3,3,10,05,00,000,,07,02,172,,7*76
$GQGSV,1,1,03,02,29,178,44,03,79,075,42,04,00,000,45,1*5D
$GBGSV,5,1,17,37,12,219,38,33,48,077,41,32,02,195,24,28,62,059,44,1*71
$GBGSV,5,2,17,27,47,310,37,14,28,050,35,13,42,246,45,10,66,257,41,1*7A
$GBGSV,5,3,17,08,52,251,43,07,68,219,41,05,07,254,24,04,35,130,30,1*7A
$GBGSV,5,4,17,03,43,205,41,02,27,234,35,01,42,150,40,30,01,291,,1*7C
$GBGSV,5,5,17,36,04,319,,1*4A
$GNGSA,A,3,01,02,03,04,06,09,11,12,14,17,19,,0.7,0.4,0.6,1*37
$GNGSA,A,3,70,71,72,76,85,87,,,,,,,0.7,0.4,0.6,2*30
$GNGSA,A,3,01,03,08,13,15,21,26,27,,,,,0.7,0.4,0.6,3*38
$GNGSA,A,3,01,02,03,07,08,10,13,14,27,28,33,37,0.7,0.4,0.6,4*33
$GNGSA,A,3,02,03,,,,,,,,,,,0.7,0.4,0.6,5*31
$GNVTG,,T,,M,0.0,N,0.0,K,A*3D
$GNDTM,P90,,0000.000025,S,00000.000001,W,0.982,W84*49
$GNRMC,042210.00,A,3726.929545,N,12639.251780,E,0.0,,210622,6.0,W,A,V*6B
$GNGNS,042210.00,3726.929545,N,12639.251780,E,AAAAAN,39,0.4,11.9,18.0,,,V*16
$GNGGA,042210.00,3726.929545,N,12639.251780,E,1,12,0.4,11.9,M,18.0,M,,*40
$PSMSG,magcal=PASS,bluesky=0*00
$GPGSV,4,1,13,01,12,064,27,02,09,267,48,03,39,047,46,04,19,099,34,1*61
$GPGSV,4,2,13,06,47,284,48,09,17,133,34,11,13,261,39,12,07,323,30,1*66
$GPGSV,4,3,13,14,33,188,43,17,76,047,46,19,63,330,46,28,00,000,46,1*63
$GPGSV,4,4,13,20,00,000,,1*54
$GLGSV,2,1,07,70,34,047,37,77,26,298,24,76,27,241,41,87,20,298,36,1*77
$GLGSV,2,2,07,85,28,070,44,71,47,118,44,72,17,167,41,1*44
$GAGSV,3,1,10,01,19,314,35,03,24,071,39,08,25,129,39,13,63,326,45,7*7E
$GAGSV,3,2,10,15,39,057,39,21,45,264,38,26,20,272,40,27,30,196,44,7*71
$GAGSV,3,3,10,05,00,000,,07,02,172,,7*76
$GQGSV,1,1,03,02,29,178,44,03,79,075,42,04,00,000,45,1*5D
$GBGSV,5,1,17,37,12,219,37,33,48,077,42,32,02,195,24,28,62,059,45,1*7C
$GBGSV,5,2,17,27,47,310,36,14,28,050,34,13,42,246,44,10,66,257,41,1*7B
$GBGSV,5,3,17,08,52,251,42,07,68,219,41,05,07,254,24,04,35,130,30,1*7B
$GBGSV,5,4,17,03,43,205,41,02,27,234,34,01,42,150,39,30,01,291,,1*73
$GBGSV,5,5,17,36,04,319,,1*4A
$GNGSA,A,3,01,02,03,04,06,09,11,12,14,17,19,,0.7,0.4,0.6,1*37
$GNGSA,A,3,70,71,72,76,85,87,,,,,,,0.7,0.4,0.6,2*30
$GNGSA,A,3,01,03,08,13,15,21,26,27,,,,,0.7,0.4,0.6,3*38
$GNGSA,A,3,01,02,03,07,08,10,13,14,27,28,33,37,0.7,0.4,0.6,4*33
$GNGSA,A,3,02,03,,,,,,,,,,,0.7,0.4,0.6,5*31
$GNVTG,,T,,M,0.0,N,0.0,K,A*3D
$GNDTM,P90,,0000.000025,S,00000.000001,W,0.982,W84*49
$GNRMC,042211.00,A,3726.929544,N,12639.251779,E,0.0,,210622,6.0,W,A,V*6D
$GNGNS,042211.00,3726.929544,N,12639.251779,E,AAAAAN,39,0.4,11.9,18.0,,,V*10
$GNGGA,042211.00,3726.929544,N,12639.251779,E,1,12,0.4,11.9,M,18.0,M,,*46
$PSMSG,magcal=PASS,bluesky=0*00
$GPGSV,4,1,13,01,12,064,27,02,09,267,49,03,39,047,46,04,19,099,35,1*61
$GPGSV,4,2,13,06,47,284,48,09,17,133,35,11,13,261,39,12,07,323,32,1*65
$GPGSV,4,3,13,14,33,188,43,17,76,047,46,19,63,330,45,28,00,000,46,1*60
$GPGSV,4,4,13,20,00,000,,1*54
$GLGSV,2,1,07,70,34,047,36,77,26,298,24,76,27,241,42,87,20,298,36,1*75
$GLGSV,2,2,07,85,28,070,44,71,47,118,43,72,17,167,42,1*40
$GAGSV,3,1,10,01,19,314,38,03,24,071,39,08,25,129,40,13,63,326,45,7*7D
$GAGSV,3,2,10,15,39,057,39,21,45,264,38,26,20,272,41,27,30,196,43,7*77
$GAGSV,3,3,10,05,00,000,,07,02,172,,7*76
$GQGSV,1,1,03,02,29,178,44,03,79,075,42,04,00,000,45,1*5D
$GBGSV,5,1,17,37,12,219,37,33,48,077,41,32,02,195,24,28,62,059,44,1*7E
$GBGSV,5,2,17,27,47,310,35,14,28,050,34,13,42,246,44,10,66,257,41,1*78
$GBGSV,5,3,17,08,52,251,43,07,68,219,41,05,07,254,24,04,35,130,30,1*7A
$GBGSV,5,4,17,03,43,205,41,02,27,234,34,01,42,150,40,30,01,291,,1*7D
$GBGSV,5,5,17,36,04,319,,1*4A
$GNGSA,A,3,01,02,03,04,06,09,11,12,14,17,19,,0.7,0.4,0.6,1*37
$GNGSA,A,3,70,71,72,76,85,87,,,,,,,0.7,0.4,0.6,2*30
$GNGSA,A,3,01,03,08,13,15,21,26,27,,,,,0.7,0.4,0.6,3*38
$GNGSA,A,3,01,02,03,07,08,10,13,14,27,28,33,37,0.7,0.4,0.6,4*33
$GNGSA,A,3,02,03,,,,,,,,,,,0.7,0.4,0.6,5*31
$GNVTG,,T,,M,0.0,N,0.0,K,A*3D
$GNDTM,P90,,0000.000025,S,00000.000001,W,0.982,W84*49
$GNRMC,042212.00,A,3726.929543,N,12639.251778,E,0.0,,210622,6.0,W,A,V*68
$GNGNS,042212.00,3726.929543,N,12639.251778,E,AAAAAN,39,0.4,11.9,18.0,,,V*15
$GNGGA,042212.00,3726.929543,N,12639.251778,E,1,12,0.4,11.9,M,18.0,M,,*43
$PSMSG,magcal=PASS,bluesky=0*00
$GPGSV,4,1,13,01,12,064,28,02,09,267,48,03,39,047,46,04,19,099,34,1*6E
$GPGSV,4,2,13,06,47,284,48,09,17,133,35,11,13,261,39,12,07,323,31,1*66
$GPGSV,4,3,13,14,33,188,43,17,76,047,46,19,63,330,45,28,00,000,45,1*63
$GPGSV,4,4,13,20,00,000,,1*54
$GLGSV,2,1,07,70,34,047,36,77,26,298,24,76,27,241,42,87,20,298,38,1*7B
$GLGSV,2,2,07,85,28,070,44,71,47,118,43,72,17,167,43,1*41
$GAGSV,3,1,10,01,19,314,38,03,24,071,39,08,25,129,40,13,63,326,46,7*7E
$GAGSV,3,2,10,15,39,057,39,21,45,264,38,26,20,272,42,27,30,196,43,7*74
$GAGSV,3,3,10,05,00,000,,07,02,172,,7*76
$GQGSV,1,1,03,02,29,178,44,03,79,075,42,04,00,000,46,1*5E
$GBGSV,5,1,17,37,12,219,36,33,48,077,41,32,02,195,24,28,62,059,44,1*7F
$GBGSV,5,2,17,27,47,310,36,14,28,050,34,13,42,246,45,10,66,257,41,1*7A
$GBGSV,5,3,17,08,52,251,43,07,68,219,40,05,07,254,24,04,35,130,30,1*7B
$GBGSV,5,4,17,03,43,205,41,02,27,234,33,01,42,150,40,30,01,291,,1*7A
$GBGSV,5,5,17,36,04,319,,1*4A
$GNGSA,A,3,01,02,03,04,06,09,11,12,14,17,19,,0.7,0.4,0.6,1*37
$GNGSA,A,3,70,71,72,76,85,87,,,,,,,0.7,0.4,0.6,2*30
$GNGSA,A,3,01,03,08,13,15,21,26,27,,,,,0.7,0.4,0.6,3*38
$GNGSA,A,3,01,02,03,07,08,10,13,14,27,28,33,37,0.7,0.4,0.6,4*33
$GNGSA,A,3,02,03,,,,,,,,,,,0.7,0.4,0.6,5*31
$GNVTG,,T,,M,0.0,N,0.0,K,A*3D
$GNDTM,P90,,0000.000025,S,00000.000001,W,0.982,W84*49
$GNRMC,042213.00,A,3726.929542,N,12639.251777,E,0.0,,210622,6.0,W,A,V*67
$GNGNS,042213.00,3726.929542,N,12639.251777,E,AAAAAN,39,0.4,11.9,18.0,,,V*1A
$GNGGA,042213.00,3726.929542,N,12639.251777,E,1,12,0.4,11.9,M,18.0,M,,*4C
$PSMSG,magcal=PASS,bluesky=0*00
$GPGSV,4,1,13,01,12,064,29,02,09,267,49,03,39,047,46,04,19,099,34,1*6E
$GPGSV,4,2,13,06,47,284,48,09,17,133,35,11,13,261,40,12,07,323,32,1*6B
$GPGSV,4,3,13,14,33,188,43,17,76,047,46,19,63,330,46,28,00,000,45,1*60
$GPGSV,4,4,13,20,00,000,,1*54
$GLGSV,2,1,07,70,34,047,36,77,26,298,22,76,27,241,42,87,20,298,36,1*73
$GLGSV,2,2,07,85,28,070,44,71,47,118,43,72,17,167,43,1*41
$GAGSV,3,1,10,01,19,314,38,03,24,071,39,08,25,129,40,13,63,326,45,7*7D
$GAGSV,3,2,10,15,39,057,39,21,45,264,39,26,20,272,41,27,30,196,43,7*76
$GAGSV,3,3,10,05,00,000,,07,02,172,,7*76
$GQGSV,1,1,03,02,29,178,44,03,79,075,42,04,00,000,46,1*5E
$GBGSV,5,1,17,37,12,219,37,33,48,077,41,32,02,195,25,28,62,059,44,1*7F
$GBGSV,5,2,17,27,47,310,37,14,28,050,34,13,42,246,45,10,66,257,42,1*78
$GBGSV,5,3,17,08,52,251,42,07,68,219,41,05,07,254,24,04,35,130,30,1*7B
$GBGSV,5,4,17,03,43,205,41,02,27,234,34,01,42,150,40,30,01,291,,1*7D
$GBGSV,5,5,17,36,04,319,,1*4A
$GNGSA,A,3,01,02,03,04,06,09,11,12,14,17,19,,0.7,0.4,0.6,1*37
$GNGSA,A,3,70,71,72,76,85,87,,,,,,,0.7,0.4,0.6,2*30
$GNGSA,A,3,01,03,08,13,15,21,26,27,,,,,0.7,0.4,0.6,3*38
$GNGSA,A,3,01,02,03,07,08,10,13,14,27,28,33,37,0.7,0.4,0.6,4*33
$GNGSA,A,3,02,03,,,,,,,,,,,0.7,0.4,0.6,5*31
$GNVTG,,T,,M,0.0,N,0.0,K,A*3D
$GNDTM,P90,,0000.000025,S,00000.000001,W,0.982,W84*49
$GNRMC,042214.00,A,3726.929541,N,12639.251777,E,0.0,,210622,6.0,W,A,V*63
$GNGNS,042214.00,3726.929541,N,12639.251777,E,AAAAAN,39,0.4,11.9,18.0,,,V*1E
$GNGGA,042214.00,3726.929541,N,12639.251777,E,1,12,0.4,11.9,M,18.0,M,,*48
$PSMSG,magcal=PASS,bluesky=0*00
$GPGSV,4,1,13,01,12,064,29,02,09,267,48,03,39,047,46,04,19,099,35,1*6E
$GPGSV,4,2,13,06,47,284,48,09,17,133,36,11,13,261,38,12,07,323,32,1*67
$GPGSV,4,3,13,14,33,188,43,17,76,047,46,19,63,330,45,28,00,000,45,1*63
$GPGSV,4,4,13,20,00,000,,1*54
$GLGSV,2,1,07,70,34,047,36,77,26,298,22,76,27,241,41,87,20,298,35,1*73
$GLGSV,2,2,07,85,28,070,44,71,47,118,43,72,17,167,44,1*46
$GAGSV,3,1,10,01,19,314,37,03,24,071,39,08,25,129,39,13,63,326,46,7*7F
$GAGSV,3,2,10,15,39,057,38,21,45,264,38,26,20,272,41,27,30,196,43,7*76
$GAGSV,3,3,10,05,00,000,,07,02,172,,7*76
$GQGSV,1,1,03,02,29,178,44,03,79,075,42,04,00,000,45,1*5D
$GBGSV,5,1,17,37,12,219,37,33,48,077,41,32,02,195,23,28,62,059,44,1*79
$GBGSV,5,2,17,27,47,310,36,14,28,050,34,13,42,246,45,10,66,257,42,1*79
$GBGSV,5,3,17,08,52,251,42,07,68,219,41,05,07,254,24,04,35,130,30,1*7B
$GBGSV,5,4,17,03,43,205,41,02,27,234,34,01,42,150,40,30,01,291,,1*7D
$GBGSV,5,5,17,36,04,319,,1*4A
$GNGSA,A,3,01,02,03,04,06,09,11,12,14,17,19,,0.7,0.4,0.6,1*37
$GNGSA,A,3,70,71,72,76,85,87,,,,,,,0.7,0.4,0.6,2*30
$GNGSA,A,3,01,03,08,13,15,21,26,27,,,,,0.7,0.4,0.6,3*38
$GNGSA,A,3,01,02,03,07,08,10,13,14,27,28,33,37,0.7,0.4,0.6,4*33
$GNGSA,A,3,02,03,,,,,,,,,,,0.7,0.4,0.6,5*31
$GNVTG,,T,,M,0.0,N,0.0,K,A*3D
$GNDTM,P90,,0000.000025,S,00000.000001,W,0.982,W84*49
$GNRMC,042215.00,A,3726.929542,N,12639.251777,E,0.0,,210622,6.0,W,A,V*61
$GNGNS,042215.00,3726.929542,N,12639.251777,E,AAAAAN,39,0.4,11.9,18.0,,,V*1C
$GNGGA,042215.00,3726.929542,N,12639.251777,E,1,12,0.4,11.9,M,18.0,M,,*4A
$PSMSG,magcal=PASS,bluesky=0*00
$GPGSV,4,1,13,01,12,064,29,02,09,267,49,03,39,047,46,04,19,099,36,1*6C
$GPGSV,4,2,13,06,47,284,48,09,17,133,36,11,13,261,36,12,07,323,32,1*69
$GPGSV,4,3,13,14,33,188,44,17,76,047,46,19,63,330,46,28,00,000,45,1*67
$GPGSV,4,4,13,20,00,000,,1*54
$GLGSV,2,1,07,70,34,047,36,77,26,298,22,76,27,241,40,87,20,298,36,1*71
$GLGSV,2,2,07,85,28,070,45,71,47,118,43,72,17,167,44,1*47
$GAGSV,3,1,10,01,19,314,36,03,24,071,38,08,25,129,40,13,63,326,46,7*71
$GAGSV,3,2,10,15,39,057,38,21,45,264,39,26,20,272,41,27,30,196,43,7*77
$GAGSV,3,3,10,05,00,000,,07,02,172,,7*76
$GQGSV,1,1,03,02,29,178,44,03,79,075,42,04,00,000,45,1*5D
$GBGSV,5,1,17,37,12,219,38,33,48,077,41,32,02,195,23,28,62,059,44,1*76
$GBGSV,5,2,17,27,47,310,36,14,28,050,34,13,42,246,45,10,66,257,42,1*79
$GBGSV,5,3,17,08,52,251,42,07,68,219,41,05,07,254,24,04,35,130,30,1*7B
$GBGSV,5,4,17,03,43,205,41,02,27,234,34,01,42,150,40,30,01,291,,1*7D
$GBGSV,5,5,17,36,04,319,,1*4A
$GNGSA,A,3,01,02,03,04,06,09,11,12,14,17,19,,0.7,0.4,0.6,1*37
$GNGSA,A,3,70,71,72,76,85,87,,,,,,,0.7,0.4,0.6,2*30
$GNGSA,A,3,01,03,08,13,15,21,26,27,,,,,0.7,0.4,0.6,3*38
$GNGSA,A,3,01,02,03,07,08,10,13,14,27,28,33,37,0.7,0.4,0.6,4*33
$GNGSA,A,3,02,03,,,,,,,,,,,0.7,0.4,0.6,5*31
$GNVTG,,T,,M,0.0,N,0.0,K,A*3D
$GNDTM,P90,,0000.000025,S,00000.000001,W,0.982,W84*49
$GNRMC,042216.00,A,3726.929544,N,12639.251777,E,0.0,,210622,6.0,W,A,V*64
$GNGNS,042216.00,3726.929544,N,12639.251777,E,AAAAAN,39,0.4,11.9,18.0,,,V*19
$GNGGA,042216.00,3726.929544,N,12639.251777,E,1,12,0.4,11.9,M,18.0,M,,*4F
$PSMSG,magcal=PASS,bluesky=0*00
$GPGSV,4,1,13,01,12,064,29,02,09,267,48,03,39,047,46,04,19,099,34,1*6F
$GPGSV,4,2,13,06,47,284,48,09,17,133,36,11,13,261,36,12,07,323,33,1*68
$GPGSV,4,3,13,14,33,188,44,17,76,047,46,19,63,330,46,28,00,000,45,1*67
$GPGSV,4,4,13,20,00,000,,1*54
$GLGSV,2,1,07,70,34,047,37,77,26,298,21,76,27,241,41,87,20,298,35,1*71
$GLGSV,2,2,07,85,28,070,44,71,47,118,44,72,17,167,44,1*41
$GAGSV,3,1,10,01,19,314,37,03,24,071,39,08,25,129,40,13,63,326,46,7*71
$GAGSV,3,2,10,15,39,057,38,21,45,264,38,26,20,272,41,27,30,196,43,7*76
$GAGSV,3,3,10,05,00,000,,07,02,172,,7*76
$GQGSV,1,1,03,02,29,178,44,03,79,075,42,04,00,000,46,1*5E
$GBGSV,5,1,17,37,12,219,39,33,48,077,41,32,02,195,24,28,62,059,44,1*70
$GBGSV,5,2,17,27,47,310,35,14,28,050,33,13,42,246,45,10,66,257,41,1*7E
$GBGSV,5,3,17,08,52,251,42,07,68,219,41,05,07,254,24,04,35,130,30,1*7B
$GBGSV,5,4,17,03,43,205,41,02,27,234,34,01,42,150,39,30,01,291,,1*73
$GBGSV,5,5,17,36,04,319,,1*4A
$GNGSA,A,3,01,02,03,04,06,09,11,12,14,17,19,,0.7,0.4,0.6,1*37
$GNGSA,A,3,70,71,72,76,85,87,,,,,,,0.7,0.4,0.6,2*30
$GNGSA,A,3,01,03,08,13,15,21,26,27,,,,,0.7,0.4,0.6,3*38
$GNGSA,A,3,01,02,03,07,08,10,13,14,27,28,33,37,0.7,0.4,0.6,4*33
$GNGSA,A,3,02,03,,,,,,,,,,,0.7,0.4,0.6,5*31
$GNVTG,,T,,M,0.0,N,0.0,K,A*3D
$GNDTM,P90,,0000.000025,S,00000.000001,W,0.982,W84*49
$GNRMC,042217.00,A,3726.929546,N,12639.251777,E,0.0,,210622,6.0,W,A,V*67
$GNGNS,042217.00,3726.929546,N,12639.251777,E,AAAAAN,39,0.4,11.9,18.0,,,V*1A
$GNGGA,042217.00,3726.929546,N,12639.251777,E,1,12,0.4,11.9,M,18.0,M,,*4C
$PSMSG,magcal=PASS,bluesky=0*00
$GPGSV,4,1,13,01,12,064,28,02,09,267,47,03,39,047,46,04,19,099,34,1*61
$GPGSV,4,2,13,06,47,284,47,09,17,133,37,11,13,261,37,12,07,323,32,1*66
$GPGSV,4,3,13,14,33,188,43,17,76,047,46,19,63,330,46,28,00,000,45,1*60
$GPGSV,4,4,13,20,00,000,,1*54
$GLGSV,2,1,07,70,34,047,36,77,26,298,21,76,27,241,39,87,20,298,36,1*7C
$GLGSV,2,2,07,85,28,070,44,71,47,118,44,72,17,167,44,1*41
$GAGSV,3,1,10,01,19,314,37,03,24,071,39,08,25,129,40,13,63,326,46,7*71
$GAGSV,3,2,10,15,39,057,38,21,45,264,39,26,20,272,43,27,30,196,43,7*75
$GAGSV,3,3,10,05,00,000,,07,02,172,,7*76
$GQGSV,1,1,03,02,29,178,44,03,79,075,42,04,00,000,45,1*5D
$GBGSV,5,1,17,37,12,219,38,33,48,077,42,32,02,195,24,28,62,059,44,1*72
$GBGSV,5,2,17,27,47,310,36,14,28,050,34,13,42,246,44,10,66,257,41,1*7B
$GBGSV,5,3,17,08,52,251,42,07,68,219,41,05,07,254,24,04,35,130,30,1*7B
$GBGSV,5,4,17,03,43,205,40,02,27,234,33,01,42,150,40,30,01,291,,1*7B
$GBGSV,5,5,17,36,04,319,,1*4A
$GNGSA,A,3,01,02,03,04,06,09,11,12,14,17,19,,0.7,0.4,0.6,1*37
$GNGSA,A,3,70,71,72,76,85,87,,,,,,,0.7,0.4,0.6,2*30
$GNGSA,A,3,01,03,08,13,15,21,26,27,,,,,0.7,0.4,0.6,3*38
$GNGSA,A,3,01,02,03,07,08,10,13,14,27,28,33,37,0.7,0.4,0.6,4*33
$GNGSA,A,3,02,03,,,,,,,,,,,0.7,0.4,0.6,5*31
$GNVTG,,T,,M,0.0,N,0.0,K,A*3D
$GNDTM,P90,,0000.000025,S,00000.000001,W,0.982,W84*49
$GNRMC,042218.00,A,3726.929549,N,12639.251776,E,0.0,,210622,6.0,W,A,V*66
$GNGNS,042218.00,3726.929549,N,12639.251776,E,AAAAAN,39,0.4,11.9,18.0,,,V*1B
$GNGGA,042218.00,3726.929549,N,12639.251776,E,1,12,0.4,11.9,M,18.0,M,,*4D
$PSMSG,magcal=PASS,bluesky=0*00
$GPGSV,4,1,13,01,12,064,27,02,09,267,47,03,39,047,46,04,19,099,34,1*6E
$GPGSV,4,2,13,06,47,284,47,09,17,133,37,11,13,261,37,12,07,323,32,1*66
$GPGSV,4,3,13,14,33,188,44,17,76,047,46,19,63,330,46,28,00,000,44,1*66
$GPGSV,4,4,13,20,00,000,,1*54
$GLGSV,2,1,07,70,34,047,36,77,26,298,21,76,27,241,38,87,20,298,37,1*7C
$GLGSV,2,2,07,85,28,070,44,71,47,118,44,72,17,167,45,1*40
$GAGSV,3,1,10,01,19,314,38,03,24,071,39,08,25,129,41,13,63,326,45,7*7C
$GAGSV,3,2,10,15,39,057,38,21,45,264,38,26,20,272,42,27,30,196,43,7*75
$GAGSV,3,3,10,05,00,000,,07,02,172,,7*76
$GQGSV,1,1,03,02,29,178,44,03,79,075,42,04,00,000,45,1*5D
$GBGSV,5,1,17,37,12,219,38,33,48,077,41,32,02,195,25,28,62,059,44,1*70
$GBGSV,5,2,17,27,47,310,36,14,28,050,33,13,42,246,44,10,66,257,42,1*7F
$GBGSV,5,3,17,08,52,251,42,07,68,219,41,05,07,254,24,04,35,130,30,1*7B
$GBGSV,5,4,17,03,43,205,41,02,27,234,33,01,42,150,40,30,01,291,,1*7A
$GBGSV,5,5,17,36,04,319,,1*4A
$GNGSA,A,3,01,02,03,04,06,09,11,12,14,17,19,,0.7,0.4,0.6,1*37
$GNGSA,A,3,70,71,72,76,85,87,,,,,,,0.7,0.4,0.6,2*30
$GNGSA,A,3,01,03,08,13,15,21,26,27,,,,,0.7,0.4,0.6,3*38
$GNGSA,A,3,01,02,03,07,08,10,13,14,27,28,33,37,0.7,0.4,0.6,4*33
$GNGSA,A,3,02,03,,,,,,,,,,,0.7,0.4,0.6,5*31
$GNVTG,,T,,M,0.0,N,0.0,K,A*3D
$GNDTM,P90,,0000.000025,S,00000.000001,W,0.982,W84*49
$GNRMC,042219.00,A,3726.929552,N,12639.251773,E,0.0,,210622,6.0,W,A,V*68
$GNGNS,042219.00,3726.929552,N,12639.251773,E,AAAAAN,39,0.4,11.9,18.0,,,V*15
$GNGGA,042219.00,3726.929552,N,12639.251773,E,1,12,0.4,11.9,M,18.0,M,,*43
$PSMSG,magcal=PASS,bluesky=0*00
$GPGSV,4,1,13,01,12,064,27,02,09,267,47,03,39,047,45,04,19,099,36,1*6F
$GPGSV,4,2,13,06,47,284,47,09,17,133,37,11,13,261,38,12,07,323,33,1*68
$GPGSV,4,3,13,14,33,188,43,17,76,047,46,19,63,330,46,28,00,000,45,1*60
$GPGSV,4,4,13,20,00,000,,1*54
$GLGSV,2,1,07,70,34,047,36,77,26,298,24,76,27,241,37,87,20,298,37,1*76
$GLGSV,2,2,07,85,28,070,45,71,47,118,44,72,17,167,45,1*41
$GAGSV,3,1,10,01,19,314,37,03,24,071,38,08,25,129,40,13,63,326,45,7*73
$GAGSV,3,2,10,15,39,057,37,21,45,264,38,26,20,272,41,27,30,196,43,7*79
$GAGSV,3,3,10,05,00,000,,07,02,172,,7*76
$GQGSV,1,1,03,02,29,178,44,03,79,075,41,04,00,000,45,1*5E
$GBGSV,5,1,17,37,12,219,39,33,48,077,41,32,02,195,26,28,62,059,44,1*72
$GBGSV,5,2,17,27,47,310,36,14,28,050,33,13,42,246,44,10,66,257,41,1*7C
$GBGSV,5,3,17,08,52,251,43,07,68,219,41,05,07,254,24,04,35,130,30,1*7A
$GBGSV,5,4,17,03,43,205,41,02,27,234,34,01,42,150,40,30,01,291,,1*7D
$GBGSV,5,5,17,36,04,319,,1*4A
$GNGSA,A,3,01,02,03,04,06,09,11,12,14,17,19,,0.7,0.4,0.6,1*37
$GNGSA,A,3,70,71,72,76,85,87,,,,,,,0.7,0.4,0.6,2*30
$GNGSA,A,3,01,03,08,13,15,21,26,27,,,,,0.7,0.4,0.6,3*38
$GNGSA,A,3,01,02,03,07,08,10,13,14,27,28,33,37,0.7,0.4,0.6,4*33
$GNGSA,A,3,02,03,,,,,,,,,,,0.7,0.4,0.6,5*31
$GNVTG,,T,,M,0.0,N,0.0,K,A*3D
$GNDTM,P90,,0000.000025,S,00000.000001,W,0.982,W84*49
$GNRMC,042220.00,A,3726.929556,N,12639.251770,E,0.0,,210622,6.0,W,A,V*65
$GNGNS,042220.00,3726.929556,N,12639.251770,E,AAAAAN,39,0.4,11.9,18.0,,,V*18
$GNGGA,042220.00,3726.929556,N,12639.251770,E,1,12,0.4,11.9,M,18.0,M,,*4E
$PSMSG,magcal=PASS,bluesky=0*00
$GPGSV,4,1,13,01,12,064,28,02,09,267,47,03,39,047,45,04,19,099,35,1*63
$GPGSV,4,2,13,06,47,284,47,09,17,133,37,11,13,261,37,12,07,323,33,1*67
$GPGSV,4,3,13,14,33,188,43,17,76,047,46,19,63,330,46,28,00,000,45,1*60
$GPGSV,4,4,13,20,00,000,,1*54
$GLGSV,2,1,07,70,34,047,37,77,26,298,24,76,27,241,38,87,20,298,37,1*78
$GLGSV,2,2,07,85,28,070,45,71,47,118,44,72,17,167,45,1*41
$GAGSV,3,1,10,01,19,314,37,03,24,071,39,08,25,129,39,13,63,326,45,7*7C
$GAGSV,3,2,10,15,39,057,36,21,45,264,38,26,20,272,40,27,30,196,43,7*79
$GAGSV,3,3,10,05,00,000,,07,02,172,,7*76
$GQGSV,1,1,03,02,29,178,45,03,79,075,42,04,00,000,45,1*5C
$GBGSV,5,1,17,37,12,219,39,33,48,077,41,32,02,195,26,28,62,059,44,1*72
$GBGSV,5,2,17,27,47,310,36,14,28,050,32,13,42,246,44,10,66,257,42,1*7E
$GBGSV,5,3,17,08,52,251,42,07,68,219,41,05,07,254,24,04,35,130,30,1*7B
$GBGSV,5,4,17,03,43,205,41,02,27,234,34,01,42,150,40,30,01,291,,1*7D
$GBGSV,5,5,17,36,04,319,,1*4A
$GNGSA,A,3,01,02,03,04,06,09,11,12,14,17,19,,0.7,0.4,0.6,1*37
$GNGSA,A,3,70,71,72,76,85,87,,,,,,,0.7,0.4,0.6,2*30
$GNGSA,A,3,01,03,08,13,15,21,26,27,,,,,0.7,0.4,0.6,3*38
$GNGSA,A,3,01,02,03,07,08,10,13,14,27,28,33,37,0.7,0.4,0.6,4*33
$GNGSA,A,3,02,03,,,,,,,,,,,0.7,0.4,0.6,5*31
$GNVTG,,T,,M,0.0,N,0.0,K,A*3D
$GNDTM,P90,,0000.000025,S,00000.000001,W,0.982,W84*49
$GNRMC,042221.00,A,3726.929560,N,12639.251767,E,0.0,,210622,6.0,W,A,V*67
$GNGNS,042221.00,3726.929560,N,12639.251767,E,AAAAAN,39,0.4,11.9,18.0,,,V*1A
$GNGGA,042221.00,3726.929560,N,12639.251767,E,1,12,0.4,11.9,M,18.0,M,,*4C
$PSMSG,magcal=PASS,bluesky=0*00
$GPGSV,4,1,13,01,12,064,26,02,09,267,46,03,39,047,45,04,19,099,34,1*6D
$GPGSV,4,2,13,06,47,284,46,09,17,133,37,11,13,261,37,12,07,323,32,1*67
$GPGSV,4,3,13,14,33,188,42,17,76,047,45,19,63,330,46,28,00,000,44,1*63
$GPGSV,4,4,13,20,00,000,,1*54
$GLGSV,2,1,07,70,34,047,36,77,26,298,24,76,27,241,39,87,20,298,37,1*78
$GLGSV,2,2,07,85,28,070,44,71,47,118,43,72,17,167,44,1*46
$GAGSV,3,1,10,01,19,314,37,03,24,071,38,08,25,129,39,13,63,326,45,7*7D
$GAGSV,3,2,10,15,39,057,36,21,45,264,37,26,20,272,38,27,30,196,43,7*79
$GAGSV,3,3,10,05,00,000,,07,02,172,,7*76
$GQGSV,1,1,03,02,29,178,44,03,79,075,41,04,00,000,45,1*5E
$GBGSV,5,1,17,37,12,219,38,33,48,077,41,32,02,195,26,28,62,059,44,1*73
$GBGSV,5,2,17,27,47,310,36,14,28,050,32,13,42,246,43,10,66,257,41,1*7A
$GBGSV,5,3,17,08,52,251,41,07,68,219,40,05,07,254,24,04,35,130,30,1*79
$GBGSV,5,4,17,03,43,205,40,02,27,234,32,01,42,150,40,30,01,291,,1*7A
$GBGSV,5,5,17,36,04,319,,1*4A
$GNGSA,A,3,01,02,03,04,06,09,11,12,14,17,19,,0.7,0.4,0.6,1*37
$GNGSA,A,3,70,71,72,76,85,87,,,,,,,0.7,0.4,0.6,2*30
$GNGSA,A,3,01,03,08,13,15,21,26,27,,,,,0.7,0.4,0.6,3*38
$GNGSA,A,3,01,02,03,07,08,10,13,14,27,28,33,37,0.7,0.4,0.6,4*33
$GNGSA,A,3,02,03,,,,,,,,,,,0.7,0.4,0.6,5*31
$GNVTG,,T,,M,0.0,N,0.0,K,A*3D
$GNDTM,P90,,0000.000025,S,00000.000001,W,0.982,W84*49
$GNRMC,042222.00,A,3726.929564,N,12639.251764,E,0.0,,210622,6.0,W,A,V*63
$GNGNS,042222.00,3726.929564,N,12639.251764,E,AAAAAN,39,0.4,11.9,18.0,,,V*1E
$GNGGA,042222.00,3726.929564,N,12639.251764,E,1,12,0.4,11.9,M,18.0,M,,*48
$PSMSG,magcal=PASS,bluesky=0*00
$GPGSV,4,1,13,01,12,064,27,02,09,267,47,03,39,047,45,04,19,099,35,1*6C
$GPGSV,4,2,13,06,47,284,46,09,17,133,38,11,13,261,38,12,07,323,32,1*67
$GPGSV,4,3,13,14,33,188,42,17,76,047,46,19,63,330,46,28,00,000,44,1*60
$GPGSV,4,4,13,20,00,000,,1*54
$GLGSV,2,1,07,70,34,047,36,77,26,298,24,76,27,241,39,87,20,298,37,1*78
$GLGSV,2,2,07,85,28,070,43,71,47,118,43,72,17,167,44,1*41
$GAGSV,3,1,10,01,19,314,37,03,24,071,38,08,25,129,40,13,63,326,45,7*73
$GAGSV,3,2,10,15,39,057,38,21,45,264,37,26,20,272,38,27,30,196,44,7*70
$GAGSV,3,3,10,05,00,000,,07,02,172,,7*76
$GQGSV,1,1,03,02,29,178,44,03,79,075,41,04,00,000,45,1*5E
$GBGSV,5,1,17,37,12,219,38,33,48,077,40,32,02,195,26,28,62,059,44,1*72
$GBGSV,5,2,17,27,47,310,36,14,28,050,32,13,42,246,44,10,66,257,41,1*7D
$GBGSV,5,3,17,08,52,251,42,07,68,219,41,05,07,254,24,04,35,130,30,1*7B
$GBGSV,5,4,17,03,43,205,40,02,27,234,33,01,42,150,40,30,01,291,,1*7B
$GBGSV,5,5,17,36,04,319,,1*4A
$GNGSA,A,3,01,02,03,04,06,09,11,12,14,17,19,,0.7,0.4,0.6,1*37
$GNGSA,A,3,70,71,72,76,85,87,,,,,,,0.7,0.4,0.6,2*30
$GNGSA,A,3,01,03,08,13,15,21,26,27,,,,,0.7,0.4,0.6,3*38
$GNGSA,A,3,01,02,03,07,08,10,13,14,27,28,33,37,0.7,0.4,0.6,4*33
$GNGSA,A,3,02,03,,,,,,,,,,,0.7,0.4,0.6,5*31
$GNVTG,,T,,M,0.0,N,0.0,K,A*3D
$GNDTM,P90,,0000.000025,S,00000.000001,W,0.982,W84*49
$GNRMC,042223.00,A,3726.929568,N,12639.251762,E,0.0,,210622,6.0,W,A,V*68
$GNGNS,042223.00,3726.929568,N,12639.251762,E,AAAAAN,39,0.4,11.9,18.0,,,V*15
$GNGGA,042223.00,3726.929568,N,12639.251762,E,1,12,0.4,11.9,M,18.0,M,,*43
$PSMSG,magcal=PASS,bluesky=0*00
$GPGSV,4,1,13,01,12,064,26,02,09,267,47,03,39,047,45,04,19,099,35,1*6D
$GPGSV,4,2,13,06,47,284,46,09,17,133,37,11,13,261,36,12,07,323,31,1*65
$GPGSV,4,3,13,14,33,188,43,17,76,047,46,19,63,330,47,28,00,000,45,1*61
$GPGSV,4,4,13,20,00,000,,1*54
$GLGSV,2,1,07,70,34,047,37,77,26,298,24,76,27,241,41,87,20,298,38,1*79
$GLGSV,2,2,07,85,28,070,43,71,47,118,44,72,17,167,44,1*46
$GAGSV,3,1,10,01,19,314,38,03,24,071,39,08,25,129,40,13,63,326,45,7*7D
$GAGSV,3,2,10,15,39,057,38,21,45,264,37,26,20,272,38,27,30,196,44,7*70
$GAGSV,3,3,10,05,00,000,,07,02,172,,7*76
$GQGSV,1,1,03,02,29,178,45,03,79,075,42,04,00,000,46,1*5F
$GBGSV,5,1,17,37,12,219,39,33,48,077,40,32,02,195,26,28,62,059,45,1*72
$GBGSV,5,2,17,27,47,310,36,14,28,050,32,13,42,246,44,10,66,257,42,1*7E
$GBGSV,5,3,17,08,52,251,42,07,68,219,41,05,07,254,24,04,35,130,30,1*7B
$GBGSV,5,4,17,03,43,205,41,02,27,234,33,01,42,150,40,30,01,291,,1*7A
$GBGSV,5,5,17,36,04,319,,1*4A
$GNGSA,A,3,01,02,03,04,06,09,11,12,14,17,19,,0.7,0.4,0.6,1*37
$GNGSA,A,3,70,71,72,76,85,87,,,,,,,0.7,0.4,0.6,2*30
$GNGSA,A,3,01,03,08,13,15,21,26,27,,,,,0.7,0.4,0.6,3*38
$GNGSA,A,3,01,02,03,07,08,10,13,14,27,28,33,37,0.7,0.4,0.6,4*33
$GNGSA,A,3,02,03,,,,,,,,,,,0.7,0.4,0.6,5*31
$GNVTG,,T,,M,0.0,N,0.0,K,A*3D
$GNDTM,P90,,0000.000025,S,00000.000001,W,0.982,W84*49
$GNRMC,042224.00,A,3726.929573,N,12639.251759,E,0.0,,210622,6.0,W,A,V*6D
$GNGNS,042224.00,3726.929573,N,12639.251759,E,AAAAAN,39,0.4,11.9,18.0,,,V*10
$GNGGA,042224.00,3726.929573,N,12639.251759,E,1,12,0.4,11.9,M,18.0,M,,*46
$PSMSG,magcal=PASS,bluesky=0*00
$GPGSV,4,1,13,01,12,064,25,02,09,267,48,03,39,047,45,04,19,099,36,1*62
$GPGSV,4,2,13,06,47,284,47,09,17,133,37,11,13,261,35,14,33,188,42,1*61
$GPGSV,4,3,13,17,76,047,46,19,63,330,47,28,00,000,46,12,07,323,,1*67
$GPGSV,4,4,13,20,00,000,,1*54
$GLGSV,2,1,07,70,34,047,37,77,26,298,19,76,27,241,41,87,20,298,37,1*78
$GLGSV,2,2,07,85,28,070,44,71,47,118,44,72,17,167,44,1*41
$GAGSV,3,1,10,01,19,314,37,03,24,071,37,08,25,129,40,13,63,326,45,7*7C
$GAGSV,3,2,10,15,39,057,38,21,45,264,38,26,20,272,38,27,30,196,44,7*7F
$GAGSV,3,3,10,05,00,000,,07,02,172,,7*76
$GQGSV,1,1,03,02,29,178,45,03,79,075,42,04,00,000,45,1*5C
$GBGSV,5,1,17,37,12,219,39,33,48,077,41,32,02,195,26,28,62,059,45,1*73
$GBGSV,5,2,17,27,47,310,36,14,28,050,32,13,42,246,44,10,66,257,42,1*7E
$GBGSV,5,3,17,08,52,251,42,07,68,219,41,05,07,254,24,04,35,130,30,1*7B
$GBGSV,5,4,17,03,43,205,41,02,27,234,33,01,42,150,40,30,01,291,,1*7A
$GBGSV,5,5,17,36,04,319,,1*4A
$GNGSA,A,3,01,02,03,04,06,09,11,12,14,17,19,,0.7,0.4,0.6,1*37
$GNGSA,A,3,70,71,72,76,85,87,,,,,,,0.7,0.4,0.6,2*30
$GNGSA,A,3,01,03,08,13,15,21,26,27,,,,,0.7,0.4,0.6,3*38
$GNGSA,A,3,01,02,03,07,08,10,13,14,27,28,33,37,0.7,0.4,0.6,4*33
$GNGSA,A,3,02,03,,,,,,,,,,,0.7,0.4,0.6,5*31
$GNVTG,,T,,M,0.0,N,0.0,K,A*3D
$GNDTM,P90,,0000.000025,S,00000.000001,W,0.982,W84*49
$GNRMC,042225.00,A,3726.929577,N,12639.251757,E,0.0,,210622,6.0,W,A,V*66
$GNGNS,042225.00,3726.929577,N,12639.251757,E,AAAAAN,39,0.4,12.0,18.0,,,V*11
$GNGGA,042225.00,3726.929577,N,12639.251757,E,1,12,0.4,12.0,M,18.0,M,,*47
$PSMSG,magcal=PASS,bluesky=0*00
$GPGSV,4,1,13,01,12,064,26,02,09,267,47,03,39,047,45,04,19,099,35,1*6D
$GPGSV,4,2,13,06,47,284,47,09,17,133,37,11,13,261,35,14,33,188,42,1*61
$GPGSV,4,3,13,17,76,047,46,19,63,330,46,28,00,000,45,12,07,323,,1*65
$GPGSV,4,4,13,20,00,000,,1*54
$GLGSV,2,1,07,70,34,047,37,77,26,298,19,76,27,241,41,87,20,298,37,1*78
$GLGSV,2,2,07,85,28,070,44,71,47,118,43,72,17,167,44,1*46
$GAGSV,3,1,10,01,19,314,37,03,24,071,37,08,25,129,39,13,63,326,45,7*72
$GAGSV,3,2,10,15,39,057,38,21,45,264,37,26,20,272,38,27,30,196,43,7*77
$GAGSV,3,3,10,05,00,000,,07,02,172,,7*76
$GQGSV,1,1,03,02,29,178,45,03,79,075,41,04,00,000,45,1*5F
$GBGSV,5,1,17,37,12,219,38,33,48,077,40,32,02,195,26,28,62,059,44,1*72
$GBGSV,5,2,17,27,47,310,35,14,28,050,32,13,42,246,44,10,66,257,42,1*7D
$GBGSV,5,3,17,08,52,251,42,07,68,219,40,05,07,254,24,04,35,130,30,1*7A
$GBGSV,5,4,17,03,43,205,40,02,27,234,33,01,42,150,39,30,01,291,,1*75
$GBGSV,5,5,17,36,04,319,,1*4A
$GNGSA,A,3,01,02,03,04,06,09,11,12,14,17,19,,0.7,0.4,0.6,1*37
$GNGSA,A,3,70,71,72,76,85,87,,,,,,,0.7,0.4,0.6,2*30
$GNGSA,A,3,01,03,08,13,15,21,26,27,,,,,0.7,0.4,0.6,3*38
$GNGSA,A,3,01,02,03,07,08,10,13,14,27,28,33,37,0.7,0.4,0.6,4*33
$GNGSA,A,3,02,03,,,,,,,,,,,0.7,0.4,0.6,5*31
$GNVTG,,T,,M,0.0,N,0.0,K,A*3D
$GNDTM,P90,,0000.000025,S,00000.000001,W,0.982,W84*49
$GNRMC,042226.00,A,3726.929582,N,12639.251755,E,0.0,,210622,6.0,W,A,V*6D
$GNGNS,042226.00,3726.929582,N,12639.251755,E,AAAAAN,39,0.4,12.0,18.0,,,V*1A
$GNGGA,042226.00,3726.929582,N,12639.251755,E,1,12,0.4,12.0,M,18.0,M,,*4C
$PSMSG,magcal=PASS,bluesky=0*00
$GPGSV,4,1,13,01,12,064,24,02,09,267,47,03,39,047,45,04,19,099,37,1*6D
$GPGSV,4,2,13,06,47,284,47,09,17,133,37,11,13,261,37,12,07,323,31,1*65
$GPGSV,4,3,13,14,33,188,42,17,76,047,46,19,63,330,47,28,00,000,46,1*63
$GPGSV,4,4,13,20,00,000,,1*54
$GLGSV,2,1,07,70,34,047,38,77,26,298,19,76,27,241,43,87,20,298,37,1*75
$GLGSV,2,2,07,85,28,070,44,71,47,118,44,72,17,167,44,1*41
$GAGSV,3,1,10,01,19,314,37,03,24,071,38,08,25,129,40,13,63,326,46,7*70
$GAGSV,3,2,10,15,39,057,39,21,45,264,38,26,20,272,39,27,30,196,44,7*7F
$GAGSV,3,3,10,05,00,000,,07,02,172,,7*76
$GQGSV,1,1,03,02,29,178,45,03,79,075,42,04,00,000,45,1*5C
$GBGSV,5,1,17,37,12,219,39,33,48,077,40,32,02,195,26,28,62,059,45,1*72
$GBGSV,5,2,17,27,47,310,36,14,28,050,32,13,42,246,44,10,66,257,42,1*7E
$GBGSV,5,3,17,08,52,251,43,07,68,219,41,05,07,254,24,04,35,130,30,1*7A
$GBGSV,5,4,17,03,43,205,41,02,27,234,32,01,42,150,40,30,01,291,,1*7B
$GBGSV,5,5,17,36,04,319,,1*4A
$GNGSA,A,3,01,02,03,04,06,09,11,12,14,17,19,,0.7,0.4,0.6,1*37
$GNGSA,A,3,70,71,72,76,85,87,,,,,,,0.7,0.4,0.6,2*30
$GNGSA,A,3,01,03,08,13,15,21,26,27,,,,,0.7,0.4,0.6,3*38
$GNGSA,A,3,01,02,03,07,08,10,13,14,27,28,33,37,0.7,0.4,0.6,4*33
$GNGSA,A,3,02,03,,,,,,,,,,,0.7,0.4,0.6,5*31
$GNVTG,,T,,M,0.0,N,0.0,K,A*3D
$GNDTM,P90,,0000.000025,S,00000.000001,W,0.982,W84*49
$GNRMC,042227.00,A,3726.929586,N,12639.251752,E,0.0,,210622,6.0,W,A,V*6F
$GNGNS,042227.00,3726.929586,N,12639.251752,E,AAAAAN,39,0.4,12.0,18.0,,,V*18
$GNGGA,042227.00,3726.929586,N,12639.251752,E,1,12,0.4,12.0,M,18.0,M,,*4E
$PSMSG,magcal=PASS,bluesky=0*00
$GPGSV,4,1,13,01,12,064,25,02,09,267,47,03,39,047,45,04,19,099,36,1*6D
$GPGSV,4,2,13,06,47,284,46,09,17,133,37,11,13,261,37,12,07,323,31,1*64
$GPGSV,4,3,13,14,33,188,42,17,76,047,46,19,63,330,47,28,00,000,46,1*63
$GPGSV,4,4,13,20,00,000,,1*54
$GLGSV,2,1,07,70,34,047,38,77,26,298,19,76,27,241,43,87,20,298,38,1*7A
$GLGSV,2,2,07,85,28,070,44,71,47,118,44,72,17,167,44,1*41
$GAGSV,3,1,10,01,19,314,37,03,24,071,38,08,25,129,40,13,63,326,45,7*73
$GAGSV,3,2,10,15,39,057,38,21,45,264,38,26,20,272,39,27,30,196,44,7*7E
$GAGSV,3,3,10,05,00,000,,07,02,172,,7*76
$GQGSV,1,1,03,02,29,178,45,03,79,075,42,04,00,000,45,1*5C
$GBGSV,5,1,17,37,12,219,38,33,48,077,40,32,02,195,26,28,62,059,45,1*73
$GBGSV,5,2,17,27,47,310,36,14,28,050,32,13,42,246,44,10,66,257,42,1*7E
$GBGSV,5,3,17,08,52,251,42,07,68,219,41,05,07,254,24,04,35,130,30,1*7B
$GBGSV,5,4,17,03,43,205,41,02,27,234,33,01,42,150,40,30,01,291,,1*7A
$GBGSV,5,5,17,36,04,319,,1*4A
$GNGSA,A,3,01,02,03,04,06,09,11,12,14,17,19,,0.7,0.4,0.6,1*37
$GNGSA,A,3,70,71,72,76,85,87,,,,,,,0.7,0.4,0.6,2*30
$GNGSA,A,3,01,03,08,13,15,21,26,27,,,,,0.7,0.4,0.6,3*38
$GNGSA,A,3,01,02,03,07,08,10,13,14,27,28,33,37,0.7,0.4,0.6,4*33
$GNGSA,A,3,02,03,,,,,,,,,,,0.7,0.4,0.6,5*31
$GNVTG,,T,,M,0.0,N,0.0,K,A*3D
$GNDTM,P90,,0000.000025,S,00000.000001,W,0.982,W84*49
$GNRMC,042228.00,A,3726.929589,N,12639.251750,E,0.0,,210622,6.0,W,A,V*6D
$GNGNS,042228.00,3726.929589,N,12639.251750,E,AAAAAN,39,0.4,12.0,18.0,,,V*1A
$GNGGA,042228.00,3726.929589,N,12639.251750,E,1,12,0.4,12.0,M,18.0,M,,*4C
$PSMSG,magcal=PASS,bluesky=0*00
$GPGSV,4,1,13,01,12,064,25,02,09,267,47,03,39,047,45,04,19,099,36,1*6D
$GPGSV,4,2,13,06,47,284,47,09,17,133,37,11,13,261,38,12,07,323,32,1*69
$GPGSV,4,3,13,14,33,188,41,17,76,047,46,19,63,330,47,28,00,000,46,1*60
$GPGSV,4,4,13,20,00,000,,1*54
$GLGSV,2,1,07,70,34,047,37,77,26,298,18,76,27,241,42,87,20,298,38,1*75
$GLGSV,2,2,07,85,28,070,44,71,47,118,44,72,17,167,44,1*41
$GAGSV,3,1,10,01,19,314,37,03,24,071,37,08,25,129,40,13,63,326,45,7*7C
$GAGSV,3,2,10,15,39,057,38,21,45,264,38,26,20,272,39,27,30,196,44,7*7E
$GAGSV,3,3,10,05,00,000,,07,02,172,,7*76
$GQGSV,1,1,03,02,29,178,45,03,79,075,42,04,00,000,45,1*5C
$GBGSV,5,1,17,37,12,219,38,33,48,077,40,32,02,195,26,28,62,059,44,1*72
$GBGSV,5,2,17,27,47,310,35,14,28,050,33,13,42,246,44,10,66,257,42,1*7C
$GBGSV,5,3,17,08,52,251,42,07,68,219,41,05,07,254,24,04,35,130,30,1*7B
$GBGSV,5,4,17,03,43,205,40,02,27,234,33,01,42,150,40,30,01,291,,1*7B
$GBGSV,5,5,17,36,04,319,,1*4A
$GNGSA,A,3,01,02,03,04,06,09,11,12,14,17,19,,0.7,0.4,0.6,1*37
$GNGSA,A,3,70,71,72,76,85,87,,,,,,,0.7,0.4,0.6,2*30
$GNGSA,A,3,01,03,08,13,15,21,26,27,,,,,0.7,0.4,0.6,3*38
$GNGSA,A,3,01,02,03,07,08,10,13,14,27,28,33,37,0.7,0.4,0.6,4*33
$GNGSA,A,3,02,03,,,,,,,,,,,0.7,0.4,0.6,5*31
$GNVTG,,T,,M,0.0,N,0.0,K,A*3D
$GNDTM,P90,,0000.000025,S,00000.000001,W,0.982,W84*49
$GNRMC,042229.00,A,3726.929592,N,12639.251747,E,0.0,,210622,6.0,W,A,V*60
$GNGNS,042229.00,3726.929592,N,12639.251747,E,AAAAAN,39,0.4,12.0,18.0,,,V*17
$GNGGA,042229.00,3726.929592,N,12639.251747,E,1,12,0.4,12.0,M,18.0,M,,*41
$PSMSG,magcal=PASS,bluesky=0*00
$GPGSV,4,1,13,01,12,064,24,02,09,267,48,03,39,047,45,04,19,099,36,1*63
$GPGSV,4,2,13,06,47,284,46,09,17,133,38,11,13,261,39,12,07,323,32,1*66
$GPGSV,4,3,13,14,33,188,41,17,76,047,46,19,63,330,47,28,00,000,47,1*61
$GPGSV,4,4,13,20,00,000,,1*54
$GLGSV,2,1,07,70,34,047,37,77,26,298,18,76,27,241,42,87,20,298,38,1*75
$GLGSV,2,2,07,85,28,070,45,71,47,118,44,72,17,167,43,1*47
$GAGSV,3,1,10,01,19,314,38,03,24,071,37,08,25,129,40,13,63,326,45,7*73
$GAGSV,3,2,10,15,39,057,38,21,45,264,38,26,20,272,38,27,30,196,45,7*7E
$GAGSV,3,3,10,05,00,000,,07,02,172,,7*76
$GQGSV,1,1,03,02,29,178,44,03,79,075,42,04,00,000,45,1*5D
$GBGSV,5,1,17,37,12,219,38,33,48,077,41,32,02,195,26,28,62,059,45,1*72
$GBGSV,5,2,17,27,47,310,36,14,28,050,33,13,42,246,44,10,66,257,42,1*7F
$GBGSV,5,3,17,08,52,251,43,07,68,219,41,05,07,254,24,03,43,205,40,1*7E
$GBGSV,5,4,17,02,27,234,33,01,42,150,40,04,35,130,,30,01,291,,1*7C
$GBGSV,5,5,17,36,04,319,,1*4A
$GNGSA,A,3,01,02,03,04,06,09,11,12,14,17,19,,0.7,0.4,0.6,1*37
$GNGSA,A,3,70,71,72,76,85,87,,,,,,,0.7,0.4,0.6,2*30
$GNGSA,A,3,01,03,08,13,15,21,26,27,,,,,0.7,0.4,0.6,3*38
$GNGSA,A,3,01,02,03,07,08,10,13,14,27,28,33,37,0.7,0.4,0.6,4*33
$GNGSA,A,3,02,03,,,,,,,,,,,0.7,0.4,0.6,5*31
$GNVTG,,T,,M,0.0,N,0.0,K,A*3D
$GNDTM,P90,,0000.000025,S,00000.000001,W,0.982,W84*49
$GNRMC,042230.00,A,3726.929595,N,12639.251746,E,0.0,,210622,6.0,W,A,V*6E
$GNGNS,042230.00,3726.929595,N,12639.251746,E,AAAAAN,39,0.4,12.0,18.0,,,V*19
$GNGGA,042230.00,3726.929595,N,12639.251746,E,1,12,0.4,12.0,M,18.0,M,,*4F
$PSMSG,magcal=PASS,bluesky=0*00
$GPGSV,4,1,13,01,12,064,26,02,09,267,48,03,39,047,45,04,19,099,36,1*61
$GPGSV,4,2,13,06,47,284,47,09,17,133,38,11,13,261,39,12,07,323,33,1*66
$GPGSV,4,3,13,14,33,188,41,17,76,047,46,19,63,330,47,28,00,000,47,1*61
$GPGSV,4,4,13,20,00,000,,1*54
$GLGSV,2,1,07,70,34,047,37,77,26,298,18,76,27,241,41,87,20,298,39,1*77
$GLGSV,2,2,07,85,28,070,45,71,47,118,45,72,17,167,43,1*46
$GAGSV,3,1,10,01,19,314,37,03,24,071,37,08,25,129,40,13,63,326,45,7*7C
$GAGSV,3,2,10,15,39,057,39,21,45,264,39,26,20,272,38,27,30,196,45,7*7E
$GAGSV,3,3,10,05,00,000,,07,02,172,,7*76
$GQGSV,1,1,03,02,29,178,45,03,79,075,42,04,00,000,46,1*5F
$GBGSV,5,1,17,37,12,219,38,33,48,077,41,32,02,195,26,28,62,059,45,1*72
$GBGSV,5,2,17,27,47,310,36,14,28,050,32,13,42,246,44,10,66,257,42,1*7E
$GBGSV,5,3,17,08,52,251,43,07,68,219,41,05,07,254,24,03,43,205,40,1*7E
$GBGSV,5,4,17,02,27,234,33,01,42,150,40,04,35,130,,30,01,291,,1*7C
$GBGSV,5,5,17,36,04,319,,1*4A
$GNGSA,A,3,01,02,03,04,06,09,11,12,14,17,19,,0.7,0.4,0.6,1*37
$GNGSA,A,3,70,71,72,76,85,87,,,,,,,0.7,0.4,0.6,2*30
$GNGSA,A,3,01,03,08,13,15,21,26,27,,,,,0.7,0.4,0.6,3*38
$GNGSA,A,3,01,02,03,07,08,10,13,14,27,28,33,37,0.7,0.4,0.6,4*33
$GNGSA,A,3,02,03,,,,,,,,,,,0.7,0.4,0.6,5*31
$GNVTG,,T,,M,0.0,N,0.0,K,A*3D
$GNDTM,P90,,0000.000025,S,00000.000001,W,0.982,W84*49
$GNRMC,042231.00,A,3726.929596,N,12639.251745,E,0.0,,210622,6.0,W,A,V*6F
$GNGNS,042231.00,3726.929596,N,12639.251745,E,AAAAAN,39,0.4,12.0,18.0,,,V*18
$GNGGA,042231.00,3726.929596,N,12639.251745,E,1,12,0.4,12.0,M,18.0,M,,*4E
$PSMSG,magcal=PASS,bluesky=0*00
$GPGSV,4,1,13,01,12,064,26,02,09,267,47,03,39,047,44,04,19,099,38,1*61
$GPGSV,4,2,13,06,47,284,47,09,17,133,36,11,13,261,39,12,07,323,32,1*69
$GPGSV,4,3,13,14,33,188,41,17,76,047,46,19,63,330,47,28,00,000,47,1*61
$GPGSV,4,4,13,20,00,000,,1*54
$GLGSV,2,1,07,70,34,047,37,77,26,298,18,76,27,241,41,87,20,298,38,1*76
$GLGSV,2,2,07,85,28,070,44,71,47,118,45,72,17,167,43,1*47
$GAGSV,3,1,10,01,19,314,37,03,24,071,38,08,25,129,40,13,63,326,45,7*73
$GAGSV,3,2,10,15,39,057,38,21,45,264,39,26,20,272,38,27,30,196,45,7*7F
$GAGSV,3,3,10,05,00,000,,07,02,172,,7*76
$GQGSV,1,1,03,02,29,178,45,03,79,075,42,04,00,000,45,1*5C
$GBGSV,5,1,17,37,12,219,38,33,48,077,41,32,02,195,26,28,62,059,45,1*72
$GBGSV,5,2,17,27,47,310,36,14,28,050,31,13,42,246,44,10,66,257,42,1*7D
$GBGSV,5,3,17,08,52,251,43,07,68,219,42,05,07,254,24,03,43,205,41,1*7C
$GBGSV,5,4,17,02,27,234,32,01,42,150,40,04,35,130,,30,01,291,,1*7D
$GBGSV,5,5,17,36,04,319,,1*4A
$GNGSA,A,3,01,02,03,04,06,09,11,12,14,17,19,,0.7,0.4,0.6,1*37
$GNGSA,A,3,70,71,72,76,85,87,,,,,,,0.7,0.4,0.6,2*30
$GNGSA,A,3,01,03,08,13,15,21,26,27,,,,,0.7,0.4,0.6,3*38
$GNGSA,A,3,01,02,03,07,08,10,13,14,27,28,33,37,0.7,0.4,0.6,4*33
$GNGSA,A,3,02,03,,,,,,,,,,,0.7,0.4,0.6,5*31
$GNVTG,,T,,M,0.0,N,0.0,K,A*3D
$GNDTM,P90,,0000.000025,S,00000.000001,W,0.982,W84*49
$GNRMC,042232.00,A,3726.929597,N,12639.251744,E,0.0,,210622,6.0,W,A,V*6C
$GNGNS,042232.00,3726.929597,N,12639.251744,E,AAAAAN,39,0.4,12.0,18.0,,,V*1B
$GNGGA,042232.00,3726.929597,N,12639.251744,E,1,12,0.4,12.0,M,18.0,M,,*4D
$PSMSG,magcal=PASS,bluesky=0*00
$GPGSV,4,1,13,01,12,064,28,02,09,267,47,03,39,047,44,04,19,099,37,1*60
$GPGSV,4,2,13,06,47,284,47,09,17,133,34,11,13,261,39,12,07,323,32,1*6B
$GPGSV,4,3,13,14,33,188,40,17,76,047,46,19,63,330,46,28,00,000,46,1*60
$GPGSV,4,4,13,20,00,000,,1*54
$GLGSV,2,1,07,70,34,047,37,77,26,298,18,76,27,241,40,87,20,298,38,1*77
$GLGSV,2,2,07,85,28,070,44,71,47,118,44,72,17,167,42,1*47
$GAGSV,3,1,10,01,19,314,37,03,24,071,38,08,25,129,40,13,63,326,45,7*73
$GAGSV,3,2,10,15,39,057,38,21,45,264,38,26,20,272,38,27,30,196,44,7*7F
$GAGSV,3,3,10,05,00,000,,07,02,172,,7*76
$GQGSV,1,1,03,02,29,178,44,03,79,075,41,04,00,000,44,1*5F
$GBGSV,5,1,17,37,12,219,38,33,48,077,40,32,02,195,26,28,62,059,45,1*73
$GBGSV,5,2,17,27,47,310,35,14,28,050,31,13,42,246,44,10,66,257,42,1*7E
$GBGSV,5,3,17,08,52,251,42,07,68,219,41,03,43,205,40,02,27,234,32,1*7B
$GBGSV,5,4,17,01,42,150,40,04,35,130,,05,07,254,,30,01,291,,1*7F
$GBGSV,5,5,17,36,04,319,,1*4A
$GNGSA,A,3,01,02,03,04,06,09,11,12,14,17,19,,0.7,0.4,0.6,1*37
$GNGSA,A,3,70,71,72,76,85,87,,,,,,,0.7,0.4,0.6,2*30
$GNGSA,A,3,01,03,08,13,15,21,26,27,,,,,0.7,0.4,0.6,3*38
$GNGSA,A,3,01,02,03,07,08,10,13,14,27,28,33,37,0.7,0.4,0.6,4*33
$GNGSA,A,3,02,03,,,,,,,,,,,0.7,0.4,0.6,5*31
$GNVTG,,T,,M,0.0,N,0.0,K,A*3D
$GNDTM,P90,,0000.000025,S,00000.000001,W,0.982,W84*49
$GNRMC,042233.00,A,3726.929597,N,12639.251743,E,0.0,,210622,6.0,W,A,V*6A
$GNGNS,042233.00,3726.929597,N,12639.251743,E,AAAAAN,39,0.4,12.0,18.0,,,V*1D
$GNGGA,042233.00,3726.929597,N,12639.251743,E,1,12,0.4,12.0,M,18.0,M,,*4B
$PSMSG,magcal=PASS,bluesky=0*00
$GPGSV,4,1,13,01,12,064,26,02,09,267,48,03,39,047,44,04,19,099,36,1*60
$GPGSV,4,2,13,06,47,284,47,09,17,133,35,11,13,261,39,12,07,323,32,1*6A
$GPGSV,4,3,13,14,33,188,41,17,76,047,46,19,63,330,47,28,00,000,47,1*61
$GPGSV,4,4,13,20,00,000,,1*54
$GLGSV,2,1,07,70,34,047,37,77,26,298,18,76,27,241,40,87,20,298,38,1*77
$GLGSV,2,2,07,85,28,070,44,71,47,118,44,72,17,167,41,1*44
$GAGSV,3,1,10,01,19,314,37,03,24,071,38,08,25,129,40,13,63,326,45,7*73
$GAGSV,3,2,10,15,39,057,38,21,45,264,39,26,20,272,39,27,30,196,44,7*7F
$GAGSV,3,3,10,05,00,000,,07,02,172,,7*76
$GQGSV,1,1,03,02,29,178,45,03,79,075,41,04,00,000,44,1*5E
$GBGSV,5,1,17,37,12,219,37,33,48,077,40,32,02,195,26,28,62,059,45,1*7C
$GBGSV,5,2,17,27,47,310,35,14,28,050,31,13,42,246,44,10,66,257,42,1*7E
$GBGSV,5,3,17,08,52,251,43,07,68,219,41,04,35,130,28,03,43,205,40,1*73
$GBGSV,5,4,17,02,27,234,33,01,42,150,40,05,07,254,,30,01,291,,1*7D
$GBGSV,5,5,17,36,04,319,,1*4A
$GNGSA,A,3,01,02,03,04,06,09,11,12,14,17,19,,0.7,0.4,0.6,1*37
$GNGSA,A,3,70,71,72,76,85,87,,,,,,,0.7,0.4,0.6,2*30
$GNGSA,A,3,01,03,08,13,15,21,26,27,,,,,0.7,0.4,0.6,3*38
$GNGSA,A,3,01,02,03,04,07,08,10,13,14,27,28,33,0.7,0.4,0.6,4*33
$GNGSA,A,3,02,03,,,,,,,,,,,0.7,0.4,0.6,5*31
$GNVTG,,T,,M,0.0,N,0.0,K,A*3D
$GNDTM,P90,,0000.000025,S,00000.000001,W,0.982,W84*49
$GNRMC,042234.00,A,3726.929607,N,12639.251743,E,0.0,,210622,6.0,W,A,V*67
$GNGNS,042234.00,3726.929607,N,12639.251743,E,AAAAAN,40,0.4,12.0,18.0,,,V*1E
$GNGGA,042234.00,3726.929607,N,12639.251743,E,1,12,0.4,12.0,M,18.0,M,,*46
$PSMSG,magcal=PASS,bluesky=0*00
$GPGSV,4,1,13,01,12,064,27,02,09,267,47,03,39,047,44,04,19,099,37,1*6F
$GPGSV,4,2,13,06,47,284,47,09,17,133,35,11,13,261,40,12,07,323,31,1*67
$GPGSV,4,3,13,14,33,188,42,17,76,047,46,19,63,330,47,28,00,000,47,1*62
$GPGSV,4,4,13,20,00,000,,1*54
$GLGSV,2,1,07,70,34,047,38,77,26,298,18,76,27,241,37,87,20,298,40,1*77
$GLGSV,2,2,07,85,28,070,44,71,47,118,44,72,17,167,41,1*44
$GAGSV,3,1,10,01,19,314,37,03,24,071,39,08,25,129,39,13,63,326,45,7*7C
$GAGSV,3,2,10,15,39,057,39,21,45,264,39,26,20,272,39,27,30,196,44,7*7E
$GAGSV,3,3,10,05,00,000,,07,02,172,,7*76
$GQGSV,1,1,03,02,29,178,45,03,79,075,41,04,00,000,44,1*5E
$GBGSV,5,1,17,37,12,219,38,33,48,077,40,32,02,195,26,28,62,059,44,1*72
$GBGSV,5,2,17,27,47,310,35,14,28,050,32,13,42,246,44,10,66,257,42,1*7D
$GBGSV,5,3,17,08,52,251,42,07,68,219,42,04,35,130,28,03,43,205,41,1*70
$GBGSV,5,4,17,02,27,234,34,01,42,150,40,05,07,254,,30,01,291,,1*7A
$GBGSV,5,5,17,36,04,319,,1*4A
$GNGSA,A,3,01,02,03,04,06,09,11,12,14,17,19,,0.7,0.4,0.6,1*37
$GNGSA,A,3,70,71,72,76,85,87,,,,,,,0.7,0.4,0.6,2*30
$GNGSA,A,3,01,03,08,13,15,21,26,27,,,,,0.7,0.4,0.6,3*38
$GNGSA,A,3,01,02,03,04,07,08,10,13,14,27,28,33,0.7,0.4,0.6,4*33
$GNGSA,A,3,02,03,,,,,,,,,,,0.7,0.4,0.6,5*31
$GNVTG,,T,,M,0.0,N,0.0,K,A*3D
$GNDTM,P90,,0000.000025,S,00000.000001,W,0.982,W84*49
$GNRMC,042235.00,A,3726.929609,N,12639.251744,E,0.0,,210622,6.0,W,A,V*6F
$GNGNS,042235.00,3726.929609,N,12639.251744,E,AAAAAN,40,0.4,12.0,18.0,,,V*16
$GNGGA,042235.00,3726.929609,N,12639.251744,E,1,12,0.4,12.0,M,18.0,M,,*4E
$PSMSG,magcal=PASS,bluesky=0*00
$GPGSV,4,1,13,01,12,064,26,02,09,267,47,03,39,047,44,04,19,099,36,1*6F
$GPGSV,4,2,13,06,47,284,47,09,17,133,34,11,13,261,40,12,07,323,32,1*65
$GPGSV,4,3,13,14,33,188,41,17,76,047,46,19,63,330,47,28,00,000,47,1*61
$GPGSV,4,4,13,20,00,000,,1*54
$GLGSV,2,1,07,70,34,047,38,77,26,298,18,76,27,241,35,87,20,298,39,1*7B
$GLGSV,2,2,07,85,28,070,45,71,47,118,44,72,17,167,42,1*46
$GAGSV,3,1,10,01,19,314,37,03,24,071,39,08,25,129,39,13,63,326,45,7*7C
$GAGSV,3,2,10,15,39,057,38,21,45,264,39,26,20,272,40,27,30,196,45,7*70
$GAGSV,3,3,10,05,00,000,,07,02,172,,7*76
$GQGSV,1,1,03,02,29,178,44,03,79,075,42,04,00,000,44,1*5C
$GBGSV,5,1,17,37,12,219,38,33,48,077,41,32,02,195,26,28,62,059,45,1*72
$GBGSV,5,2,17,27,47,310,35,14,28,050,32,13,42,246,44,10,66,257,42,1*7D
$GBGSV,5,3,17,08,52,251,43,07,68,219,42,04,35,130,28,03,43,205,41,1*71
$GBGSV,5,4,17,02,27,234,34,01,42,150,40,05,07,254,,30,01,291,,1*7A
$GBGSV,5,5,17,36,04,319,,1*4A
$GNGSA,A,3,01,02,03,04,06,09,11,12,14,17,19,,0.7,0.4,0.6,1*37
$GNGSA,A,3,70,71,72,76,85,87,,,,,,,0.7,0.4,0.6,2*30
$GNGSA,A,3,01,03,08,13,15,21,26,27,,,,,0.7,0.4,0.6,3*38
$GNGSA,A,3,01,02,03,04,07,08,10,13,14,27,28,33,0.7,0.4,0.6,4*33
$GNGSA,A,3,02,03,,,,,,,,,,,0.7,0.4,0.6,5*31
$GNVTG,,T,,M,0.0,N,0.0,K,A*3D
$GNDTM,P90,,0000.000025,S,00000.000001,W,0.982,W84*49
$GNRMC,042236.00,A,3726.929609,N,12639.251743,E,0.0,,210622,6.0,W,A,V*6B
$GNGNS,042236.00,3726.929609,N,12639.251743,E,AAAAAN,40,0.4,12.0,18.0,,,V*12
$GNGGA,042236.00,3726.929609,N,12639.251743,E,1,12,0.4,12.0,M,18.0,M,,*4A
$PSMSG,magcal=PASS,bluesky=0*00
$GPGSV,4,1,13,01,12,064,28,02,09,267,48,03,39,047,45,04,19,099,37,1*6E
$GPGSV,4,2,13,06,47,284,47,09,17,133,34,11,13,261,39,12,07,323,33,1*6A
$GPGSV,4,3,13,14,33,188,41,17,76,047,46,19,63,330,47,28,00,000,47,1*61
$GPGSV,4,4,13,20,00,000,,1*54
$GLGSV,2,1,07,70,34,047,38,77,26,298,18,76,27,241,37,87,20,298,39,1*79
$GLGSV,2,2,07,85,28,070,45,71,47,118,44,72,17,167,41,1*45
$GAGSV,3,1,10,01,19,314,38,03,24,071,39,08,25,129,39,13,63,326,45,7*73
$GAGSV,3,2,10,15,39,057,39,21,45,264,40,26,20,272,41,27,30,196,44,7*7F
$GAGSV,3,3,10,05,00,000,,07,02,172,,7*76
$GQGSV,1,1,03,02,29,178,45,03,79,075,42,04,00,000,45,1*5C
$GBGSV,5,1,17,37,12,219,37,33,48,077,40,32,02,195,26,28,62,059,44,1*7D
$GBGSV,5,2,17,27,47,310,35,14,28,050,32,13,42,246,45,10,66,257,42,1*7C
$GBGSV,5,3,17,08,52,251,43,07,68,219,42,04,35,130,28,03,43,205,41,1*71
$GBGSV,5,4,17,02,27,234,33,01,42,150,40,05,07,254,,30,01,291,,1*7D
$GBGSV,5,5,17,36,04,319,,1*4A
$GNGSA,A,3,01,02,03,04,06,09,11,12,14,17,19,,0.7,0.4,0.6,1*37
$GNGSA,A,3,70,71,72,76,85,87,,,,,,,0.7,0.4,0.6,2*30
$GNGSA,A,3,01,03,08,13,15,21,26,27,,,,,0.7,0.4,0.6,3*38
$GNGSA,A,3,01,02,03,04,07,08,10,13,14,27,28,33,0.7,0.4,0.6,4*33
$GNGSA,A,3,02,03,,,,,,,,,,,0.7,0.4,0.6,5*31
$GNVTG,,T,,M,0.0,N,0.0,K,A*3D
$GNDTM,P90,,0000.000025,S,00000.000001,W,0.982,W84*49
$GNRMC,042237.00,A,3726.929607,N,12639.251744,E,0.0,,210622,6.0,W,A,V*63
$GNGNS,042237.00,3726.929607,N,12639.251744,E,AAAAAN,40,0.4,12.0,18.0,,,V*1A
