$GNRMC,040831.00,A,3726.8734046,N,12639.2136019,E,0.014,,210622,,,R,V*02
$GNVTG,,T,,M,0.014,N,0.026,K,D*39
$GNGNS,040831.00,3726.8734046,N,12639.2136019,E,RRRR,28,0.69,13.702,17.837,2.0,4095,V*0B
$GNGGA,040831.00,3726.8734046,N,12639.2136019,E,4,12,0.69,13.702,M,17.837,M,2.0,4095*57
$GNGSA,A,3,03,17,19,01,06,14,,,,,,,1.75,0.69,1.61,1*04
$GNGSA,A,3,85,71,76,,,,,,,,,,1.75,0.69,1.61,2*02
$GNGSA,A,3,13,01,21,08,03,27,15,,,,,,1.75,0.69,1.61,3*03
$GNGSA,A,3,03,33,37,10,08,04,13,07,01,14,27,28,1.75,0.69,1.61,4*0A
$GPGSV,3,1,09,01,17,062,42,03,45,052,46,04,17,106,35,06,44,277,43,1*6D
$GPGSV,3,2,09,14,40,191,43,17,76,022,44,19,58,325,42,28,,,45,1*58
$GPGSV,3,3,09,50,47,179,38,1*5F
$GPGSV,2,1,07,01,17,062,32,03,45,052,39,04,17,106,34,06,44,277,42,6*6A
$GPGSV,2,2,07,09,13,138,22,14,40,191,34,17,76,022,36,6*58
$GPGSV,1,1,03,02,06,263,,11,09,257,,12,02,327,,0*5B
$GLGSV,2,1,06,71,41,127,44,76,33,250,44,77,26,308,23,85,33,063,45,1*7B
$GLGSV,2,2,06,86,53,358,08,87,16,293,39,1*7A
$GLGSV,2,1,05,71,41,127,37,76,33,250,42,77,26,308,28,85,33,063,35,3*74
$GLGSV,2,2,05,87,16,293,08,3*47
$GLGSV,1,1,03,70,38,057,,72,11,169,,75,06,200,,0*49
$GAGSV,2,1,08,01,17,319,35,03,24,078,38,08,21,133,31,13,63,317,42,2*7A
$GAGSV,2,2,08,15,42,053,39,18,46,108,43,21,47,273,43,27,36,199,43,2*72
$GAGSV,2,1,08,01,17,319,42,03,24,078,41,08,21,133,33,13,63,317,44,7*75
$GAGSV,2,2,08,15,42,053,44,18,46,108,43,21,47,273,40,27,36,199,43,7*7E
$GAGSV,1,1,02,05,03,032,,26,18,269,,0*71
$GBGSV,3,1,12,01,43,152,43,02,27,236,36,03,44,206,40,04,35,132,39,1*7E
$GBGSV,3,2,12,07,72,222,44,10,69,263,43,13,42,243,43,14,32,055,39,1*72
$GBGSV,3,3,12,27,44,306,44,28,65,046,45,33,49,087,43,37,18,225,41,1*77
$GNRMC,040832.00,A,3726.8734049,N,12639.2136028,E,0.011,,210622,,,R,V*09
$GNVTG,,T,,M,0.011,N,0.020,K,D*3A
$GNGNS,040832.00,3726.8734049,N,12639.2136028,E,RRRR,28,0.69,13.699,17.837,2.0,4095,V*06
$GNGGA,040832.00,3726.8734049,N,12639.2136028,E,4,12,0.69,13.699,M,17.837,M,2.0,4095*5A
$GNGSA,A,3,03,17,19,01,06,14,,,,,,,1.75,0.69,1.61,1*04
$GNGSA,A,3,85,71,76,,,,,,,,,,1.75,0.69,1.61,2*02
$GNGSA,A,3,13,01,21,08,03,27,15,,,,,,1.75,0.69,1.61,3*03
$GNGSA,A,3,03,33,37,10,08,04,13,07,01,14,27,28,1.75,0.69,1.61,4*0A
$GPGSV,3,1,09,01,17,062,43,03,45,052,46,04,17,106,34,06,44,277,44,1*6A
$GPGSV,3,2,09,14,40,191,44,17,76,022,45,19,58,325,42,28,,,45,1*5E
$GPGSV,3,3,09,50,47,179,39,1*5E
$GPGSV,2,1,07,01,17,062,32,03,45,052,39,04,17,106,32,06,44,277,42,6*6C
$GPGSV,2,2,07,09,13,138,24,14,40,191,35,17,76,022,36,6*5F
$GPGSV,1,1,03,02,06,263,,11,09,257,,12,02,327,,0*5B
$GLGSV,2,1,06,71,41,127,44,76,33,250,43,77,26,308,22,85,33,063,47,1*7F
$GLGSV,2,2,06,86,53,358,07,87,16,293,42,1*79
$GLGSV,1,1,04,71,41,127,37,76,33,250,42,77,26,308,28,85,33,063,35,3*76
$GLGSV,1,1,03,70,38,057,,72,11,169,,75,06,200,,0*49
$GAGSV,2,1,08,01,17,319,34,03,24,078,37,08,21,133,25,13,63,317,42,2*71
$GAGSV,2,2,08,15,42,053,39,18,46,108,42,21,47,273,43,27,36,199,42,2*72
$GAGSV,2,1,08,01,17,319,42,03,24,078,42,08,21,133,32,13,63,317,45,7*76
$GAGSV,2,2,08,15,42,053,44,18,46,108,43,21,47,273,42,27,36,199,43,7*7C
$GAGSV,1,1,02,05,03,032,,26,18,269,,0*71
$GBGSV,3,1,12,01,43,152,44,02,27,236,37,03,44,206,41,04,35,132,41,1*76
$GBGSV,3,2,12,07,72,222,45,10,69,263,44,13,42,243,45,14,32,055,40,1*7C
$GBGSV,3,3,12,27,44,306,46,28,65,046,47,33,49,087,45,37,18,225,43,1*73
$GNRMC,040833.00,A,3726.8734037,N,12639.2136031,E,0.017,,210622,,,R,V*0F
$GNVTG,,T,,M,0.017,N,0.031,K,D*3C
$GNGNS,040833.00,3726.8734037,N,12639.2136031,E,RRRR,28,0.69,13.719,17.837,1.0,4095,V*0C
$GNGGA,040833.00,3726.8734037,N,12639.2136031,E,4,12,0.69,13.719,M,17.837,M,1.0,4095*50
$GNGSA,A,3,03,17,19,01,06,14,,,,,,,1.75,0.69,1.61,1*04
$GNGSA,A,3,85,71,76,,,,,,,,,,1.75,0.69,1.61,2*02
$GNGSA,A,3,13,01,21,08,03,27,15,,,,,,1.75,0.69,1.61,3*03
$GNGSA,A,3,03,33,37,10,08,04,13,07,01,14,27,28,1.75,0.69,1.61,4*0A
$GPGSV,3,1,09,01,17,062,42,03,45,052,45,04,17,106,36,06,44,277,42,1*6C
$GPGSV,3,2,09,14,40,191,43,17,76,022,43,19,58,325,41,28,,,44,1*5D
$GPGSV,3,3,09,50,47,179,36,1*51
$GPGSV,2,1,07,01,17,062,32,03,45,052,38,04,17,106,33,06,44,277,43,6*6D
$GPGSV,2,2,07,09,13,138,23,14,40,191,34,17,76,022,36,6*59
$GPGSV,1,1,03,02,06,263,,11,09,257,,12,02,327,,0*5B
$GLGSV,2,1,06,71,41,127,45,76,33,250,42,77,26,308,21,85,33,063,46,1*7D
$GLGSV,2,2,06,86,53,358,07,87,16,293,41,1*7A
$GLGSV,1,1,04,71,41,127,38,76,33,250,42,77,26,308,28,85,33,063,35,3*79
$GLGSV,1,1,03,70,38,057,,72,11,169,,75,06,200,,0*49
$GAGSV,2,1,08,01,17,319,35,03,24,078,37,08,21,133,32,13,63,317,42,2*76
$GAGSV,2,2,08,15,42,053,40,18,46,108,42,21,47,273,43,27,36,199,41,2*7F
$GAGSV,2,1,08,01,17,319,41,03,24,078,40,08,21,133,32,13,63,317,43,7*71
$GAGSV,2,2,08,15,42,053,43,18,46,108,43,21,47,273,40,27,36,199,42,7*78
$GAGSV,1,1,02,05,03,032,,26,18,269,,0*71
$GBGSV,3,1,12,01,43,152,42,02,27,236,36,03,44,206,41,04,35,132,38,1*7F
$GBGSV,3,2,12,07,72,222,44,10,69,263,43,13,42,243,44,14,32,055,39,1*75
$GBGSV,3,3,12,27,44,306,45,28,65,046,46,33,49,087,44,37,18,225,42,1*71
$GBGSV,2,1,08,03,44,206,37,04,35,132,40,07,72,222,43,08,52,247,41,3*76
$GBGSV,2,2,08,10,69,263,40,13,42,243,36,14,32,055,39,27,44,306,11,3*7B
$GBGSV,1,1,02,05,08,255,,15,24,182,,0*73
$GNRMC,040834.00,A,3726.8734038,N,12639.2136030,E,0.005,,210622,,,R,V*05
$GNVTG,,T,,M,0.005,N,0.010,K,D*3C
$GNGNS,040834.00,3726.8734038,N,12639.2136030,E,RRRR,28,0.69,13.712,17.837,2.0,4095,V*0D
$GNGGA,040834.00,3726.8734038,N,12639.2136030,E,4,12,0.69,13.712,M,17.837,M,2.0,4095*51
$GNGSA,A,3,03,17,19,01,06,14,,,,,,,1.75,0.69,1.61,1*04
$GNGSA,A,3,85,71,76,,,,,,,,,,1.75,0.69,1.61,2*02
$GNGSA,A,3,13,01,21,08,03,27,15,,,,,,1.75,0.69,1.61,3*03
$GNGSA,A,3,03,33,37,10,08,04,13,07,01,14,27,28,1.75,0.69,1.61,4*0A
$GPGSV,3,1,09,01,17,062,42,03,45,052,45,04,17,106,36,06,44,277,42,1*6C
$GPGSV,3,2,09,14,40,191,43,17,76,022,43,19,58,325,41,28,,,44,1*5D
$GPGSV,3,3,09,50,47,179,34,1*53
$GPGSV,2,1,07,01,17,062,32,03,45,052,38,04,17,106,33,06,44,277,42,6*6C
$GPGSV,2,2,07,09,13,138,22,14,40,191,35,17,76,022,36,6*59
$GPGSV,1,1,03,02,06,263,,11,09,257,,12,02,327,,0*5B
$GLGSV,2,1,06,71,41,127,45,76,33,250,42,77,26,308,22,85,33,063,46,1*7E
$GLGSV,2,2,06,86,53,358,07,87,16,293,41,1*7A
$GLGSV,1,1,04,71,41,127,38,76,33,250,41,77,26,308,28,85,33,063,34,3*7B
$GLGSV,1,1,03,70,38,057,,72,11,169,,75,06,200,,0*49
$GAGSV,2,1,08,01,17,319,34,03,24,078,36,08,21,133,31,13,63,317,42,2*75
$GAGSV,2,2,08,15,42,053,39,18,46,108,42,21,47,273,43,27,36,199,41,2*71
$GAGSV,2,1,08,01,17,319,42,03,24,078,40,08,21,133,33,13,63,317,44,7*74
$GAGSV,2,2,08,15,42,053,44,18,46,108,43,21,47,273,41,27,36,199,42,7*7E
$GAGSV,1,1,02,05,03,032,,26,18,269,,0*71
$GBGSV,3,1,12,01,43,152,42,02,27,236,36,03,44,206,40,04,35,132,39,1*7F
$GBGSV,3,2,12,07,72,222,44,10,69,263,43,13,42,243,44,14,32,055,39,1*75
$GBGSV,3,3,12,27,44,306,45,28,65,046,46,33,49,087,44,37,18,225,41,1*72
$GBGSV,2,1,08,03,44,206,37,04,35,132,39,07,72,222,43,08,52,247,41,3*78
$GBGSV,2,2,08,10,69,263,40,13,42,243,36,14,32,055,39,27,44,306,12,3*78
$GNRMC,040835.00,A,3726.8734039,N,12639.2136016,E,0.002,,210622,,,R,V*06
$GNVTG,,T,,M,0.002,N,0.003,K,D*39
$GNGNS,040835.00,3726.8734039,N,12639.2136016,E,RRRR,28,0.69,13.702,17.837,2.0,4095,V*08
$GNGGA,040835.00,3726.8734039,N,12639.2136016,E,4,12,0.69,13.702,M,17.837,M,2.0,4095*54
$GNGSA,A,3,03,17,19,01,06,14,,,,,,,1.75,0.69,1.61,1*04
$GNGSA,A,3,85,71,76,,,,,,,,,,1.75,0.69,1.61,2*02
$GNGSA,A,3,13,01,21,08,03,27,15,,,,,,1.75,0.69,1.61,3*03
$GNGSA,A,3,03,33,37,10,08,04,13,07,01,14,27,28,1.75,0.69,1.61,4*0A
$GPGSV,3,1,09,01,17,062,42,03,45,052,45,04,17,106,36,06,44,277,42,1*6C
$GPGSV,3,2,09,14,40,191,43,17,76,022,43,19,58,325,41,28,,,44,1*5D
$GPGSV,3,3,09,50,47,179,35,1*52
$GPGSV,2,1,07,01,17,062,32,03,45,052,38,04,17,106,33,06,44,277,42,6*6C
$GPGSV,2,2,07,09,13,138,21,14,40,191,34,17,76,022,36,6*5B
$GPGSV,1,1,03,02,06,263,,11,09,257,,12,02,327,,0*5B
$GLGSV,2,1,06,71,41,127,45,76,33,250,42,77,26,308,21,85,33,063,46,1*7D
$GLGSV,2,2,06,86,53,358,07,87,16,293,41,1*7A
$GLGSV,1,1,04,71,41,127,37,76,33,250,41,77,26,308,28,85,33,063,34,3*74
$GLGSV,1,1,03,70,38,057,,72,11,169,,75,06,200,,0*49
$GAGSV,2,1,08,01,17,319,35,03,24,078,36,08,21,133,32,13,63,317,42,2*77
$GAGSV,2,2,08,15,42,053,40,18,46,108,42,21,47,273,43,27,36,199,41,2*7F
$GAGSV,2,1,08,01,17,319,42,03,24,078,40,08,21,133,33,13,63,317,44,7*74
$GAGSV,2,2,08,15,42,053,43,18,46,108,43,21,47,273,41,27,36,199,42,7*79
$GAGSV,1,1,02,05,03,032,,26,18,269,,0*71
$GBGSV,3,1,12,01,43,152,42,02,27,236,36,03,44,206,40,04,35,132,39,1*7F
$GBGSV,3,2,12,07,72,222,44,10,69,263,43,13,42,243,44,14,32,055,39,1*75
$GBGSV,3,3,12,27,44,306,45,28,65,046,46,33,49,087,44,37,18,225,42,1*71
$GBGSV,2,1,08,03,44,206,37,04,35,132,39,07,72,222,43,08,52,247,41,3*78
$GBGSV,2,2,08,10,69,263,40,13,42,243,36,14,32,055,39,27,44,306,12,3*78
$GBGSV,1,1,02,05,08,255,,15,24,182,,0*73
$GNRMC,040836.00,A,3726.8734019,N,12639.2136053,E,0.012,,210622,,,R,V*07
$GNVTG,,T,,M,0.012,N,0.022,K,D*3B
$GNGNS,040836.00,3726.8734019,N,12639.2136053,E,RRRR,28,0.69,13.716,17.837,2.0,4095,V*0D
$GNRMC,040837.00,A,3726.8734025,N,12639.2136054,E,0.005,,210622,,,R,V*08
$GNVTG,,T,,M,0.005,N,0.008,K,D*35
$GNGNS,040837.00,3726.8734025,N,12639.2136054,E,RRRR,28,0.69,13.725,17.837,2.0,4095,V*04
$GNGGA,040837.00,3726.8734025,N,12639.2136054,E,4,12,0.69,13.725,M,17.837,M,2.0,4095*58
$GNGSA,A,3,03,17,19,01,06,14,,,,,,,1.75,0.69,1.61,1*04
$GNGSA,A,3,85,71,76,,,,,,,,,,1.75,0.69,1.61,2*02
$GNGSA,A,3,13,01,21,08,03,27,15,,,,,,1.75,0.69,1.61,3*03
$GNGSA,A,3,03,33,37,10,08,04,13,07,01,14,27,28,1.75,0.69,1.61,4*0A
$GPGSV,3,1,09,01,17,062,42,03,45,052,45,04,17,106,36,06,44,277,42,1*6C
$GPGSV,3,2,09,14,40,191,44,17,76,022,43,19,58,325,41,28,,,44,1*5A
$GPGSV,3,3,09,50,47,179,35,1*52
$GPGSV,2,1,07,01,17,062,33,03,45,052,38,04,17,106,33,06,44,277,42,6*6D
$GPGSV,2,2,07,09,13,138,21,14,40,191,34,17,76,022,35,6*58
$GPGSV,1,1,03,02,06,263,,11,09,257,,12,02,327,,0*5B
$GLGSV,2,1,07,70,38,057,21,71,41,127,45,76,33,250,41,77,26,308,20,1*79
$GLGSV,2,2,07,85,33,063,46,86,53,358,06,87,16,293,41,1*40
$GLGSV,1,1,04,71,41,127,37,76,33,250,41,77,26,308,28,85,33,063,34,3*74
$GLGSV,1,1,02,72,11,169,,75,06,200,,0*76
$GAGSV,2,1,08,01,17,319,35,03,24,078,36,08,21,133,32,13,63,317,42,2*77
$GAGSV,2,2,08,15,42,053,39,18,46,108,43,21,47,273,43,27,36,199,42,2*73
$GAGSV,2,1,08,01,17,319,42,03,24,078,40,08,21,133,33,13,63,317,44,7*74
$GAGSV,2,2,08,15,42,053,43,18,46,108,44,21,47,273,41,27,36,199,42,7*7E
$GAGSV,1,1,02,05,03,032,,26,18,269,,0*71
$GBGSV,3,1,12,01,43,152,42,02,27,236,37,03,44,206,40,04,35,132,39,1*7E
$GBGSV,3,2,12,07,72,222,44,10,69,263,43,13,42,243,44,14,32,055,39,1*75
$GBGSV,3,3,12,27,44,306,45,28,65,046,46,33,49,087,44,37,18,225,42,1*71
$GBGSV,2,1,08,03,44,206,37,04,35,132,40,07,72,222,43,08,52,247,41,3*76
$GBGSV,2,2,08,10,69,263,40,13,42,243,36,14,32,055,39,27,44,306,10,3*7A
$GBGSV,1,1,02,05,08,255,,15,24,182,,0*73
$GNRMC,040838.00,A,3726.8734017,N,12639.2136055,E,0.012,,210622,,,R,V*01
$GNVTG,,T,,M,0.012,N,0.022,K,D*3B
$GNGNS,040838.00,3726.8734017,N,12639.2136055,E,RRRR,28,0.69,13.723,17.837,2.0,4095,V*0D
$GNGGA,040838.00,3726.8734017,N,12639.2136055,E,4,12,0.69,13.723,M,17.837,M,2.0,4095*51
$GNGSA,A,3,03,17,19,01,06,14,,,,,,,1.75,0.69,1.61,1*04
$GNGSA,A,3,85,71,76,,,,,,,,,,1.75,0.69,1.61,2*02
$GNGSA,A,3,13,01,21,08,03,27,15,,,,,,1.75,0.69,1.61,3*03
$GNGSA,A,3,03,33,37,10,08,04,13,07,01,14,27,28,1.75,0.69,1.61,4*0A
$GPGSV,3,1,09,01,17,062,42,03,45,052,45,04,17,106,37,06,44,277,41,1*6E
$GPGSV,3,2,09,14,40,191,44,17,76,022,43,19,58,325,41,28,,,44,1*5A
$GPGSV,3,3,09,50,47,179,36,1*51
$GPGSV,2,1,07,01,17,062,32,03,45,052,38,04,17,106,33,06,44,277,42,6*6C
$GPGSV,2,2,07,09,13,138,21,14,40,191,33,17,76,022,35,6*5F
$GPGSV,1,1,03,02,06,263,,11,09,257,,12,02,327,,0*5B
$GLGSV,2,1,07,70,38,057,22,71,41,127,45,76,33,250,40,77,26,308,20,1*7B
$GLGSV,2,2,07,85,33,063,46,86,53,358,07,87,16,293,41,1*41
$GLGSV,1,1,04,71,41,127,38,76,33,250,41,77,26,308,28,85,33,063,34,3*7B
$GLGSV,1,1,02,72,11,169,,75,06,200,,0*76
$GAGSV,2,1,08,01,17,319,35,03,24,078,37,08,21,133,32,13,63,317,42,2*76
$GAGSV,2,2,08,15,42,053,39,18,46,108,43,21,47,273,43,27,36,199,42,2*73
$GAGSV,2,1,08,01,17,319,42,03,24,078,40,08,21,133,32,13,63,317,44,7*75
$GAGSV,2,2,08,15,42,053,43,18,46,108,43,21,47,273,41,27,36,199,42,7*79
$GAGSV,1,1,02,05,03,032,,26,18,269,,0*71
$GBGSV,3,1,12,01,43,152,42,02,27,236,36,03,44,206,40,04,35,132,39,1*7F
$GBGSV,3,2,12,07,72,222,44,10,69,263,43,13,42,243,44,14,32,055,39,1*75
$GBGSV,3,3,12,27,44,306,45,28,65,046,46,33,49,087,44,37,18,225,42,1*71
$GBGSV,2,1,08,03,44,206,37,04,35,132,40,07,72,222,43,08,52,247,41,3*76
$GBGSV,2,2,08,10,69,263,40,13,42,243,36,14,32,055,40,27,44,306,11,3*75
$GBGSV,1,1,02,05,08,255,,15,24,182,,0*73
$GNRMC,040839.00,A,3726.8734023,N,12639.2136029,E,0.010,,210622,,,R,V*0E
$GNVTG,,T,,M,0.010,N,0.018,K,D*30
$GNGNS,040839.00,3726.8734023,N,12639.2136029,E,RRRR,28,0.69,13.725,17.837,2.0,4095,V*06
$GNGGA,040839.00,3726.8734023,N,12639.2136029,E,4,12,0.69,13.725,M,17.837,M,2.0,4095*5A
$GNGSA,A,3,03,17,19,01,06,14,,,,,,,1.75,0.69,1.61,1*04
$GNGSA,A,3,85,71,76,,,,,,,,,,1.75,0.69,1.61,2*02
$GNGSA,A,3,13,01,21,08,03,27,15,,,,,,1.75,0.69,1.61,3*03
$GNGSA,A,3,03,33,37,10,08,04,13,07,01,14,27,28,1.75,0.69,1.61,4*0A
$GPGSV,3,1,09,01,17,062,42,03,45,052,45,04,17,106,36,06,44,277,41,1*6F
$GPGSV,3,2,09,14,40,191,44,17,76,022,43,19,58,325,41,28,,,44,1*5A
$GPGSV,3,3,09,50,47,179,35,1*52
$GPGSV,2,1,07,01,17,062,33,03,45,052,38,04,17,106,32,06,44,277,42,6*6C
$GPGSV,2,2,07,09,13,138,21,14,40,191,33,17,76,022,36,6*5C
$GPGSV,1,1,03,02,06,263,,11,09,257,,12,02,327,,0*5B
$GLGSV,2,1,06,70,38,057,22,71,41,127,46,76,33,250,40,77,26,308,19,1*73
$GLGSV,2,2,06,85,33,063,46,87,16,293,41,1*71
$GLGSV,1,1,04,71,41,127,38,76,33,250,41,77,26,308,28,85,33,063,34,3*7B
$GLGSV,1,1,03,72,11,169,,75,06,200,,86,53,358,,0*41
$GAGSV,2,1,08,01,17,319,35,03,24,078,37,08,21,133,32,13,63,317,42,2*76
$GAGSV,2,2,08,15,42,053,39,18,46,108,43,21,47,273,43,27,36,199,42,2*73
$GAGSV,2,1,08,01,17,319,42,03,24,078,40,08,21,133,32,13,63,317,44,7*75
$GAGSV,2,2,08,15,42,053,43,18,46,108,43,21,47,273,41,27,36,199,42,7*79
$GAGSV,1,1,02,05,03,032,,26,18,269,,0*71
$GBGSV,3,1,12,01,43,152,42,02,27,236,36,03,44,206,40,04,35,132,39,1*7F
$GBGSV,3,2,12,07,72,222,44,10,69,263,43,13,42,243,44,14,32,055,39,1*75
$GBGSV,3,3,12,27,44,307,45,28,65,046,46,33,49,087,44,37,18,225,42,1*70
$GBGSV,2,1,08,03,44,206,37,04,35,132,41,07,72,222,43,08,52,247,41,3*77
$GBGSV,2,2,08,10,69,263,41,13,42,243,37,14,32,055,40,27,44,307,12,3*77
$GBGSV,1,1,02,05,08,255,,15,24,182,,0*73
$GNRMC,040840.00,A,3726.8734029,N,12639.2136028,E,0.012,,210622,,,R,V*09
$GNVTG,,T,,M,0.012,N,0.022,K,D*3B
$GNGNS,040840.00,3726.8734029,N,12639.2136028,E,RRRR,28,0.69,13.709,17.837,2.0,4095,V*0D
$GNGGA,040840.00,3726.8734029,N,12639.2136028,E,4,12,0.69,13.709,M,17.837,M,2.0,4095*51
$GNGSA,A,3,03,17,19,01,06,14,,,,,,,1.75,0.69,1.61,1*04
$GNGSA,A,3,85,71,76,,,,,,,,,,1.75,0.69,1.61,2*02
$GNGSA,A,3,13,01,21,08,03,27,15,,,,,,1.75,0.69,1.61,3*03
$GNGSA,A,3,03,33,37,10,08,04,13,07,01,14,27,28,1.75,0.69,1.61,4*0A
$GPGSV,3,1,09,01,17,062,42,03,45,052,45,04,17,106,37,06,44,277,41,1*6E
$GPGSV,3,2,09,14,40,191,44,17,76,022,43,19,58,325,41,28,,,45,1*5B
$GPGSV,2,1,07,01,17,062,33,03,45,052,37,04,17,106,33,06,44,277,42,6*62
$GPGSV,2,2,07,09,13,138,21,14,40,191,34,17,76,022,36,6*5B
$GPGSV,1,1,03,02,06,263,,11,09,257,,12,02,327,,0*5B
$GLGSV,2,1,06,70,38,057,23,71,41,127,46,76,33,250,40,77,26,308,19,1*72
$GLGSV,2,2,06,85,33,063,46,87,16,293,41,1*71
$GLGSV,1,1,04,71,41,127,38,76,33,250,41,77,26,308,28,85,33,063,34,3*7B
$GLGSV,1,1,03,72,11,169,,75,06,200,,86,53,358,,0*41
$GAGSV,2,1,08,01,17,319,35,03,24,078,37,08,21,133,31,13,63,317,42,2*75
$GAGSV,2,2,08,15,42,053,39,18,46,108,43,21,47,273,43,27,36,199,42,2*73
$GAGSV,2,1,08,01,17,319,42,03,24,078,40,08,21,133,31,13,63,317,44,7*76
$GAGSV,2,2,08,15,42,053,43,18,46,108,43,21,47,273,41,27,36,199,41,7*7A
$GAGSV,1,1,02,05,03,032,,26,18,269,,0*71
$GBGSV,3,1,12,01,43,152,42,02,27,236,36,03,44,206,40,04,35,132,40,1*71
$GBGSV,3,2,12,07,72,222,44,10,69,263,43,13,42,243,44,14,32,055,39,1*75
$GBGSV,3,3,12,27,44,307,45,28,65,048,46,33,49,087,43,37,18,225,42,1*79
$GBGSV,2,1,08,03,4$GNRMC,040841.00,A,3726.8734039,N,12639.2136022,E,0.007,,210622,,,R,V*07
$GNVTG,,T,,M,0.007,N,0.014,K,D*3A
$GNGNS,040841.00,3726.8734039,N,12639.2136022,E,RRRR,28,0.69,13.698,17.837,2.0,4095,V*0E
$GNGGA,040841.00,3726.8734039,N,12639.2136022,E,4,12,0.69,13.698,M,17.837,M,2.0,4095*52
$GNGSA,A,3,03,17,19,01,06,14,,,,,,,1.75,0.69,1.61,1*04
$GNGSA,A,3,85,71,76,,,,,,,,,,1.75,0.69,1.61,2*02
$GNGSA,A,3,13,01,21,08,03,27,15,,,,,,1.75,0.69,1.61,3*03
$GNGSA,A,3,03,33,37,10,08,04,13,07,01,14,27,28,1.75,0.69,1.61,4*0A
$GPGSV,3,1,09,01,17,062,42,03,45,052,45,04,17,106,37,06,44,277,42,1*6D
$GPGSV,3,2,09,14,40,191,44,17,76,022,43,19,58,325,41,28,,,44,1*5A
$GPGSV,3,3,09,50,47,179,35,1*52
$GPGSV,2,1,07,01,17,062,33,03,45,052,39,04,17,106,35,06,44,277,43,6*6B
$GPGSV,2,2,07,09,13,138,19,14,40,191,36,17,76,022,36,6*52
$GPGSV,1,1,03,02,06,263,,11,09,257,,12,02,327,,0*5B
$GLGSV,2,1,06,70,38,057,24,71,41,127,47,76,33,250,39,77,26,308,18,1*7B
$GLGSV,2,2,06,85,33,063,47,87,16,293,40,1*71
$GLGSV,1,1,04,71,41,127,40,76,33,250,43,77,26,308,30,85,33,063,36,3*7D
$GLGSV,1,1,03,72,11,169,,75,06,200,,86,53,358,,0*41
$GAGSV,2,1,08,01,17,319,34,03,24,078,37,08,21,133,32,13,63,317,42,2*77
$GAGSV,2,2,08,15,42,053,40,18,46,108,42,21,47,273,43,27,36,199,42,2*7C
$GAGSV,2,1,08,01,17,319,42,03,24,078,40,08,21,133,32,13,63,317,44,7*75
$GAGSV,2,2,08,15,42,053,43,18,46,108,44,21,47,273,41,27,36,199,42,7*7E
$GAGSV,1,1,02,05,03,032,,26,18,269,,0*71
$GBGSV,3,1,12,01,43,152,43,02,27,236,36,03,44,206,40,04,35,132,40,1*70
$GBGSV,3,2,12,07,72,222,44,10,69,263,43,13,42,243,44,14,32,055,39,1*75
$GBGSV,3,3,12,27,44,307,45,28,65,048,46,33,49,087,43,37,18,225,42,1*79
$GBGSV,2,1,08,03,44,206,38,04,35,132,41,07,72,222,44,08,52,247,42,3*7C
$GBGSV,2,2,08,10,69,263,41,13,42,243,37,14,32,055,40,27,44,307,11,3*74
$GBGSV,1,1,02,05,08,255,,15,24,182,,0*73
$GNRMC,040842.00,A,3726.8734030,N,12639.2136046,E,0.008,,210622,,,R,V*00
$GNVTG,,T,,M,0.008,N,0.015,K,D*34
$GNGNS,040842.00,3726.8734030,N,12639.2136046,E,RRRR,28,0.69,13.705,17.837,2.0,4095,V*03
$GNGGA,040842.00,3726.8734030,N,12639.2136046,E,4,12,0.69,13.705,M,17.837,M,2.0,4095*5F
$GNGSA,A,3,03,17,19,01,06,14,,,,,,,1.75,0.69,1.61,1*04
$GNGSA,A,3,85,71,76,,,,,,,,,,1.75,0.69,1.61,2*02
$GNGSA,A,3,13,01,21,08,03,27,15,,,,,,1.75,0.69,1.61,3*03
$GNGSA,A,3,03,33,37,10,08,04,13,07,01,14,27,28,1.75,0.69,1.61,4*0A
$GPGSV,3,1,09,01,17,062,42,03,45,052,45,04,17,106,36,06,44,277,41,1*6F
$GPGSV,3,2,09,14,40,191,43,17,76,022,43,19,58,325,41,28,,,44,1*5D
$GPGSV,3,3,09,50,47,179,34,1*53
$GPGSV,2,1,07,01,17,062,33,03,45,052,38,04,17,106,35,06,44,277,43,6*6A
$GPGSV,2,2,07,09,13,138,20,14,40,191,35,17,76,022,36,6*5B
$GPGSV,1,1,03,02,06,263,,11,09,257,,12,02,327,,0*5B
$GLGSV,2,1,06,70,38,057,25,71,41,127,46,76,33,250,39,77,26,308,19,1*7A
$GLGSV,2,2,06,85,33,063,46,87,16,293,40,1*70
$GLGSV,1,1,04,71,41,127,39,76,33,250,43,77,26,308,29,85,33,063,36,3*7B
$GLGSV,1,1,03,72,11,169,,75,06,200,,86,53,358,,0*41
$GAGSV,2,1,08,01,17,319,37,03,24,078,37,08,21,133,34,13,63,317,42,2*72
$GAGSV,2,2,08,15,42,053,39,18,46,108,43,21,47,273,43,27,36,199,43,2*72
$GAGSV,2,1,08,01,17,319,41,03,24,078,40,08,21,133,33,13,63,317,44,7*77
$GAGSV,2,2,08,15,42,053,43,18,46,108,44,21,47,273,41,27,36,199,42,7*7E
$GAGSV,1,1,02,05,03,032,,26,18,269,,0*71
$GBGSV,3,1,12,01,43,152,43,02,27,236,36,03,44,206,39,04,35,132,40,1*7E
$GBGSV,3,2,12,07,72,222,44,10,69,263,43,13,42,243,44,14,32,055,39,1*75
$GBGSV,3,3,12,27,44,307,44,28,65,048,46,33,49,087,44,37,18,225,42,1*7F
$GBGSV,2,1,08,03,44,206,37,04,35,132,41,07,72,222,43,08,52,247,41,3*77
$GBGSV,2,2,08,10,69,263,41,13,42,243,36,14,32,055,40,27,44,307,11,3*75
$GBGSV,1,1,02,05,08,255,,15,24,182,,0*73
$GNRMC,040843.00,A,3726.8734045,N,12639.2136042,E,0.007,,210622,,,R,V*08
$GNVTG,,T,,M,0.007,N,0.014,K,D*3A
$GNGNS,040843.00,3726.8734045,N,12639.2136042,E,RRRR,28,0.69,13.696,17.837,1.0,4095,V*0C
$GNGGA,040843.00,3726.8734045,N,12639.2136042,E,4,12,0.69,13.696,M,17.837,M,1.0,4095*50
$GNGSA,A,3,03,17,19,01,06,14,,,,,,,1.75,0.69,1.61,1*04
$GNGSA,A,3,85,71,76,,,,,,,,,,1.75,0.69,1.61,2*02
$GNGSA,A,3,13,01,21,08,03,27,15,,,,,,1.75,0.69,1.61,3*03
$GNGSA,A,3,03,33,37,10,08,04,13,07,01,14,27,28,1.75,0.69,1.61,4*0A
$GPGSV,3,1,09,01,17,062,41,03,45,052,44,04,17,106,36,06,44,277,41,1*6D
$GPGSV,3,2,09,14,40,191,43,17,76,022,42,19,58,325,41,28,,,44,1*5C
$GPGSV,3,3,09,50,47,179,35,1*52
$GPGSV,2,1,07,01,17,062,33,03,45,052,38,04,17,106,35,06,44,277,42,6*6B
$GPGSV,2,2,07,09,13,138,20,14,40,191,36,17,76,022,37,6*59
$GPGSV,1,1,03,02,06,263,,11,09,257,,12,02,327,,0*5B
$GLGSV,2,1,06,70,38,057,24,71,41,127,46,76,33,250,39,77,26,308,18,1*7A
$GLGSV,2,2,06,85,33,063,45,87,16,293,40,1*73
$GLGSV,1,1,04,71,41,127,39,76,33,250,42,77,26,308,28,85,33,063,36,3*7B
$GLGSV,1,1,03,72,11,169,,75,06,200,,86,53,358,,0*41
$GAGSV,2,1,08,01,17,319,35,03,24,078,36,08,21,133,33,13,63,317,41,2*75
$GAGSV,2,2,08,15,42,053,39,18,46,108,43,21,47,273,43,27,36,199,41,2*70
$GAGSV,2,1,08,01,17,319,41,03,24,078,40,08,21,133,33,13,63,317,43,7*70
$GAGSV,2,2,08,15,42,053,43,18,46,108,43,21,47,273,41,27,36,199,42,7*79
$GAGSV,1,1,02,05,03,032,,26,18,269,,0*71
$GBGSV,3,1,12,01,43,152,43,02,27,236,36,03,44,206,39,04,35,132,39,1*70
$GBGSV,3,2,12,07,72,222,44,10,69,263,43,13,42,243,44,14,32,055,38,1*74
$GBGSV,3,3,12,27,44,307,44,28,65,048,46,33,49,086,44,37,18,225,42,1*7E
$GBGSV,2,1,08,03,44,206,37,04,35,132,40,07,72,222,43,08,52,247,41,3*76
$GBGSV,2,2,08,10,69,263,40,13,42,243,36,14,32,055,39,27,44,307,11,3*7A
$GBGSV,1,1,02,05,08,255,,15,24,182,,0*73
$GNRMC,040844.00,A,3726.8734012,N,12639.2136059,E,0.004,,210622,,,R,V*04
$GNVTG,,T,,M,0.004,N,0.007,K,D*3B
$GNGNS,040844.00,3726.8734012,N,12639.2136059,E,RRRR,28,0.69,13.717,17.837,2.0,4095,V*08
$GNGGA,040844.00,3726.8734012,N,12639.2136059,E,4,12,0.69,13.717,M,17.837,M,2.0,4095*54
$GNGSA,A,3,03,17,19,01,06,14,,,,,,,1.75,0.69,1.61,1*04
$GNGSA,A,3,85,71,76,,,,,,,,,,1.75,0.69,1.61,2*02
$GNGSA,A,3,13,01,21,08,03,27,15,,,,,,1.75,0.69,1.61,3*03
$GNGSA,A,3,03,33,37,10,08,04,13,07,01,14,27,28,1.75,0.69,1.61,4*0A
$GPGSV,3,1,09,01,17,062,41,03,45,052,45,04,17,106,36,06,44,277,42,1*6F
$GPGSV,3,2,09,14,40,191,43,17,76,022,42,19,58,325,42,28,,,44,1*5F
$GPGSV,3,3,09,50,47,179,35,1*52
$GPGSV,2,1,07,01,17,062,32,03,45,052,37,04,17,106,34,06,44,277,41,6*67
$GPGSV,2,2,07,09,13,138,20,14,40,191,34,17,76,022,36,6*5A
$GPGSV,1,1,03,02,06,263,,11,09,257,,12,02,327,,0*5B
$GLGSV,2,1,06,70,38,057,25,71,41,127,46,76,33,250,38,77,26,308,17,1*75
$GLGSV,2,2,06,85,33,063,46,87,16,293,40,1*70
$GLGSV,1,1,04,71,41,127,39,76,33,250,42,77,26,308,28,85,33,063,35,3*78
$GLGSV,1,1,03,72,11,169,,75,06,200,,86,53,358,,0*41
$GAGSV,2,1,08,01,17,319,35,03,24,078,36,08,21,133,32,13,63,317,41,2*74
$GAGSV,2,2,08,15,42,053,38,18,46,108,42,21,47,273,42,27,36,199,41,2*71
$GAGSV,2,1,08,01,17,319,41,03,24,078,41,08,21,133,33,13,63,317,43,7*71
$GAGSV,2,2,08,15,42,053,44,18,46,108,44,21,47,273,41,27,36,199,42,7*79
$GAGSV,1,1,02,05,03,032,,26,18,269,,0*71
$GBGSV,3,1,12,01,43,152,43,02,27,236,36,03,44,206,40,04,35,132,39,1*7E
$GBGSV,3,2,12,07,72,222,44,10,69,263,43,13,42,243,44,14,32,055,39,1*75
$GBGSV,3,3,12,27,44,307,44,28,65,048,46,33,49,086,44,37,17,224,42,1*70
$GBGSV,2,1,08,03,44,206,37,04,35,132,40,07,72,222,43,08,52,247,40,3*77
$GBGSV,2,2,08,10,69,263,40,13,42,243,35,14,32,055,38,27,44,307,10,3*79
$GBGSV,1,1,02,05,08,255,,15,24,182,,0*73
$GNRMC,040845.00,A,3726.8733997,N,12639.2136050,E,0.008,,210622,,,R,V*03
$GNVTG,,T,,M,0.008,N,0.014,K,D*35
$GNGNS,040845.00,3726.8733997,N,12639.2136050,E,RRRR,28,0.69,13.710,17.837,2.0,4095,V*04
$GNGSA,A,3,03,17,19,01,06,14,,,,,,,1.75,0.69,1.61,1*04
$GNGSA,A,3,85,71,76,,,,,,,,,,1.75,0.69,1.61,2*02
$GNGSA,A,3,13,01,21,08,03,27,15,,,,,,1.75,0.69,1.61,3*03
$GNGSA,A,3,03,33,37,10,08,04,13,07,01,14,27,28,1.75,0.69,1.61,4*0A
$GPGSV,3,1,09,01,17,062,42,03,45,052,45,04,17,106,36,06,44,277,42,1*6C
$GPGSV,3,2,09,14,40,191,44,17,76,022,43,19,58,325,42,28,,,44,1*59
$GPGSV,3,3,09,50,47,179,35,1*52
$GPGSV,2,1,07,01,17,062,32,03,45,052,38,04,17,106,34,06,44,277,41,6*68
$GPGSV,2,2,07,09,13,138,20,14,40,191,35,17,76,022,36,6*5B
$GPGSV,1,1,03,02,06,263,,11,09,257,,12,02,327,,0*5B
$GLGSV,2,1,06,70,38,057,25,71,41,127,46,76,33,250,38,77,26,308,17,1*75
$GLGSV,2,2,06,85,33,063,46,87,16,293,40,1*70
$GLGSV,1,1,04,71,41,127,38,76,33,250,42,77,26,308,28,85,33,063,35,3*79
$GLGSV,1,1,03,72,11,169,,75,06,200,,86,53,358,,0*41
$GAGSV,2,1,08,01,17,319,35,03,24,078,36,08,21,133,32,13,63,317,41,2*74
$GAGSV,2,2,08,15,42,053,38,18,46$GAGSV,2,1,08,01,17,319,41,03,24,078,40,08,21,133,33,13,63,317,44,7*77
$GAGSV,2,2,08,15,42,053,43,18,46,108,45,21,47,273,41,27,36,199,42,7*7F
$GAGSV,1,1,02,05,03,032,,26,18,269,,0*71
$GBGSV,3,1,12,01,43,152,42,02,27,236,36,03,44,206,39,04,35,132,39,1*71
$GBGSV,3,2,12,07,72,222,44,10,69,263,43,13,42,243,44,14,32,055,39,1*75
$GBGSV,3,3,12,27,44,307,44,28,65,048,46,33,49,086,44,37,17,224,42,1*70
$GBGSV,2,1,08,03,44,206,37,04,35,132,39,07,72,222,43,08,52,247,40,3*79
$GBGSV,2,2,08,10,69,263,40,13,42,243,36,14,32,055,39,27,44,307,09,3*73
$GBGSV,1,1,02,05,08,255,,15,24,182,,0*73
$GNRMC,040846.00,A,3726.8734001,N,12639.2136046,E,0.012,,210622,,,R,V*0D
$GNVTG,,T,,M,0.012,N,0.022,K,D*3B
$GNGNS,040846.00,3726.8734001,N,12639.2136046,E,RRRR,28,0.69,13.722,17.837,2.0,4095,V*00
$GNGGA,040846.00,3726.8734001,N,12639.2136046,E,4,12,0.69,13.722,M,17.837,M,2.0,4095*5C
$GNGSA,A,3,03,17,19,01,06,14,,,,,,,1.75,0.69,1.61,1*04
$GNGSA,A,3,85,71,76,,,,,,,,,,1.75,0.69,1.61,2*02
$GNGSA,A,3,13,01,21,08,03,27,15,,,,,,1.75,0.69,1.61,3*03
$GNGSA,A,3,03,33,37,10,08,04,13,07,01,14,27,28,1.75,0.69,1.61,4*0A
$GPGSV,3,1,09,01,17,062,41,03,45,052,45,04,17,106,36,06,44,277,40,1*6D
$GPGSV,3,2,09,14,40,191,43,17,76,022,42,19,58,325,42,28,,,44,1*5F
$GPGSV,3,3,09,50,47,179,35,1*52
$GPGSV,2,1,07,01,17,062,31,03,45,052,37,04,17,106,34,06,44,277,41,6*64
$GPGSV,2,2,07,09,13,138,20,14,40,191,34,17,76,022,35,6*59
$GPGSV,1,1,03,02,06,263,,11,09,257,,12,02,327,,0*5B
$GLGSV,2,1,06,70,38,057,25,71,41,127,47,76,33,250,38,77,26,308,17,1*74
$GLGSV,2,2,06,85,33,063,46,87,16,293,40,1*70
$GLGSV,1,1,04,71,41,127,38,76,33,250,41,77,26,308,28,85,33,063,35,3*7A
$GLGSV,1,1,03,72,11,169,,75,06,200,,86,53,358,,0*41
$GAGSV,2,1,08,01,17,319,35,03,24,078,36,08,21,133,32,13,63,317,41,2*74
$GAGSV,2,2,08,15,42,053,38,18,46,108,42,21,47,273,42,27,36,199,41,2*71
$GAGSV,2,1,08,01,17,319,41,03,24,078,40,08,21,133,33,13,63,317,44,7*77
$GAGSV,2,2,08,15,42,053,44,18,46,108,44,21,47,273,41,27,36,199,42,7*79
$GAGSV,1,1,02,05,03,032,,26,18,269,,0*71
$GBGSV,3,1,12,01,43,152,42,02,27,236,36,03,44,206,40,04,35,132,39,1*7F
$GBGSV,3,2,12,07,72,222,44,10,69,263,43,13,42,243,44,14,32,055,39,1*75
$GBGSV,3,3,12,27,44,307,44,28,65,048,45,33,49,086,43,37,17,224,43,1*75
$GBGSV,2,1,08,03,44,206,37,04,35,132,39,07,72,222,42,08,52,247,40,3*78
$GBGSV,2,2,08,10,69,263,40,13,42,243,36,14,32,055,38,27,44,307,11,3*7B
$GBGSV,1,1,02,05,08,255,,15,24,182,,0*73
$GNRMC,040847.00,A,3726.8734013,N,12639.2136059,E,0.013,,210622,,,R,V*00
$GNVTG,,T,,M,0.013,N,0.024,K,D*3C
$GNGNS,040847.00,3726.8734013,N,12639.2136059,E,RRRR,28,0.69,13.714,17.837,2.0,4095,V*09
$GNGGA,040847.00,3726.8734013,N,12639.2136059,E,4,12,0.69,13.714,M,17.837,M,2.0,4095*55
$GNGSA,A,3,03,17,19,01,06,14,,,,,,,1.75,0.69,1.61,1*04
$GNGSA,A,3,85,71,76,,,,,,,,,,1.75,0.69,1.61,2*02
$GNGSA,A,3,13,01,21,08,03,27,15,,,,,,1.75,0.69,1.61,3*03
$GNGSA,A,3,03,33,37,10,08,04,13,07,01,14,27,28,1.75,0.69,1.61,4*0A
$GPGSV,3,1,09,01,17,062,41,03,45,052,45,04,17,106,36,06,44,277,41,1*6C
$GPGSV,3,2,09,14,40,191,44,17,76,022,42,19,58,325,42,28,,,44,1*58
$GPGSV,3,3,09,50,47,179,35,1*52
$GPGSV,2,1,07,01,17,062,31,03,45,052,37,04,17,106,34,06,44,277,41,6*64
$GPGSV,2,2,07,09,13,138,19,14,40,191,35,17,76,022,35,6*52
$GPGSV,1,1,03,02,06,263,,11,09,257,,12,02,327,,0*5B
$GLGSV,2,1,07,70,38,057,26,71,41,127,48,72,11,169,38,76,33,250,38,1*70
$GLGSV,2,2,07,77,26,308,18,85,33,063,47,87,16,293,40,1*46
$GLGSV,1,1,04,71,41,127,35,76,33,250,39,77,26,308,27,85,33,063,32,3*70
$GLGSV,1,1,02,75,06,200,,86,53,358,,0*7B
$GAGSV,2,1,08,01,17,319,35,03,24,078,36,08,21,133,33,13,63,317,41,2*75
$GAGSV,2,2,08,15,42,053,39,18,46,108,42,21,47,273,42,27,36,199,41,2*70
$GAGSV,2,1,08,01,17,319,41,03,24,078,40,08,21,133,33,13,63,317,44,7*77
$GAGSV,2,2,08,15,42,053,44,18,46,108,45,21,47,273,41,27,36,199,42,7*78
$GAGSV,1,1,02,05,03,032,,26,18,269,,0*71
$GBGSV,3,1,12,01,43,152,42,02,27,236,36,03,44,206,39,04,35,132,40,1*7F
$GBGSV,3,2,12,07,72,222,44,10,69,263,43,13,42,243,44,14,32,055,38,1*74
$GBGSV,3,3,12,27,44,307,44,28,65,048,46,33,49,086,44,37,17,224,43,1*71
$GBGSV,2,1,08,03,44,206,36,04,35,132,39,07,72,222,43,08,52,247,40,3*78
$GBGSV,2,2,08,10,69,263,40,13,42,243,36,14,32,055,39,27,44,307,10,3*7B
$GBGSV,1,1,02,05,08,255,,15,24,182,,0*73
$GNRMC,040848.00,A,3726.8734019,N,12639.2136060,E,0.015,,210622,,,R,V*09
$GNVTG,,T,,M,0.015,N,0.027,K,D*39
$GNGNS,040848.00,3726.8734019,N,12639.2136060,E,RRRR,28,0.69,13.712,17.837,2.0,4095,V*00
$GNGGA,040848.00,3726.8734019,N,12639.2136060,E,4,12,0.69,13.712,M,17.837,M,2.0,4095*5C
$GNGSA,A,3,03,17,19,01,06,14,,,,,,,1.75,0.69,1.61,1*04
$GNGSA,A,3,85,71,76,,,,,,,,,,1.75,0.69,1.61,2*02
$GNGSA,A,3,03,33,37,10,08,04,13,07,01,14,27,28,1.75,0.69,1.61,4*0A
$GPGSV,3,1,09,01,17,062,41,03,45,052,45,04,17,106,37,06,44,277,41,1*6D
$GPGSV,3,2,09,14,40,191,43,17,76,022,43,19,58,325,42,28,,,44,1*5E
$GPGSV,3,3,09,50,47,179,35,1*52
$GPGSV,2,1,07,01,17,062,31,03,45,052,35,04,17,106,33,06,44,277,39,6*6E
$GPGSV,2,2,07,09,13,138,18,14,40,191,33,17,76,022,34,6*54
$GPGSV,1,1,03,02,06,263,,11,09,257,,12,02,327,,0*5B
$GLGSV,2,1,07,70,38,057,26,71,41,127,47,72,11,169,38,76,33,250,38,1*7F
$GLGSV,2,2,07,77,26,308,19,85,33,063,46,87,16,293,41,1*47
$GLGSV,1,1,04,71,41,127,34,76,33,250,38,77,26,308,26,85,33,063,32,3*71
$GLGSV,1,1,02,75,06,200,,86,53,358,,0*7B
$GAGSV,2,1,08,01,17,319,35,03,24,078,38,08,21,133,33,13,63,317,41,2*7B
$GAGSV,2,2,08,15,42,053,39,18,46,108,42,21,47,273,42,27,36,199,41,2*70
$GAGSV,2,1,08,01,17,319,42,03,24,078,40,08,21,133,33,13,63,317,44,7*74
$GAGSV,2,2,08,15,42,053,44,18,46,108,44,21,47,273,41,27,36,199,42,7*79
$GAGSV,1,$GBGSV,3,1,12,01,43,152,43,02,27,236,36,03,44,206,40,04,35,132,40,1*70
$GBGSV,3,2,12,07,72,222,44,10,69,263,43,13,42,243,44,14,32,055,38,1*74
$GBGSV,3,3,12,27,44,307,44,28,65,048,46,33,49,086,44,37,17,224,43,1*71
$GBGSV,2,1,08,03,44,206,36,04,35,132,38,07,72,222,42,08,52,247,41,3*79
$GBGSV,2,2,08,10,69,263,40,13,42,243,36,14,32,055,39,27,44,307,11,3*7A
$GBGSV,1,1,02,05,08,255,,15,24,182,,0*73
$GNRMC,040849.00,A,3726.8734023,N,12639.2136055,E,0.001,,210622,,,R,V*02
$GNVTG,,T,,M,0.001,N,0.002,K,D*3B
$GNGNS,040849.00,3726.8734023,N,12639.2136055,E,RRRR,28,0.69,13.714,17.837,2.0,4095,V*08
$GNGGA,040849.00,3726.8734023,N,12639.2136055,E,4,12,0.69,13.714,M,17.837,M,2.0,4095*54
$GNGSA,A,3,03,17,19,01,06,14,,,,,,,1.75,0.69,1.61,1*04
$GNGSA,A,3,85,71,76,,,,,,,,,,1.75,0.69,1.61,2*02
$GNGSA,A,3,13,01,21,08,03,27,15,,,,,,1.75,0.69,1.61,3*03
$GNGSA,A,3,03,33,37,10,08,04,13,07,01,14,27,28,1.75,0.69,1.61,4*0A
$GPGSV,3,1,09,01,17,062,41,03,45,052,45,04,17,106,36,06,44,277,41,1*6C
$GPGSV,3,2,09,14,40,191,44,17,76,022,43,19,58,325,42,28,,,44,1*59
$GPGSV,3,3,09,50,47,179,37,1*50
$GPGSV,2,1,07,01,17,062,32,03,45,052,36,04,17,106,34,06,44,277,41,6*66
$GPGSV,2,2,07,09,13,138,17,14,40,191,35,17,76,022,35,6*5C
$GPGSV,1,1,03,02,06,263,,11,09,257,,12,02,327,,0*5B
$GLGSV,2,1,07,70,38,057,26,71,41,127,47,72,11,169,39,76,33,250,38,1*7E
$GLGSV,2,2,07,77,26,308,20,85,33,063,46,87,16,293,41,1*4D
$GLGSV,1,1,04,71,41,127,35,76,33,250,38,77,26,308,26,85,33,063,33,3*71
$GLGSV,1,1,02,75,06,200,,86,53,358,,0*7B
$GAGSV,2,1,08,01,17,319,35,03,24,078,37,08,21,133,33,13,63,317,42,2*77
$GAGSV,2,2,08,15,42,053,39,18,46,108,43,21,47,273,43,27,36,199,41,2*70
$GAGSV,2,1,08,01,17,319,41,03,24,078,40,08,21,133,34,13,63,317,44,7*70
$GAGSV,2,2,08,15,42,053,44,18,46,108,45,21,47,273,41,27,36,199,43,7*79
$GAGSV,1,1,02,05,03,032,,26,18,269,,0*71
$GBGSV,3,1,12,01,43,152,43,02,27,236,36,03,44,206,40,04,35,132,40,1*70
$GBGSV,3,2,12,07,72,222,44,10,69,263,43,13,42,243,44,14,32,055,38,1*74
$GBGSV,3,3,12,27,44,307,44,28,65,048,46,33,49,086,44,37,17,224,43,1*71
$GBGSV,2,1,08,03,44,206,37,04,35,132,40,07,72,222,43,08,52,247,41,3*76
$GBGSV,2,2,08,10,69,263,40,13,42,243,36,14,32,055,39,27,44,307,11,3*7A
$GBGSV,1,1,02,05,08,255,,15,24,182,,0*73
$GNRMC,040850.00,A,3726.8734003,N,12639.2136058,E,0.008,,210622,,,R,V*0C
$GNVTG,,T,,M,0.008,N,0.015,K,D*34
$GNGNS,040850.00,3726.8734003,N,12639.2136058,E,RRRR,28,0.69,13.723,17.837,2.0,4095,V*0B
$GNGGA,040850.00,3726.8734003,N,12639.2136058,E,4,12,0.69,13.723,M,17.837,M,2.0,4095*57
$GNGSA,A,3,03,17,19,01,06,14,,,,,,,1.75,0.69,1.61,1*04
$GNGSA,A,3,85,71,76,,,,,,,,,,1.75,0.69,1.61,2*02
$GNGSA,A,3,13,01,21,08,03,27,15,,,,,,1.75,0.69,1.61,3*03
$GNGSA,A,3,03,33,37,10,08,04,13,07,01,14,27,28,1.75,0.69,1.61,4*0A
$GPGSV,3,1,09,01,17,062,41,03,45,052,45,04,17,106,37,06,44,277,41,1*6D
$GPGSV,3,2,09,14,40,191,44,17,76,022,43,19,58,325,42,28,,,44,1*59
$GPGSV,3,3,09,50,47,179,37,1*50
$GPGSV,2,1,07,01,17,062,32,03,45,052,37,04,17,106,34,06,44,277,41,6*67
$GPGSV,2,2,07,09,13,138,17,14,40,191,35,17,76,022,36,6*5F
$GPGSV,1,1,03,02,06,263,,11,09,257,,12,02,327,,0*5B
$GLGSV,2,1,07,70,38,057,27,71,41,127,48,72,11,169,42,76,33,250,38,1*7C
$GLGSV,2,2,07,77,26,308,19,85,33,063,46,87,16,293,41,1*47
$GLGSV,1,1,04,71,41,127,36,76,33,250,39,77,26,308,26,85,33,063,33,3*73
$GLGSV,1,1,02,75,06,200,,86,53,358,,0*7B
$GAGSV,2,1,08,01,17,319,35,03,24,078,37,08,21,133,33,13,63,317,42,2*77
$GAGSV,2,2,08,15,42,053,38,18,46,108,43,21,47,273,43,27,36,199,40,2*70
$GAGSV,2,1,08,01,17,319,42,03,24,078,41,08,21,133,34,13,63,317,44,7*72
$GAGSV,2,2,08,15,42,053,44,18,46,108,45,21,47,273,41,27,36,199,42,7*78
$GAGSV,1,1,02,05,03,032,,26,18,269,,0*71
$GBGSV,3,1,12,01,43,152,43,02,27,236,37,03,44,206,40,04,35,132,40,1*71
$GBGSV,3,2,12,07,72,222,44,10,69,263,43,13,42,243,44,14,32,055,39,1*75
$GBGSV,3,3,12,27,44,307,44,28,65,048,46,33,49,086,44,37,17,224,43,1*71
$GBGSV,2,1,08,03,44,206,37,04,35,132,40,07,72,222,43,08,52,247,41,3*76
$GNRMC,040851.00,A,3726.8734008,N,12639.2136062,E,0.001,,210622,,,R,V*06
$GNVTG,,T,,M,0.001,N,0.002,K,D*3B
$GNGNS,040851.00,3726.8734008,N,12639.2136062,E,RRRR,28,0.69,13.714,17.837,2.0,4095,V*0C
$GNGSA,A,3,03,17,19,01,06,14,,,,,,,1.75,0.69,1.61,1*04
$GNGSA,A,3,85,71,76,,,,,,,,,,1.75,0.69,1.61,2*02
$GNGSA,A,3,13,01,21,08,03,27,15,,,,,,1.75,0.69,1.61,3*03
$GNGSA,A,3,03,33,37,10,08,04,13,07,01,14,27,28,1.75,0.69,1.61,4*0A
$GPGSV,3,1,09,01,17,062,42,03,45,052,45,04,17,106,37,06,44,277,41,1*6E
$GPGSV,3,2,09,14,40,191,43,17,76,022,43,19,58,325,42,28,,,44,1*5E
$GPGSV,3,3,09,50,47,179,37,1*50
$GPGSV,2,1,07,01,17,062,34,03,45,052,38,04,17,106,37,06,44,277,42,6*6E
$GPGSV,2,2,07,09,13,138,18,14,40,191,37,17,76,022,37,6*53
$GPGSV,1,1,03,02,06,263,,11,09,257,,12,02,327,,0*5B
$GLGSV,2,1,07,70,38,057,27,71,41,127,46,72,11,169,34,76,33,250,38,1*73
$GLGSV,2,2,07,77,26,308,19,85,33,063,46,87,16,293,40,1*46
$GLGSV,1,1,04,71,41,127,36,76,33,250,39,77,26,308,26,85,33,063,34,3*74
$GLGSV,1,1,02,75,06,200,,86,53,358,,0*7B
$GAGSV,2,1,08,01,17,319,35,03,24,078,37,08,21,133,34,13,63,317,42,2*70
$GAGSV,2,2,08,15,42,053,39,18,$GAGSV,2,1,08,01,17,319,41,03,24,078,41,08,21,133,34,13,63,317,44,7*71
$GAGSV,2,2,08,15,42,053,44,18,46,108,45,21,47,273,41,27,36,199,43,7*79
$GAGSV,1,1,02,05,03,032,,26,18,269,,0*71
$GBGSV,3,1,12,01,43,152,43,02,27,236,37,03,44,206,40,04,35,132,40,1*71
$GBGSV,3,2,12,07,72,222,44,10,69,263,43,13,42,243,44,14,32,055,38,1*74
$GBGSV,3,3,12,27,44,307,44,28,65,048,46,33,49,086,44,37,17,224,43,1*71
$GBGSV,2,1,08,03,44,206,36,04,35,132,40,07,72,222,43,08,52,247,40,3*76
$GBGSV,2,2,08,10,69,263,41,13,42,243,36,14,32,055,39,27,44,307,11,3*7B
$GBGSV,1,1,02,05,08,255,,15,24,182,,0*73
$GNRMC,040852.00,A,3726.8734022,N,12639.2136049,E,0.012,,210622,,,R,V*06
$GNVTG,,T,,M,0.012,N,0.023,K,D*3A
$GNGNS,040852.00,3726.8734022,N,12639.2136049,E,RRRR,28,0.69,13.711,17.837,2.0,4095,V*0B
$GNGGA,040852.00,3726.8734022,N,12639.2136049,E,4,12,0.69,13.711,M,17.837,M,2.0,4095*57
$GNGSA,A,3,03,17,19,01,06,14,,,,,,,1.75,0.69,1.61,1*04
$GNGSA,A,3,85,71,76,,,,,,,,,,1.75,0.69,1.61,2*02
$GNGSA,A,3,13,01,21,08,03,27,15,,,,,,1.75,0.69,1.61,3*03
$GNGSA,A,3,03,33,37,10,08,04,13,07,01,14,27,28,1.75,0.69,1.61,4*0A
$GPGSV,3,1,09,01,17,062,41,03,45,052,45,04,17,106,37,06,44,277,41,1*6D
$GPGSV,3,2,09,14,40,191,42,17,76,022,43,19,58,325,42,28,,,44,1*5F
$GPGSV,3,3,09,50,47,179,36,1*51
$GPGSV,2,1,07,01,17,062,33,03,45,052,38,04,17,106,35,06,44,277,42,6*6B
$GPGSV,2,2,07,09,13,138,17,14,40,191,36,17,76,022,37,6*5D
$GPGSV,1,1,03,02,06,263,,11,09,257,,12,02,327,,0*5B
$GLGSV,2,1,07,70,38,057,26,71,41,127,47,72,11,169,35,76,33,250,37,1*7D
$GLGSV,2,2,07,77,26,308,19,85,33,063,46,87,16,293,41,1*47
$GLGSV,1,1,04,71,41,127,37,76,33,250,39,77,26,308,26,85,33,063,34,3*75
$GLGSV,1,1,02,75,06,200,,86,53,358,,0*7B
$GAGSV,2,1,08,01,17,319,36,03,24,078,37,08,21,133,34,13,63,317,42,2*73
$GAGSV,2,2,08,15,42,053,39,18,46,108,42,21,47,273,43,27,36,199,41,2*71
$GAGSV,2,1,08,01,17,319,41,03,24,078,41,08,21,133,34,13,63,317,44,7*71
$GAGSV,2,2,08,15,42,053,44,18,46,108,44,21,47,273,41,27,36,199,41,7*7A
$GAGSV,1,1,02,05,03,032,,26,18,269,,0*71
$GBGSV,3,1,12,01,43,152,43,02,27,236,36,03,44,206,40,04,35,132,40,1*70
$GBGSV,3,2,12,07,72,222,44,10,69,263,43,13,42,243,44,14,32,055,38,1*74
$GBGSV,3,3,12,27,44,307,43,28,65,048,46,33,49,086,44,37,17,224,43,1*76
$GBGSV,2,1,08,03,44,206,38,04,35,132,40,07,72,222,43,08,52,247,40,3*78
$GBGSV,2,2,08,10,69,263,40,13,42,243,36,14,32,055,39,27,44,307,11,3*7A
$GBGSV,1,1,02,05,08,255,,15,24,182,,0*73
$GNRMC,040853.00,A,3726.8734012,N,12639.2136065,E,0.013,,210622,,,R,V*0B
$GNVTG,,T,,M,0.013,N,0.024,K,D*3C
$GNGNS,040853.00,3726.8734012,N,12639.2136065,E,RRRR,28,0.69,13.713,17.837,1.0,4095,V*06
$GNGGA,040853.00,3726.8734012,N,12639.2136065,E,4,12,0.69,13.713,M,17.837,M,1.0,4095*5A
$GNGSA,A,3,03,17,19,01,06,14,,,,,,,1.75,0.69,1.61,1*04
$GNGSA,A,3,85,71,76,,,,,,,,,,1.75,0.69,1.61,2*02
$GNGSA,A,3,13,01,21,08,03,27,15,,,,,,1.75,0.69,1.61,3*03
$GNGSA,A,3,03,33,37,10,08,04,13,07,01,14,27,28,1.75,0.69,1.61,4*0A
$GPGSV,3,1,09,01,17,062,41,03,45,052,45,04,17,106,37,06,44,277,40,1*6C
$GPGSV,3,2,09,14,40,191,44,17,76,022,43,19,58,325,42,28,,,44,1*59
$GPGSV,3,3,09,50,47,179,36,1*51
$GPGSV,2,1,07,01,17,062,33,03,45,052,37,04,17,106,35,06,44,277,41,6*67
$GPGSV,2,2,07,09,13,138,17,14,40,191,34,17,76,022,36,6*5E
$GPGSV,1,1,03,02,06,263,,11,09,257,,12,02,327,,0*5B
$GLGSV,2,1,07,70,38,057,26,71,41,127,47,72,11,169,35,76,33,250,37,1*7D
$GLGSV,2,2,07,77,26,308,19,85,33,063,46,87,16,293,41,1*47
$GLGSV,1,1,04,71,41,127,37,76,33,250,40,77,26,308,26,85,33,063,34,3*7B
$GLGSV,1,1,02,75,06,200,,86,53,358,,0*7B
$GAGSV,2,1,08,01,17,319,33,03,24,078,37,08,21,133,33,13,63,317,41,2*72
$GAGSV,2,2,08,15,42,053,38,18,46,108,42,21,47,273,43,27,36,199,41,2*70
$GAGSV,2,1,08,01,17,319,41,03,24,078,41,08,21,133,34,13,63,317,44,7*71
$GAGSV,2,2,08,15,42,053,44,18,46,108,45,21,47,273,42,27,36,199,42,7*7B
$GAGSV,1,1,02,05,03,032,,26,18,269,,0*71
$GBGSV,3,1,12,01,43,152,43,02,27,236,36,03,44,206,40,04,35,132,40,1*70
$GBGSV,3,2,12,07,72,222,44,10,69,263,43,13,42,243,44,14,32,055,38,1*74
$GBGSV,3,3,12,27,44,307,44,28,65,048,46,33,49,086,44,37,17,224,43,1*71
$GBGSV,2,1,08,03,44,206,37,04,35,132,40,07,72,222,43,08,52,247,40,3*77
$GBGSV,2,2,08,10,69,263,40,13,42,243,36,14,32,055,39,27,44,307,11,3*7A
$GBGSV,1,1,02,05,08,255,,15,24,182,,0*73
$GNRMC,040854.00,A,3726.8734003,N,12639.2136066,E,0.022,,210622,,,R,V*0D
$GNVTG,,T,,M,0.022,N,0.040,K,D*3C
$GNGNS,040854.00,3726.8734003,N,12639.2136066,E,RRRR,28,0.69,13.716,17.837,2.0,4095,V*04
$GNGSA,A,3,13,01,21,08,03,27,15,,,,,,1.75,0.69,1.61,3*03
$GNGSA,A,3,03,33,37,10,08,04,13,07,01,14,27,28,1.75,0.69,1.61,4*0A
$GPGSV,3,1,09,01,17,062,41,03,45,052,45,04,17,106,37,06,44,277,40,1*6C
$GPGSV,3,2,09,14,40,191,43,17,76,022,43,19,58,325,42,28,,,44,1*5E
$GPGSV,3,3,09,50,47,179,35,1*52
$GPGSV,2,1,07,01,17,062,33,03,45,052,37,04,17,106,35,06,44,277,42,6*64
$GPGSV,2,2,07,09,13,138,15,14,40,191,35,17,76,022,37,6*5C
$GPGSV,1,1,03,02,06,263,,11,09,257,,12,02,327,,0*5B
$GLGSV,2,1,07,70,37,056,26,71,41,127,46,72,11,169,38,76,33,250,37,1*7F
$GLGSV,2,2,07,77,26,308,19,85,33,063,46,87,16,293,40,1*46
$GLGSV,1,1,04,71,41,127,42,76,33,250,44,77,26,308,30,85,33,063,38,3*76
$GLGSV,1,1,02,75,06,200,,86,53,358,,0*7B
$GAGSV,2,1,08,01,17,319,36,03,24,078,37,08,21,133,33,13,63,317,42,2*74
$GAGSV,2,2,08,15,42,053,39,18,46,108,43,21,47,273,43,27,36,199,42,2*73
$GAGSV,2,1,08,01,17,319,41,03,24,078,41,08,21,133,34,13,63,317,44,7*71
$GAGSV,2,2,08,15,42,053,44,18,46,108,45,21,47,273,41,27,36,199,42,7*78
$GAGSV,1,1,02,05,03,032,,26,18,269,,0*71
$GBGSV,3,1,12,01,43,152,42,02,27,236,36,03,44,206,40,04,35,132,40,1*71
$GBGSV,3,2,12,07,72,222,44,10,69,263,43,13,42,243,44,14,32,055,38,1*74
$GBGSV,3,3,12,27,44,307,44,28,65,048,46,33,49,086,44,37,17,224,43,1*71
$GBGSV,2,1,08,03,44,206,37,04,35,132,40,07,72,222,43,08,52,247,41,3*76
$GBGSV,2,2,08,10,69,263,41,13,42,243,36,14,32,055,39,27,44,307,11,3*7B
$GBGSV,1,1,02,05,08,255,,15,24,182,,0*73
$GNRMC,040855.00,A,3726.8734024,N,12639.2136045,E,0.018,,210622,,,R,V*01
$GNVTG,,T,,M,0.018,N,0.033,K,D*31
$GNGNS,040855.00,3726.8734024,N,12639.2136045,E,RRRR,28,0.69,13.717,17.837,2.0,4095,V*00
$GNGGA,040855.00,3726.8734024,N,12639.2136045,E,4,12,0.69,13.717,M,17.837,M,2.0,4095*5C
$GNGSA,A,3,03,17,19,01,06,14,,,,,,,1.75,0.69,1.61,1*04
$GNGSA,A,3,85,71,76,,,,,,,,,,1.75,0.69,1.61,2*02
$GNGSA,A,3,13,01,21,08,03,27,15,,,,,,1.75,0.69,1.61,3*03
$GNGSA,A,3,03,33,37,10,08,04,13,07,01,14,27,28,1.75,0.69,1.61,4*0A
$GPGSV,3,1,09,01,17,062,41,03,45,052,45,04,17,106,37,06,44,277,41,1*6D
$GPGSV,3,2,09,14,40,191,43,17,76,022,43,19,58,325,42,28,,,44,1*5E
$GPGSV,3,3,09,50,47,179,35,1*52
$GPGSV,2,1,07,01,17,062,33,03,45,052,37,04,17,106,35,06,44,277,41,6*67
$GPGSV,2,2,07,09,13,138,11,14,40,191,35,17,76,022,37,6*58
$GPGSV,1,1,03,02,06,263,,11,09,257,,12,02,327,,0*5B
$GLGSV,2,1,07,70,37,056,26,71,42,126,46,72,11,169,40,76,33,250,38,1*7D
$GLGSV,2,2,07,77,26,308,19,85,33,063,46,87,16,293,40,1*46
$GLGSV,2,1,05,71,42,126,40,76,33,250,43,77,26,308,29,85,33,063,37,3*74
$GLGSV,2,2,05,87,16,293,17,3*49
$GLGSV,1,1,02,75,06,200,,86,53,358,,0*7B
$GAGSV,2,1,08,01,17,319,36,03,24,078,37,08,21,133,33,13,63,317,42,2*74
$GAGSV,2,2,08,15,42,053,39,18,46,108,43,21,47,273,43,27,36,199,42,2*73
$GAGSV,2,1,08,01,17,319,41,03,24,078,41,08,21,133,33,13,63,317,44,7*76
$GAGSV,2,2,08,15,42,053,44,18,46,108,44,21,47,273,41,27,36,199,42,7*79
$GAGSV,1,1,02,05,03,032,,26,18,269,,0*71
$GBGSV,3,1,12,01,43,152,43,02,27,236,36,03,44,206,40,04,35,132,40,1*70
$GBGSV,3,2,12,07,72,222,44,10,69,263,43,13,42,243,44,14,32,055,39,1*75
$GBGSV,3,3,12,27,44,307,44,28,65,048,46,33,49,086,44,37,17,224,43,1*71
$GBGSV,2,1,07,03,44,206,37,04,35,132,40,07,72,222,43,08,52,247,41,3*79
$GBGSV,2,2,07,10,69,263,41,13,42,243,36,14,32,055,39,3*45
$GBGSV,1,1,02,05,08,255,,15,24,182,,0*73
$GNRMC,040856.00,A,3726.8734052,N,12639.2136040,E,0.016,,210622,,,R,V*08
$GNVTG,,T,,M,0.016,N,0.030,K,D*3C
$GNGNS,040856.00,3726.8734052,N,12639.2136040,E,RRRR,28,0.69,13.708,17.837,2.0,4095,V*09
$GNGGA,040856.00,3726.8734052,N,12639.2136040,E,4,12,0.69,13.708,M,17.837,M,2.0,4095*55
$GNGSA,A,3,03,17,19,01,06,14,,,,,,,1.75,0.69,1.61,1*04
$GNGSA,A,3,85,71,76,,,,,,,,,,1.75,0.69,1.61,2*02
$GNGSA,A,3,13,01,21,08,03,27,15,,,,,,1.75,0.69,1.61,3*03
$GNGSA,A,3,03,33,37,10,08,04,13,07,01,14,27,28,1.75,0.69,1.61,4*0A
$GPGSV,3,1,09,01,17,062,41,03,45,052,45,04,17,106,37,06,44,277,41,1*6D
$GPGSV,3,2,09,14,40,191,43,17,76,022,43,19,58,325,42,28,,,44,1*5E
$GPGSV,3,3,09,50,47,179,36,1*51
$GPGSV,2,1,07,01,17,062,33,03,45,052,38,04,17,106,35,06,44,277,42,6*6B
$GPGSV,2,2,07,09,13,138,09,14,40,191,35,17,76,022,36,6*50
$GPGSV,1,1,03,02,06,263,,11,09,257,,12,02,327,,0*5B
$GLGSV,2,1,07,70,37,056,26,71,42,126,47,72,12,169,38,76,33,250,38,1*70
$GLGSV,2,2,07,77,26,308,18,85,33,063,46,87,16,293,41,1*46
$GLGSV,2,1,05,71,42,126,38,76,33,250,43,77,26,308,28,85,33,063,36,3*7B
$GLGSV,2,2,05,86,53,358,16,3*4E
$GLGSV,1,1,01,75,06,200,,0*4E
$GAGSV,2,1,08,01,17,319,35,03,24,078,37,08,21,133,33,13,63,317,42,2*77
$GAGSV,2,2,08,15,42,053,39,18,46,108,42,21,47,273,42,27,36,199,41,2*70
$GAGSV,2,1,08,01,17,319,41,03,24,078,41,08,21,133,33,13,63,317,44,7*76
$GAGSV,2,2,08,15,42,053,43,18,46,108,45,21,47,273,41,27,36,199,42,7*7F
$GAGSV,1,1,02,05,03,032,,26,18,269,,0*71
$GBGSV,3,1,12,01,43,152,43,02,27,236,36,03,44,206,40,04,35,132,40,1*70
$GBGSV,3,2,12,07,72,222,44,10,69,263,43,13,42,243,44,14,32,055,39,1*75
$GBGSV,3,3,12,27,44,307,44,28,65,048,45,33,49,086,44,37,17,224,43,1*72
$GBGSV,2,1,07,03,44,206,37,04,35,132,40,07,72,222,43,08,52,247,41,3*79
$GBGSV,2,2,07,10,69,263,41,13,42,243,36,14,32,055,39,3*45
$GBGSV,1,1,02,05,08,255,,15,24,182,,0*73
$GNRMC,040857.00,A,3726.8734041,N,12639.2136037,E,0.005,,210622,,,R,V*09
$GNVTG,,T,,M,0.005,N,0.010,K,D*3C
$GNGNS,040857.00,3726.8734041,N,12639.2136037,E,RRRR,28,0.69,13.709,17.837,2.0,4095,V*0B
$GNGGA,040857.00,3726.8734041,N,12639.2136037,E,4,12,0.69,13.709,M,17.837,M,2.0,4095*57
$GNGSA,A,3,03,17,19,01,06,14,,,,,,,1.75,0.69,1.61,1*04
$GNGSA,A,3,85,71,76,,,,,,,,,,1.75,0.69,1.61,2*02
$GNGSA,A,3,13,01,21,08,03,27,15,,,,,,1.75,0.69,1.61,3*03
$GNGSA,A,3,03,33,37,10,08,04,13,07,01,14,27,28,1.75,0.69,1.61,4*0A
$GPGSV,3,1,09,01,17,062,41,03,45,052,45,04,17,106,37,06,44,277,41,1*6D
$GPGSV,3,2,09,14,40,191,43,17,76,022,43,19,58,325,42,28,,,44,1*5E
$GPGSV,3,3,09,50,47,179,36,1*51
$GPGSV,2,1,07,01,17,062,32,03,45,052,38,04,17,106,35,06,44,277,42,6*6A
$GPGSV,2,2,07,09,13,138,11,14,40,191,35,17,76,022,36,6*59
$GPGSV,1,1,03,02,06,263,,11,09,257,,12,02,327,,0*5B
$GLGSV,2,1,07,70,37,056,26,71,42,126,46,72,12,169,32,76,33,250,38,1*7B
$GLGSV,2,2,07,77,26,308,17,85,33,063,46,87,16,293,40,1*48
$GLGSV,2,1,05,71,42,126,39,76,33,250,42,77,26,308,28,85,33,063,35,3*78
$GLGSV,2,2,05,86,53,358,13,3*4B
$GLGSV,1,1,01,75,06,200,,0*4E
$GAGSV,2,1,08,01,17,319,36,03,24,078,37,08,21,133,36,13,63,317,42,2*71
$GAGSV,2,2,08,15,42,053,39,18,46,108,42,21,47,273,42,27,36,199,42,2*73
$GAGSV,2,1,08,01,17,319,41,03,24,078,41,08,21,133,34,13,63,317,44,7*71
$GAGSV,2,2,08,15,42,053,43,18,46,108,45,21,47,273,41,27,36,199,42,7*7F
$GAGSV,1,1,02,05,03,032,,26,18,269,,0*71
$GBGSV,3,1,12,01,43,152,43,02,27,236,36,03,44,206,40,04,35,132,38,1*7F
$GBGSV,3,2,12,07,72,222,44,10,69,263,43,13,42,243,44,14,32,055,39,1*75
$GBGSV,3,3,12,27,44,307,44,28,65,048,46,33,49,086,44,37,17,224,43,1*71
$GBGSV,2,1,07,03,44,206,38,04,35,132,40,07,72,222,43,08,52,247,41,3*76
$GBGSV,2,2,07,10,69,263,41,13,42,243,36,14,32,055,39,3*45
$GBGSV,1,1,02,05,08,255,,15,24,182,,0*73
$GNRMC,040858.00,A,3726.8734023,N,12639.2136068,E,0.005,,210622,,,R,V*08
$GNVTG,,T,,M,0.005,N,0.009,K,D*34
$GNGNS,040858.00,3726.8734023,N,12639.2136068,E,RRRR,28,0.69,13.714,17.837,2.0,4095,V*06
$GNGGA,040858.00,3726.8734023,N,12639.2136068,E,4,12,0.69,13.714,M,17.837,M,2.0,4095*5A
$GNGSA,A,3,03,17,19,01,06,14,,,,,,,1.75,0.69,1.61,1*04
$GNGSA,A,3,85,71,76,,,,,,,,,,1.75,0.69,1.61,2*02
$GNGSA,A,3,13,01,21,08,03,27,15,,,,,,1.75,0.69,1.61,3*03
$GNGSA,A,3,03,33,37,10,08,04,13,07,01,14,27,28,1.75,0.69,1.61,4*0A
$GPGSV,3,1,09,01,17,062,41,03,45,052,45,04,17,106,39,06,44,277,41,1*63
$GPGSV,3,2,09,14,40,191,44,17,76,022,42,19,58,325,42,28,,,44,1*58
$GPGSV,3,3,09,50,47,179,37,1*50
$GPGSV,2,1,07,01,17,062,32,03,45,052,38,04,17,106,35,06,44,277,42,6*6A
$GPGSV,2,2,07,09,13,138,18,14,40,191,35,17,76,022,37,6*51
$GPGSV,1,1,03,02,06,263,,11,09,257,,12,02,327,,0*5B
$GLGSV,2,1,07,70,37,056,27,71,42,126,46,72,12,169,33,76,33,250,37,1*74
$GLGSV,2,2,07,77,26,308,18,85,33,063,46,87,16,293,40,1*47
$GLGSV,2,1,05,71,42,126,36,76,33,250,42,77,26,308,28,85,33,063,36,3*74
$GLGSV,2,2,05,86,53,358,12,3*4A
$GLGSV,1,1,01,75,06,200,,0*4E
$GAGSV,2,1,08,01,17,319,36,03,24,078,36,08,21,133,33,13,63,317,42,2*75
$GAGSV,2,2,08,15,42,053,39,18,46,108,42,21,47,273,42,27,36,199,42,2*73
$GNRMC,040859.00,A,3726.8733990,N,12639.2136103,E,0.008,,210622,,,R,V*0E
$GNVTG,,T,,M,0.008,N,0.015,K,D*34
$GNGNS,040859.00,3726.8733990,N,12639.2136103,E,RRRR,28,0.69,13.736,17.837,2.0,4095,V*0D
$GNGGA,040859.00,3726.8733990,N,12639.2136103,E,4,12,0.69,13.736,M,17.837,M,2.0,4095*51
$GNGSA,A,3,03,17,19,01,06,14,,,,,,,1.75,0.69,1.61,1*04
$GNGSA,A,3,85,71,76,,,,,,,,,,1.75,0.69,1.61,2*02
$GNGSA,A,3,13,01,21,08,03,27,15,,,,,,1.75,0.69,1.61,3*03
$GNGSA,A,3,03,33,37,10,08,04,13,07,01,14,27,28,1.75,0.69,1.61,4*0A
$GPGSV,3,1,09,01,17,062,41,03,45,052,45,04,17,106,38,06,44,277,40,1*63
$GPGSV,3,2,09,14,40,191,44,17,76,022,42,19,58,325,42,28,,,44,1*58
$GPGSV,3,3,09,50,47,179,37,1*50
$GPGSV,2,1,07,01,17,062,31,03,45,052,36,04,17,106,32,06,44,277,40,6*62
$GPGSV,2,2,07,09,13,138,20,14,40,191,33,17,76,022,36,6*5D
$GPGSV,1,1,03,02,06,263,,11,09,257,,12,02,327,,0*5B
$GLGSV,2,1,07,70,37,056,27,71,42,126,46,72,12,169,35,76,33,250,37,1*72
$GLGSV,2,2,07,77,26,308,19,85,33,063,46,87,16,293,39,1*48
$GLGSV,2,1,05,71,42,126,34,76,33,250,38,77,26,308,27,85,33,063,33,3*71
$GLGSV,2,2,05,86,53,358,09,3*40
$GLGSV,1,1,01,75,05,199,,0*4E
$GAGSV,2,1,08,01,17,319,36,03,24,078,36,08,21,133,34,13,63,317,42,2*72
$GAGSV,2,2,08,15,42,053,39,18,46,108,43,21,47,273,42,27,36,199,40,2*70
$GAGSV,2,1,08,01,17,319,42,03,24,078,40,08,21,133,35,13,63,317,44,7*72
$GAGSV,2,2,08,15,42,053,43,18,46,108,44,21,47,273,41,27,36,199,42,7*7E
$GAGSV,1,1,02,05,03,032,,26,18,269,,0*71
$GBGSV,3,1,12,01,43,152,43,02,27,236,37,03,44,206,40,04,35,132,38,1*7E
$GBGSV,3,2,12,07,72,222,44,10,69,263,43,13,42,243,44,14,32,055,39,1*75
$GBGSV,3,3,12,27,44,307,43,28,65,048,45,33,49,086,44,37,17,224,43,1*75
$GBGSV,2,1,07,03,44,206,38,04,35,132,40,07,72,222,43,08,52,247,41,3*76
$GBGSV,2,2,07,10,69,263,41,13,42,243,36,14,32,055,40,3*4B
$GBGSV,1,1,02,05,08,255,,15,24,182,,0*73
$GNRMC,040900.00,A,3726.8734003,N,12639.2136098,E,0.009,,210622,,,R,V*05
$GNVTG,,T,,M,0.009,N,0.016,K,D*36
$GNGNS,040900.00,3726.8734003,N,12639.2136098,E,RRRR,28,0.69,13.736,17.837,2.0,4095,V*07
$GNGGA,040900.00,3726.8734003,N,12639.2136098,E,4,12,0.69,13.736,M,17.837,M,2.0,4095*5B
$GNGSA,A,3,03,17,19,01,06,14,,,,,,,1.75,0.69,1.61,1*04
$GNGSA,A,3,85,71,76,,,,,,,,,,1.75,0.69,1.61,2*02
$GNGSA,A,3,13,01,21,08,03,27,15,,,,,,1.75,0.69,1.61,3*03
$GNGSA,A,3,03,33,37,10,08,04,13,07,01,14,27,28,1.75,0.69,1.61,4*0A
$GPGSV,3,1,09,01,17,062,41,03,45,052,45,04,17,106,37,06,44,277,41,1*6D
$GPGSV,3,2,09,14,40,191,43,17,76,022,42,19,58,325,42,28,,,44,1*5F
$GPGSV,3,3,09,50,47,179,36,1*51
$GPGSV,2,1,07,01,17,062,31,03,45,052,37,04,17,106,34,06,44,277,40,6*65
$GPGSV,2,2,07,09,13,138,18,14,40,191,33,17,76,022,35,6*55
$GPGSV,1,1,03,02,06,263,,11,09,257,,12,02,327,,0*5B
$GLGSV,2,1,07,70,37,056,27,71,42,126,46,72,12,169,35,76,33,249,37,1*7A
$GLGSV,2,2,07,77,26,308,19,85,33,063,46,87,16,293,40,1*46
$GLGSV,2,1,05,71,42,126,34,76,33,249,38,77,26,308,25,85,33,063,32,3*7A
$GLGSV,2,2,05,86,53,358,06,3*4F
$GLGSV,1,1,01,75,05,199,,0*4E
$GAGSV,2,1,08,01,17,319,36,03,24,078,36,08,21,133,34,13,63,317,42,2*72
$GAGSV,2,2,08,15,42,053,39,18,46,108,42,21,47,273,42,27,36,199,40,2*71
$GAGSV,2,1,08,01,17,319,42,03,24,078,40,08,21,133,35,13,63,317,44,7*72
$GAGSV,2,2,08,15,42,053,43,18,46,108,44,21,47,273,41,27,36,199,42,7*7E
$GAGSV,1,1,02,05,03,032,,26,18,269,,0*71
$GBGSV,3,1,12,01,43,152,44,02,27,236,36,03,44,206,40,04,35,132,38,1*78
$GBGSV,3,2,12,07,72,222,44,10,69,263,43,13,42,243,44,14,32,055,39,1*75
$GBGSV,3,3,12,27,44,307,43,28,65,048,45,33,49,086,44,37,17,224,43,1*75
$GBGSV,2,1,07,03,44,206,38,04,35,132,40,07,72,222,43,08,52,247,41,3*76
$GBGSV,2,2,07,10,69,263,41,13,42,243,36,14,32,055,40,3*4B
$GBGSV,1,1,02,05,08,255,,15,24,182,,0*73
$GNRMC,040901.00,A,3726.8734014,N,12639.2136081,E,0.015,,210622,,,R,V*07
$GNVTG,,T,,M,0.015,N,0.028,K,D*36
$GNGNS,040901.00,3726.8734014,N,12639.2136081,E,RRRR,28,0.69,13.729,17.837,2.0,4095,V*06
$GNGGA,040901.00,3726.8734014,N,12639.2136081,E,4,12,0.69,13.729,M,17.837,M,2.0,4095*5A
$GNGSA,A,3,03,17,19,01,06,14,,,,,,,1.75,0.69,1.61,1*04
$GNGSA,A,3,85,71,76,,,,,,,,,,1.75,0.69,1.61,2*02
$GNGSA,A,3,13,01,21,08,03,27,15,,,,,,1.75,0.69,1.61,3*03
$GNGSA,A,3,03,33,37,10,08,04,13,07,01,14,27,28,1.75,0.69,1.61,4*0A
$GPGSV,3,1,09,01,17,062,41,03,45,052,45,04,17,106,37,06,44,277,41,1*6D
$GPGSV,3,2,09,14,40,191,43,17,76,022,42,19,58,325,42,28,,,44,1*5F
$GPGSV,3,3,09,50,47,179,36,1*51
$GPGSV,2,1,06,01,17,062,32,03,45,052,37,04,17,106,34,06,44,277,41,6*66
$GPGSV,2,2,06,14,40,191,34,17,76,022,36,6*68
$GPGSV,1,1,04,02,06,263,,09,13,138,,11,09,257,,12,02,327,,0*6D
$GLGSV,2,1,07,70,37,056,27,71,42,126,46,72,12,169,35,76,33,249,36,1*7B
$GLGSV,2,2,07,77,27,306,19,85,33,063,46,87,16,293,40,1*49
$GLGSV,2,1,05,71,42,126,35,76,33,249,39,77,27,306,25,85,33,063,33,3*74
$GLGSV,2,2,05,86,53,358,06,3*4F
$GLGSV,1,1,01,75,05,199,,0*4E
$GAGSV,2,1,08,01,17,319,37,03,24,078,37,08,21,133,35,13,63,317,42,2*73
$GAGSV,2,2,08,15,42,053,40,18,46,108,43,21,47,273,43,27,36,199,41,2*7E
$GAGSV,2,1,08,01,17,319,42,03,24,078,41,08,21,133,35,13,63,317,44,7*73
$GAGSV,2,2,08,15,42,053,43,18,46,108,44,21,47,273,41,27,36,199,42,7*7E
$GAGSV,1,1,02,05,03,032,,26,18,269,,0*71
$GBGSV,3,1,12,01,43,152,44,02,27,236,36,03,44,206,40,04,35,132,38,1*78
$GBGSV,3,2,12,07,72,222,44,10,69,263,43,13,42,243,44,14,32,055,39,1*75
$GBGSV,3,3,12,27,44,307,44,28,65,048,45,33,49,086,44,37,17,224,44,1*75
$GBGSV,2,1,08,03,44,206,38,04,35,132,41,07,72,222,43,08,52,247,41,3*78
$GBGSV,2,2,08,10,69,263,41,13,42,243,36,14,32,055,40,27,44,307,15,3*71
$GBGSV,1,1,02,05,08,255,,15,24,182,,0*73
$GNRMC,040902.00,A,3726.8734003,N,12639.2136058,E,0.014,,210622,,,R,V*07
$GNVTG,,T,,M,0.014,N,0.026,K,D*39
$GNGNS,040902.00,3726.8734003,N,12639.2136058,E,RRRR,28,0.69,13.730,17.837,2.0,4095,V*0F
$GNGGA,040902.00,3726.8734003,N,12639.2136058,E,4,12,0.69,13.730,M,17.837,M,2.0,4095*53
$GNGSA,A,3,03,17,19,01,06,14,,,,,,,1.75,0.69,1.61,1*04
$GNGSA,A,3,85,71,76,,,,,,,,,,1.75,0.69,1.61,2*02
$GNGSA,A,3,13,01,21,08,03,27,15,,,,,,1.75,0.69,1.61,3*03
$GNGSA,A,3,03,33,37,10,08,04,13,07,01,14,27,28,1.75,0.69,1.61,4*0A
$GPGSV,3,1,09,01,17,062,42,03,45,052,45,04,17,106,37,06,44,277,41,1*6E
$GPGSV,3,2,09,14,40,191,43,17,76,022,42,19,58,325,42,28,,,44,1*5F
$GPGSV,3,3,09,50,47,179,36,1*51
$GPGSV,2,1,06,01,17,062,35,03,45,052,38,04,17,106,37,06,44,277,43,6*6F
$GPGSV,2,2,06,14,40,191,37,17,76,022,38,6*65
$GPGSV,1,1,04,02,06,263,,09,13,138,,11,09,257,,12,02,327,,0*6D
$GLGSV,2,1,07,70,37,056,27,71,42,126,46,72,12,169,36,76,33,249,36,1*78
$GLGSV,2,2,07,77,27,306,20,85,33,063,46,87,16,293,40,1*43
$GLGSV,2,1,05,71,42,126,35,76,33,249,40,77,27,306,25,85,33,063,34,3*7D
$GLGSV,2,2,05,86,53,358,07,3*4E
$GLGSV,1,1,01,75,05,199,,0*4E
$GAGSV,2,1,08,01,17,319,37,03,24,078,37,08,21,133,35,13,63,317,42,2*73
$GAGSV,2,2,08,15,42,053,40,18,46,108,43,21,47,273,43,27,36,199,41,2*7E
$GAGSV,2,1,08,01,17,319,42,03,24,078,40,08,21,133,35,13,63,317,43,7*75
$GAGSV,2,2,08,15,42,053,43,18,46,108,44,21,47,273,41,27,36,199,43,7*7F
$GAGSV,1,1,02,05,03,032,,26,18,269,,0*71
$GBGSV,3,1,12,01,43,152,44,02,27,236,36,03,44,206,40,04,35,132,38,1*78
$GBGSV,3,2,12,07,72,222,44,10,69,263,43,13,42,243,44,14,32,055,39,1*75
$GBGSV,3,3,12,27,44,307,43,28,65,048,45,33,49,086,44,37,17,224,44,1*72
$GBGSV,2,1,08,03,44,206,38,04,35,132,40,07,72,222,43,08,52,247,41,3*79
$GBGSV,2,2,08,10,69,263,41,13,42,243,36,14,32,055,40,27,44,307,14,3*70
$GBGSV,1,1,02,05,08,255,,15,24,182,,0*73
$GNRMC,040903.00,A,3726.8733995,N,12639.2136081,E,0.009,,210622,,,R,V*0F
$GNVTG,,T,,M,0.009,N,0.017,K,D*37
$GNGNS,040903.00,3726.8733995,N,12639.2136081,E,RRRR,28,0.69,13.737,17.837,1.0,4095,V*0F
$GNGGA,040903.00,3726.8733995,N,12639.2136081,E,4,12,0.69,13.737,M,17.837,M,1.0,4095*53
$GNGSA,A,3,03,17,19,01,06,14,,,,,,,1.75,0.69,1.61,1*04
$GNGSA,A,3,85,71,76,,,,,,,,,,1.75,0.69,1.61,2*02
$GNGSA,A,3,13,01,21,08,03,27,15,,,,,,1.75,0.69,1.61,3*03
$GNGSA,A,3,03,33,37,10,08,04,13,07,01,14,27,28,1.75,0.69,1.61,4*0A
$GPGSV,3,1,09,01,17,062,42,03,45,052,45,04,17,106,37,06,44,277,41,1*6E
$GPGSV,3,2,09,14,40,191,43,17,76,022,42,19,58,325,41,28,,,44,1*5C
$GPGSV,3,3,09,50,47,179,36,1*51
$GPGSV,2,1,06,01,17,062,34,03,45,052,37,04,17,106,36,06,44,277,42,6*61
$GPGSV,2,2,06,14,40,191,36,17,76,022,37,6*6B
$GPGSV,1,1,04,02,06,263,,09,13,138,,11,09,257,,12,02,327,,0*6D
$GLGSV,2,1,07,70,37,056,27,71,42,126,46,72,12,169,36,76,33,249,36,1*78
$GLGSV,2,2,07,77,27,306,20,85,33,063,46,87,16,293,40,1*43
$GLGSV,2,1,05,71,42,126,35,76,33,249,41,77,27,306,26,85,33,063,34,3*7F
$GLGSV,2,2,05,86,53,358,07,3*4E
$GLGSV,1,1,01,75,05,199,,0*4E
$GAGSV,2,1,08,01,17,319,36,03,24,078,37,08,21,133,35,13,63,317,42,2*72
$GAGSV,2,2,08,15,42,053,39,18,46,108,42,21,47,273,42,27,36,199,41,2*70
$GAGSV,2,1,08,01,17,319,42,03,24,078,40,08,21,133,35,13,63,317,43,7*75
$GAGSV,2,2,08,15,42,053,43,18,46,108,45,21,47,273,41,27,36,199,42,7*7F
$GAGSV,1,1,02,05,03,032,,26,18,269,,0*71
$GBGSV,3,1,12,01,43,152,44,02,27,236,36,03,44,206,40,04,35,132,39,1*79
$GBGSV,3,2,12,07,72,222,44,10,69,263,43,13,42,243,44,14,32,055,39,1*75
$GBGSV,3,3,12,27,44,307,44,28,65,048,45,33,49,086,44,37,17,224,44,1*75
$GBGSV,2,1,08,03,44,206,38,04,35,132,40,07,72,222,43,08,52,247,41,3*79
$GBGSV,2,2,08,10,69,263,41,13,42,243,36,14,32,055,40,27,44,307,10,3*74
$GBGSV,1,1,02,05,08,255,,15,24,182,,0*73
$GNRMC,040904.00,A,3726.8734011,N,12639.2136066,E,0.004,,210622,,,R,V*0E
$GNVTG,,T,,M,0.004,N,0.007,K,D*3B
$GNGNS,040904.00,3726.8734011,N,12639.2136066,E,RRRR,28,0.69,13.731,17.837,2.0,4095,V*06
$GNGGA,040904.00,3726.8734011,N,12639.2136066,E,4,12,0.69,13.731,M,17.837,M,2.0,4095*5A
$GNGSA,A,3,03,17,19,01,06,14,,,,,,,1.75,0.69,1.61,1*04
$GNGSA,A,3,85,71,76,,,,,,,,,,1.75,0.69,1.61,2*02
$GNGSA,A,3,13,01,21,08,03,27,15,,,,,,1.75,0.69,1.61,3*03
$GNGSA,A,3,03,33,37,10,08,04,13,07,01,14,27,28,1.75,0.69,1.61,4*0A
$GPGSV,3,1,09,01,17,062,42,03,45,052,45,04,17,106,37,06,44,277,41,1*6E
$GPGSV,3,2,09,14,40,191,44,17,76,022,42,19,58,325,41,28,,,44,1*5B
$GPGSV,3,3,09,50,47,179,36,1*51
$GPGSV,2,1,06,01,17,062,34,03,45,052,37,04,17,106,36,06,44,277,42,6*61
$GPGSV,2,2,06,14,40,191,36,17,76,022,37,6*6B
$GPGSV,1,1,04,02,06,263,,09,13,138,,11,09,257,,12,02,327,,0*6D
$GLGSV,2,1,07,70,37,056,26,71,42,126,47,72,12,169,36,76,33,249,36,1*78
$GLGSV,2,2,07,77,27,306,20,85,33,063,46,87,16,293,40,1*43
$GLGSV,2,1,05,71,42,126,36,76,33,249,40,77,27,306,26,85,33,063,34,3*7D
$GLGSV,2,2,05,86,53,358,07,3*4E
$GLGSV,1,1,01,75,05,199,,0*4E
$GAGSV,2,1,08,01,17,319,37,03,24,078,37,08,21,133,36,13,63,317,42,2*70
$GAGSV,2,2,08,15,42,053,40,18,46,108,43,21,47,273,43,27,36,199,41,2*7E
$GAGSV,2,1,08,01,17,319,42,03,24,078,40,08,21,133,35,13,63,317,44,7*72
$GAGSV,2,2,08,15,42,053,43,18,46,108,46,21,47,273,41,27,36,199,42,7*7C
$GAGSV,1,1,02,05,03,032,,26,18,269,,0*71
$GBGSV,3,1,12,01,43,152,44,02,27,236,37,03,44,206,40,04,35,132,39,1*78
$GBGSV,3,2,12,07,72,222,44,10,69,263,43,13,42,243,44,14,32,055,39,1*75
$GBGSV,3,3,12,27,44,307,44,28,65,048,45,33,49,086,44,37,17,224,44,1*75
$GBGSV,2,1,08,03,44,206,38,04,35,132,41,07,72,222,43,08,52,247,41,3*78
$GNRMC,040905.00,A,3726.8734008,N,12639.2136070,E,0.014,,210622,,,R,V*01
$GNVTG,,T,,M,0.014,N,0.026,K,D*39
$GNGNS,040905.00,3726.8734008,N,12639.2136070,E,RRRR,28,0.69,13.733,17.837,2.0,4095,V*0A
$GNGGA,040905.00,3726.8734008,N,12639.2136070,E,4,12,0.69,13.733,M,17.837,M,2.0,4095*56
$GNGSA,A,3,03,17,19,01,06,14,,,,,,,1.75,0.69,1.61,1*04
$GNGSA,A,3,85,71,76,,,,,,,,,,1.75,0.69,1.61,2*02
$GNGSA,A,3,13,01,21,08,03,27,15,,,,,,1.75,0.69,1.61,3*03
$GNGSA,A,3,03,33,37,10,08,04,13,07,01,14,27,28,1.75,0.69,1.61,4*0A
$GPGSV,3,1,09,01,17,062,41,03,45,052,45,04,17,106,38,06,44,277,42,1*61
$GPGSV,3,2,09,14,40,191,44,17,76,022,42,19,58,325,41,28,,,45,1*5A
$GPGSV,3,3,09,50,47,179,36,1*51
$GPGSV,1,1,01,09,13,138,18,5*59
$GPGSV,2,1,06,01,17,062,33,03,45,052,37,04,17,106,36,06,44,277,42,6*66
$GPGSV,2,2,06,14,40,191,35,17,76,022,36,6*69
$GPGSV,1,1,03,02,06,263,,11,09,257,,12,02,327,,0*5B
$GLGSV,2,1,07,70,37,056,26,71,42,126,46,72,12,169,36,76,33,249,36,1*79
$GLGSV,2,2,07,77,27,306,19,85,33,063,45,87,16,293,40,1*4A
$GLGSV,2,1,05,71,42,126,39,76,33,249,42,77,27,306,26,85,33,063,34,3*70
$GLGSV,2,2,05,86,53,358,07,3*4E
$GLGSV,1,1,01,75,05,199,,0*4E
$GAGSV,2,1,08,01,17,319,36,03,24,078,36,08,21,133,34,13,63,317,42,2*72
$GAGSV,2,2,08,15,42,053,39,18,46,108,42,21,47,273,42,27,36,199,41,2*70
$GAGSV,2,1,08,01,17,319,42,03,24,078,41,08,21,133,35,13,63,317,44,7*73
