$GNRMC,043130.00,A,3726.9369742,N,12639.2341847,E,0.012,,210622,,,R,V*00
$GNVTG,,T,,M,0.012,N,0.023,K,D*3A
$GNGNS,043130.00,3726.9369742,N,12639.2341847,E,RRRR,27,0.62,15.669,17.837,2.0,4095,V*01
$GNGGA,043130.00,3726.9369742,N,12639.2341847,E,4,12,0.62,15.669,M,17.837,M,2.0,4095*52
$GNGSA,A,3,09,03,04,14,06,11,17,19,,,,,1.20,0.62,1.03,1*07
$GNGSA,A,3,85,76,,,,,,,,,,,1.20,0.62,1.03,2*0B
$GNGSA,A,3,03,01,26,27,21,15,13,,,,,,1.20,0.62,1.03,3*00
$GNGSA,A,3,01,27,33,03,08,04,07,13,28,10,,,1.20,0.62,1.03,4*04
$GPGSV,3,1,10,03,36,046,43,04,22,096,35,06,51,290,43,09,21,131,33,1*6E
$GPGSV,3,2,10,11,16,265,33,14,30,188,42,17,77,068,46,19,68,336,44,1*69
$GAGSV,1,1,01,07,05,173,,0*42
$GBGSV,3,1,12,01,43,152,45,02,28,236,36,03,44,206,41,04,35,132,41,1*79
$GBGSV,3,2,12,07,67,218,42,08,53,256,41,10,66,253,41,13,43,251,42,1*70
$GBGSV,3,3,12,27,51,315,45,28,61,066,45,33,48,072,44,37,11,218,34,1*7F
$GBGSV,2,1,07,02,28,236,38,03,44,206,36,07,67,218,45,08,53,256,41,3*70
$GBGSV,2,2,07,10,66,253,45,13,43,251,41,14,27,048,33,3*4D
$GBGSV,1,1,03,05,08,256,,15,28,186,,30,04,294,,0*41
$GNRMC,043131.00,A,3726.9369753,N,12639.2341835,E,0.016,,210622,,,R,V*00
$GNVTG,,T,,M,0.016,N,0.029,K,D*34
$GNGNS,043131.00,3726.9369753,N,12639.2341835,E,RRRR,27,0.62,15.664,17.837,2.0,4095,V*08
$GNGGA,043131.00,3726.9369753,N,12639.2341835,E,4,12,0.62,15.664,M,17.837,M,2.0,4095*5B
$GNGSA,A,3,09,03,04,14,06,11,17,19,,,,,1.20,0.62,1.03,1*07
$GNGSA,A,3,85,76,,,,,,,,,,,1.20,0.62,1.03,2*0B
$GNGSA,A,3,03,01,26,27,21,15,13,,,,,,1.20,0.62,1.03,3*00
$GNGSA,A,3,01,27,33,03,08,04,07,13,28,10,,,1.20,0.62,1.03,4*04
$GPGSV,3,1,10,03,36,046,43,04,22,096,35,06,51,290,44,09,21,131,33,1*69
$GPGSV,3,2,10,11,16,265,33,14,30,188,42,17,77,068,46,19,68,336,44,1*69
$GPGSV,3,3,10,28,,,45,50,47,179,36,1*52
$GPGSV,2,1,07,03,36,046,39,04,22,096,34,06,51,290,41,09,21,131,36,6*65
$GPGSV,2,2,07,11,16,265,36,14,30,188,35,17,77,068,39,6*54
$GPGSV,1,1,04,01,10,069,,02,12,270,,12,10,323,,20,04,221,,0*6D
$GLGSV,2,1,07,70,32,044,23,71,51,113,44,72,23,167,40,76,24,239,36,1*70
$GLGSV,2,2,07,77,27,294,25,85,26,076,41,87,23,304,37,1*42
$GLGSV,2,1,05,71,51,113,40,72,23,167,32,76,24,239,36,77,27,294,31,3*7E
$GLGSV,2,2,05,85,26,076,41,3*42
$GLGSV,1,1,02,78,02,343,,86,53,019,,0*72
$GAGSV,2,1,08,01,22,313,36,03,25,069,43,08,29,127,42,13,64,335,42,2*76
$GAGSV,2,2,08,15,37,061,44,21,45,260,43,26,23,277,38,27,27,196,41,2*7F
$GAGSV,3,1,09,01,22,313,32,03,25,069,38,08,29,127,42,13,64,335,45,7*7C
$GAGSV,3,2,09,15,37,061,41,18,34,117,40,21,45,260,42,26,23,277,34,7*74
$GAGSV,3,3,09,27,27,196,43,7*43
$GAGSV,1,1,01,07,05,173,,0*42
$GBGSV,3,1,12,01,43,152,45,02,28,236,37,03,44,206,42,04,35,132,41,1*7B
$GBGSV,3,2,12,07,67,218,43,08,53,256,42,10,66,253,41,13,43,251,43,1*73
$GBGSV,3,3,12,27,51,315,46,28,61,066,46,33,48,072,45,37,11,218,34,1*7E
$GBGSV,2,1,07,02,28,236,37,03,44,206,36,07,67,218,45,08,53,256,41,3*7F
$GBGSV,2,2,07,10,66,253,45,13,43,251,41,14,27,048,33,3*4D
$GBGSV,1,1,03,05,08,256,,15,28,186,,30,04,294,,0*41
$GNRMC,043132.00,A,3726.9369742,N,12639.2341845,E,0.009,,210622,,,R,V*0A
$GNVTG,,T,,M,0.009,N,0.017,K,D*37
$GNGNS,043132.00,3726.9369742,N,12639.2341845,E,RRRR,27,0.62,15.667,17.837,2.0,4095,V*0F
$GNGGA,043132.00,3726.9369742,N,12639.2341845,E,4,12,0.62,15.667,M,17.837,M,2.0,4095*5C
$GNGSA,A,3,09,03,04,14,06,11,17,19,,,,,1.20,0.62,1.03,1*07
$GNGSA,A,3,85,76,,,,,,,,,,,1.20,0.62,1.03,2*0B
$GNGSA,A,3,03,01,26,27,21,15,13,,,,,,1.20,0.62,1.03,3*00
$GNGSA,A,3,01,27,33,03,08,04,07,13,28,10,,,1.20,0.62,1.03,4*04
$GPGSV,3,1,10,03,36,046,43,04,22,096,36,06,51,290,43,09,21,131,33,1*6D
$GPGSV,3,2,10,11,16,265,33,14,30,188,42,17,77,068,46,19,68,336,44,1*69
$GPGSV,3,3,10,28,,,45,50,47,179,36,1*52
$GPGSV,2,1,07,03,36,046,40,04,22,096,34,06,51,290,41,09,21,131,36,6*6B
$GPGSV,2,2,07,11,16,265,36,14,30,188,35,17,77,068,39,6*54
$GPGSV,1,1,04,01,10,069,,02,12,270,,12,10,323,,20,04,221,,0*6D
$GLGSV,2,1,07,70,32,044,24,71,51,113,44,72,23,167,40,76,24,239,37,1*76
$GLGSV,2,2,07,77,27,294,26,85,26,076,41,87,23,304,37,1*41
$GLGSV,2,1,05,71,51,113,40,72,23,167,31,76,24,239,35,77,27,294,30,3*7F
$GLGSV,2,2,05,85,26,076,41,3*42
$GLGSV,1,1,02,78,02,343,,86,53,019,,0*72
$GAGSV,2,1,08,01,22,313,36,03,25,069,42,08,29,127,41,13,64,335,41,2*77
$GAGSV,2,2,08,15,37,061,43,21,45,260,42,26,23,277,37,27,27,196,40,2*77
$GAGSV,3,1,09,01,22,313,32,03,25,069,38,08,29,127,42,13,64,335,44,7*7D
$GNRMC,043133.00,A,3726.9369734,N,12639.2341844,E,0.011,,210622,,,R,V*02
$GNVTG,,T,,M,0.011,N,0.020,K,D*3A
$GNGNS,043133.00,3726.9369734,N,12639.2341844,E,RRRR,27,0.62,15.661,17.837,1.0,4095,V*0B
$GNGSA,A,3,09,03,04,14,06,11,17,19,,,,,1.20,0.62,1.03,1*07
$GNGSA,A,3,85,76,,,,,,,,,,,1.20,0.62,1.03,2*0B
$GNGSA,A,3,03,01,26,27,21,15,13,,,,,,1.20,0.62,1.03,3*00
$GNGSA,A,3,01,27,33,03,08,04,07,13,28,10,,,1.20,0.62,1.03,4*04
$GPGSV,3,1,10,03,36,046,43,04,22,096,36,06,51,290,43,09,21,131,33,1*6D
$GPGSV,3,2,10,11,16,265,34,14,30,188,43,17,77,068,46,19,68,336,44,1*6F
$GPGSV,3,3,10,28,,,45,50,47,179,36,1*52
$GPGSV,2,1,07,03,36,046,40,04,22,096,34,06,51,290,41,09,21,131,37,6*6A
$GPGSV,2,2,07,11,16,265,36,14,30,188,35,17,77,068,39,6*54
$GPGSV,1,1,04,01,10,069,,02,12,270,,12,10,323,,20,04,221,,0*6D
$GLGSV,2,1,07,70,32,044,24,71,51,113,44,72,23,167,40,76,24,239,37,1*76
$GLGSV,2,2,07,77,27,294,26,85,26,076,42,87,23,304,37,1*42
$GLGSV,2,1,05,71,51,113,40,72,23,167,32,76,24,239,36,77,27,294,30,3*7F
$GLGSV,2,2,05,85,26,076,41,3*42
$GLGSV,1,1,02,78,02,343,,86,53,019,,0*72
$GAGSV,2,1,08,01,22,313,36,03,25,069,43,08,29,1$GAGSV,2,2,08,15,37,061,44,21,45,260,42,26,23,277,38,27,27,196,41,2*7E
$GAGSV,3,1,09,01,22,313,32,03,25,069,38,08,29,127,43,13,64,335,45,7*7D
$GAGSV,3,2,09,15,37,061,41,18,34,117,40,21,45,260,42,26,23,277,34,7*74
$GAGSV,3,3,09,27,27,196,43,7*43
$GAGSV,1,1,01,07,05,173,,0*42
$GBGSV,3,1,12,01,43,152,46,02,28,236,37,03,44,206,42,04,35,132,41,1*78
$GBGSV,3,2,12,07,67,218,43,08,53,256,42,10,66,253,42,13,43,251,43,1*70
$GBGSV,3,3,12,27,51,315,46,28,61,066,46,33,48,072,45,37,11,218,34,1*7E
$GBGSV,2,1,07,02,28,236,37,03,44,206,35,07,67,218,44,08,53,256,41,3*7D
$GBGSV,2,2,07,10,66,253,44,13,43,251,40,14,27,048,32,3*4C
$GBGSV,1,1,03,05,08,256,,15,28,186,,30,04,294,,0*41
$GNRMC,043134.00,A,3726.9369733,N,12639.2341855,E,0.010,,210622,,,R,V*03
$GNVTG,,T,,M,0.010,N,0.018,K,D*30
$GNGNS,043134.00,3726.9369733,N,12639.2341855,E,RRRR,27,0.62,15.663,17.837,2.0,4095,V*0A
$GNGGA,043134.00,3726.9369733,N,12639.2341855,E,4,12,0.62,15.663,M,17.837,M,2.0,4095*59
$GNGSA,A,3,09,03,04,14,06,11,17,19,,,,,1.20,0.62,1.03,1*07
$GNGSA,A,3,85,76,,,,,,,,,,,1.20,0.62,1.03,2*0B
$GNGSA,A,3,03,01,26,27,21,15,13,,,,,,1.20,0.62,1.03,3*00
$GNGSA,A,3,01,27,33,03,08,04,07,13,28,10,,,1.20,0.62,1.03,4*04
$GPGSV,3,1,10,03,36,046,43,04,22,096,35,06,51,290,43,09,21,131,33,1*6E
$GPGSV,3,2,10,11,16,265,34,14,30,188,43,17,77,068,46,19,68,336,44,1*6F
$GPGSV,3,3,10,28,,,44,50,47,179,37,1*52
$GPGSV,2,1,07,03,36,046,40,04,22,096,34,06,51,290,41,09,21,131,37,6*6A
$GPGSV,2,2,07,11,16,265,36,14,30,188,35,17,77,068,39,6*54
$GPGSV,1,1,04,01,10,069,,02,12,270,,12,10,323,,20,04,221,,0*6D
$GLGSV,2,1,07,70,32,044,24,71,51,113,44,72,23,167,41,76,24,239,37,1*77
$GLGSV,2,2,07,77,27,294,26,85,26,076,42,87,23,304,36,1*43
$GLGSV,2,1,05,71,51,113,40,72,23,167,32,76,24,239,36,77,27,294,30,3*7F
$GLGSV,2,2,05,85,26,076,41,3*42
$GLGSV,1,1,02,78,02,343,,86,53,019,,0*72
$GAGSV,2,1,08,01,22,313,36,03,25,069,42,08,29,127,41,13,64,335,41,2*77
$GAGSV,2,2,08,15,37,061,43,21,45,260,42,26,23,277,38,27,27,196,41,2*79
$GNRMC,043135.00,A,3726.9369726,N,12639.2341866,E,0.014,,210622,,,R,V*02
$GNVTG,,T,,M,0.014,N,0.026,K,D*39
$GNGNS,043135.00,3726.9369726,N,12639.2341866,E,RRRR,27,0.62,15.662,17.837,2.0,4095,V*0E
$GNGGA,043135.00,3726.9369726,N,12639.2341866,E,4,12,0.62,15.662,M,17.837,M,2.0,4095*5D
$GNGSA,A,3,09,03,04,14,06,11,17,19,,,,,1.20,0.62,1.03,1*07
$GNGSA,A,3,85,76,,,,,,,,,,,1.20,0.62,1.03,2*0B
$GNGSA,A,3,03,01,26,27,21,15,13,,,,,,1.20,0.62,1.03,3*00
$GNGSA,A,3,01,27,33,03,08,04,07,13,28,10,,,1.20,0.62,1.03,4*04
$GPGSV,3,1,10,03,36,046,44,04,22,096,35,06,51,290,43,09,21,131,34,1*6E
$GPGSV,3,2,10,11,16,265,34,14,30,188,42,17,77,068,46,19,68,336,45,1*6F
$GPGSV,3,3,10,28,,,44,50,47,179,37,1*52
$GPGSV,2,1,07,03,36,046,40,04,22,096,34,06,51,290,41,09,21,131,37,6*6A
$GPGSV,2,2,07,11,16,265,36,14,30,188,35,17,77,068,39,6*54
$GLGSV,2,1,07,70,32,044,24,71,51,113,44,72,23,167,41,76,24,239,37,1*77
$GLGSV,2,2,07,77,27,294,26,85,26,076,42,87,23,304,36,1*43
$GLGSV,2,1,05,71,51,113,40,72,23,167,32,76,24,239,37,77,27,294,30,3*7E
$GLGSV,2,2,05,85,26,076,41,3*42
$GLGSV,1,1,02,78,02,343,,86,53,019,,0*72
$GAGSV,2,1,08,01,22,313,36,03,25,069,42,08,29,127,41,13,64,335,41,2*77
$GAGSV,2,2,08,15,37,061,43,21,45,260,42,26,23,277,38,27,27,196,41,2*79
$GAGSV,3,1,09,01,22,313,32,03,25,069,38,08,29,127,43,13,64,335,45,7*7D
$GAGSV,3,2,09,15,37,061,42,18,34,117,40,21,45,260,42,26,23,277,35,7*76
$GAGSV,3,3,09,27,27,196,43,7*43
$GAGSV,1,1,01,07,05,173,,0*42
$GBGSV,3,1,12,01,43,152,45,02,28,236,36,03,44,206,42,04,35,132,41,1*7A
$GBGSV,3,2,12,07,67,218,43,08,53,256,42,10,66,253,42,13,43,251,43,1*70
$GBGSV,3,3,12,27,51,316,46,28,61,068,46,33,48,072,45,37,11,218,35,1*72
$GBGSV,2,1,07,02,28,236,36,03,44,206,35,07,67,218,44,08,53,256,41,3*7C
$GBGSV,2,2,07,10,66,253,44,13,43,251,40,14$GBGSV,1,1,03,05,08,256,,15,28,186,,30,04,294,,0*41
$GNRMC,043136.00,A,3726.9369737,N,12639.2341866,E,0.007,,210622,,,R,V*03
$GNVTG,,T,,M,0.007,N,0.013,K,D*3D
$GNGNS,043136.00,3726.9369737,N,12639.2341866,E,RRRR,27,0.62,15.648,17.837,2.0,4095,V*05
$GNGGA,043136.00,3726.9369737,N,12639.2341866,E,4,12,0.62,15.648,M,17.837,M,2.0,4095*56
$GNGSA,A,3,09,03,04,14,06,11,17,19,,,,,1.20,0.62,1.03,1*07
$GNGSA,A,3,85,76,,,,,,,,,,,1.20,0.62,1.03,2*0B
$GNGSA,A,3,03,01,26,27,21,15,13,,,,,,1.20,0.62,1.03,3*00
$GNGSA,A,3,01,27,33,03,08,04,07,13,28,10,,,1.20,0.62,1.03,4*04
$GPGSV,3,1,10,03,36,046,44,04,22,096,35,06,51,290,43,09,21,131,34,1*6E
$GPGSV,3,2,10,11,16,265,35,14,30,188,42,17,77,068,46,19,68,336,45,1*6E
$GPGSV,3,3,10,28,,,44,50,47,179,36,1*53
$GPGSV,2,1,07,03,36,046,40,04,22,096,34,06,51,290,41,09,21,131,38,6*65
$GPGSV,2,2,07,11,16,265,36,14,30,188,35,17,77,068,39,6*54
$GPGSV,1,1,04,01,10,069,,02,12,270,,12,10,323,,20,04,221,,0*6D
$GLGSV,2,1,07,70,32,044,24,71,51,113,45,72,23,167,41,76,24,239,37,1*76
$GLGSV,2,2,07,77,27,294,26,85,26,076,41,87,23,304,36,1*40
$GLGSV,2,1,05,71,51,113,40,72,23,167,32,76,24,239,37,77,27,294,31,3*7F
$GLGSV,2,2,05,85,26,076,41,3*42
$GLGSV,1,1,02,78,02,343,,86,53,019,,0*72
$GAGSV,2,1,08,01,22,313,36,03,25,069,42,08,29,127,41,13,64,335,41,2*77
$GAGSV,2,2,08,15,37,061,43,21,45,260,42,26,23,277,38,27,27,196,41,2*79
$GBGSV,2,1,07,02,28,236,37,03,44,206,36,07,67,218,45,08,53,256,41,3*7F
$GBGSV,2,2,07,10,66,253,45,13,43,251,40,14,27,048,33,3*4C
$GBGSV,1,1,03,05,08,256,,15,28,186,,30,04,294,,0*41
$GNRMC,043137.00,A,3726.9369757,N,12639.2341837,E,0.007,,210622,,,R,V*00
$GNVTG,,T,,M,0.007,N,0.012,K,D*3C
$GNGNS,043137.00,3726.9369757,N,12639.2341837,E,RRRR,27,0.62,15.651,17.837,2.0,4095,V*0E
$GNGGA,043137.00,3726.9369757,N,12639.2341837,E,4,12,0.62,15.651,M,17.837,M,2.0,4095*5D
$GNGSA,A,3,09,03,04,14,06,11,17,19,,,,,1.20,0.62,1.03,1*07
$GNGSA,A,3,85,76,,,,,,,,,,,1.20,0.62,1.03,2*0B
$GNGSA,A,3,03,01,26,27,21,15,13,,,,,,1.20,0.62,1.03,3*00
$GNGSA,A,3,01,27,33,03,08,04,07,13,28,10,,,1.20,0.62,1.03,4*04
$GPGSV,3,1,10,03,36,046,43,04,22,096,34,06,51,290,43,09,21,131,34,1*68
$GPGSV,3,2,10,11,16,265,35,14,30,188,42,17,77,068,46,19,68,336,45,1*6E
$GPGSV,3,3,10,28,,,44,50,47,179,36,1*53
$GPGSV,2,1,07,03,36,046,40,04,22,096,35,06,51,290,41,09,21,131,38,6*64
$GPGSV,2,2,07,11,16,265,36,14,30,188,35,17,77,068,39,6*54
$GPGSV,1,1,04,01,10,069,,02,12,270,,12,10,323,,20,04,221,,0*6D
$GLGSV,2,1,07,70,32,044,24,71,51,113,45,72,23,167,41,76,24,239,37,1*76
$GLGSV,2,2,07,77,27,294,25,85,26,076,41,87,23,304,36,1*43
$GLGSV,2,1,05,71,51,113,40,72,23,167,32,76,24,239,37,77,27,294,31,3*7F
$GLGSV,2,2,05,85,26,076,41,3*42
$GLGSV,1,1,02,78,02,343,,86,53,019,,0*72
$GAGSV,2,1,08,01,22,313,36,03,25,069,42,08,29,127,41,13,64,335,41,2*77
$GAGSV,2,2,08,15,37,061,43,21,45,260,42,26,23,277,38,27,27,196,40,2*78
$GAGSV,3,1,09,01,22,313,32,03,25,069,38,08,29,127,43,13,64,335,44,7*7C
$GAGSV,3,2,09,15,37,061,42,18,34,117,40,21,45,260,42,26,23,277,35,7*76
$GAGSV,3,3,09,27,27,196,43,7*43
$GAGSV,1,1,01,07,05,173,,0*42
$GBGSV,3,1,12,01,43,152,45,02,28,236,37,03,44,206,42,04,35,132,41,1*7B
$GBGSV,3,2,12,07,67,218,43,08,53,256,42,10,66,253,42,13,43,251,43,1*70
$GBGSV,3,3,12,27,51,316,46,28,61,068,46,33,48,072,45,37,11,218,34,1*73
$GBGSV,2,1,07,02,28,236,37,03,44,206,36,07,67,218,45,08,53,256,41,3*7F
$GBGSV,2,2,07,10,66,253,45,13,43,251,40,14,27,048,34,3*4B
$GBGSV,1,1,03,05,08,256,,15,28,186,,30,05,295,,0*41
$GNRMC,043138.00,A,3726.9369756,N,12639.2341818,E,0.010,,210622,,,R,V*05
$GNVTG,,T,,M,0.010,N,0.019,K,D*31
$GNGNS,043138.00,3726.9369756,N,12639.2341818,E,RRRR,27,0.62,15.651,17.837,2.0,4095,V*0D
$GNGGA,043138.00,3726.9369756,N,12639.2341818,E,4,12,0.62,15.651,M,17.837,M,2.0,4095*5E
$GNGSA,A,3,09,03,04,14,06,11,17,19,,,,,1.20,0.62,1.03,1*07
$GNGSA,A,3,85,76,,,,,,,,,,,1.20,0.62,1.03,2*0B
$GNGSA,A,3,03,01,26,27,21,15,13,,,,,,1.20,0.62,1.03,3*00
$GNGSA,A,3,01,27,33,03,08,04,07,13,28,10,,,1.20,0.62,1.03,4*04
$GAGSV,3,3,09,27,27,196,43,7*43
$GAGSV,1,1,01,07,05,173,,0*42
$GBGSV,3,1,12,01,43,152,45,02,28,236,36,03,44,206,42,04,35,132,41,1*7A
$GBGSV,3,2,12,07,67,218,43,08,53,256,41,10,66,253,41,13,43,251,43,1*70
$GBGSV,3,3,12,27,51,316,46,28,61,068,46,33,48,071,44,37,11,218,34,1*71
$GBGSV,2,1,07,02,28,236,37,03,44,206,36,07,67,218,45,08,53,256,41,3*7F
$GBGSV,2,2,07,10,66,253,45,13,43,251,40,14,27,048,34,3*4B
$GBGSV,1,1,03,05,08,256,,15,28,186,,30,05,295,,0*41
$GNRMC,043139.00,A,3726.9369730,N,12639.2341836,E,0.011,,210622,,,R,V*09
$GNVTG,,T,,M,0.011,N,0.020,K,D*3A
$GNGNS,043139.00,3726.9369730,N,12639.2341836,E,RRRR,27,0.62,15.668,17.837,2.0,4095,V*0A
$GNGSA,A,3,09,03,04,14,06,11,17,19,,,,,1.20,0.62,1.03,1*07
$GNGSA,A,3,85,76,,,,,,,,,,,1.20,0.62,1.03,2*0B
$GNGSA,A,3,03,01,26,27,21,15,13,,,,,,1.20,0.62,1.03,3*00
$GNGSA,A,3,01,27,33,03,08,04,07,13,28,10,,,1.20,0.62,1.03,4*04
$GPGSV,3,1,10,03,36,046,43,04,22,096,34,06,51,290,43,09,21,131,35,1*69
$GPGSV,3,2,10,11,16,265,35,14,30,188,43,17,77,068,46,19,68,336,44,1*6E
$GPGSV,3,3,10,28,,,44,50,47,179,37,1*52
$GPGSV,2,1,07,03,36,046,40,04,22,096,35,06,51,290,41,09,21,131,37,6*6B
$GPGSV,2,2,07,11,16,265,36,14,30,188,35,17,77,068,39,6*54
$GPGSV,1,1,04,01,10,069,,02,12,270,,12,10,323,,20,04,221,,0*6D
$GLGSV,2,1,07,70,32,044,24,71,51,113,45,72,23,167,41,76,24,239,37,1*76
$GLGSV,2,2,07,77,27,294,25,85,26,076,41,87,23,304,36,1*43
$GLGSV,2,1,05,71,51,113,41,72,23,167,33,76,24,239,37,77,27,294,31,3*7F
$GLGSV,2,2,05,85,26,076,41,3*42
$GLGSV,1,1,02,78,02,343,,86,53,019,,0*72
$GAGSV,2,1,08,01,22,313,36,03,25,069,42,08,29,1$GAGSV,2,2,08,15,37,061,43,21,45,260,42,26,23,277,38,27,27,196,41,2*79
$GAGSV,3,1,09,01,22,313,32,03,25,069,38,08,29,127,43,13,64,335,44,7*7C
$GAGSV,3,2,09,15,37,061,42,18,34,117,40,21,45,260,41,26,23,277,36,7*76
$GAGSV,3,3,09,27,27,196,43,7*43
$GAGSV,1,1,01,07,05,173,,0*42
$GBGSV,3,1,12,01,43,152,45,02,28,236,36,03,44,206,42,04,35,132,41,1*7A
$GBGSV,3,2,12,07,67,218,43,08,53,256,42,10,66,253,41,13,43,251,43,1*73
$GBGSV,3,3,12,27,51,316,46,28,61,068,46,33,48,071,44,37,10,218,34,1*70
$GBGSV,2,1,07,02,28,236,37,03,44,206,36,07,67,218,45,08,53,256,41,3*7F
$GBGSV,2,2,07,10,66,253,45,13,43,251,40,14,27,048,33,3*4C
$GBGSV,1,1,03,05,08,256,,15,28,186,,30,05,295,,0*41
$GNRMC,043140.00,A,3726.9369732,N,12639.2341847,E,0.007,,210622,,,R,V*04
$GNVTG,,T,,M,0.007,N,0.013,K,D*3D
$GNGNS,043140.00,3726.9369732,N,12639.2341847,E,RRRR,27,0.62,15.658,17.837,2.0,4095,V*03
$GNGGA,043140.00,3726.9369732,N,12639.2341847,E,4,12,0.62,15.658,M,17.837,M,2.0,4095*50
$GNGSA,A,3,09,03,04,14,06,11,17,19,,,,,1.20,0.62,1.03,1*07
$GNGSA,A,3,85,76,,,,,,,,,,,1.20,0.62,1.03,2*0B
$GNGSA,A,3,03,01,26,27,21,15,13,,,,,,1.20,0.62,1.03,3*00
$GNGSA,A,3,01,27,33,03,08,04,07,13,28,10,,,1.20,0.62,1.03,4*04
$GPGSV,3,1,10,03,36,046,43,04,22,096,34,06,51,290,43,09,21,131,35,1*69
$GPGSV,3,2,10,11,16,265,35,14,30,188,43,17,77,068,46,19,68,336,45,1*6F
$GPGSV,3,3,10,28,,,44,50,47,179,36,1*53
$GPGSV,2,1,07,03,36,046,40,04,22,096,35,06,51,290,41,09,21,131,37,6*6B
$GPGSV,2,2,07,11,16,265,36,14,30,188,35,17,77,068,39,6*54
$GPGSV,1,1,04,01,10,069,,02,12,270,,12,10,323,,20,04,221,,0*6D
$GLGSV,2,1,07,70,32,044,25,71,51,113,45,72,23,167,41,76,24,239,37,1*77
$GLGSV,2,2,07,77,27,294,25,85,26,076,41,87,23,304,36,1*43
$GLGSV,2,1,05,71,51,113,41,72,23,167,33,76,24,239,37,77,27,294,32,3*7C
$GLGSV,2,2,05,85,26,076,41,3*42
$GLGSV,1,1,02,78,02,343,,86,53,019,,0*72
$GNRMC,043141.00,A,3726.9369734,N,12639.2341899,E,0.012,,210622,,,R,V*04
$GNVTG,,T,,M,0.012,N,0.022,K,D*3B
$GNGNS,043141.00,3726.9369734,N,12639.2341899,E,RRRR,27,0.62,15.657,17.837,2.0,4095,V*08
$GNGGA,043141.00,3726.9369734,N,12639.2341899,E,4,12,0.62,15.657,M,17.837,M,2.0,4095*5B
$GNGSA,A,3,09,03,04,14,06,11,17,19,,,,,1.20,0.62,1.03,1*07
$GNGSA,A,3,85,76,,,,,,,,,,,1.20,0.62,1.03,2*0B
$GNGSA,A,3,03,01,26,27,21,15,13,,,,,,1.20,0.62,1.03,3*00
$GNGSA,A,3,01,27,33,03,08,04,07,13,28,10,,,1.20,0.62,1.03,4*04
$GPGSV,3,1,10,03,36,046,43,04,22,096,34,06,51,290,43,09,21,131,35,1*69
$GPGSV,3,2,10,11,16,265,34,14,30,188,43,17,77,068,46,19,68,336,45,1*6E
$GPGSV,3,3,10,28,,,44,50,47,179,37,1*52
$GPGSV,2,1,07,03,36,046,40,04,22,096,35,06,51,290,41,09,21,131,37,6*6B
$GPGSV,2,2,07,11,16,265,36,14,30,188,35,17,77,068,39,6*54
$GPGSV,1,1,04,01,10,069,,02,12,270,,12,10,323,,20,04,221,,0*6D
$GLGSV,2,1,07,70,32,044,24,71,51,113,45,72,23,167,41,76,24,239,37,1*76
$GLGSV,2,2,07,77,27,294,25,85,26,076,42,87,23,304,36,1*40
$GLGSV,2,1,05,71,51,113,41,72,23,167,32,76,24,239,37,77,27,294,31,3*7E
$GLGSV,2,2,05,85,26,076,42,3*41
$GLGSV,1,1,02,78,02,343,,86,53,019,,0*72
$GAGSV,2,1,08,01,22,313,36,03,25,069,42,08,29,127,41,13,64,335,41,2*77
$GAGSV,2,2,08,15,37,061,43,21,45,260,42,26,23,277,38,27,27,196,41,2*79
$GAGSV,3,1,09,01,22,313,32,03,25,069,38,08,29,127,43,13,64,335,44,7*7C
$GAGSV,3,2,09,15,37,061,42,18,34,117,41,21,45,260,41,26,23,277,36,7*77
$GAGSV,3,3,09,27,27,196,43,7*43
$GAGSV,1,1,01,07,05,173,,0*42
$GBGSV,3,1,12,01,43,152,45,02,28,236,36,03,44,206,42,04,35,132,41,1*7A
$GBGSV,3,2,12,07,67,218,43,08,53,256,41,10,66,253,41,13,43,251,43,1*70
$GBGSV,3,3,12,27,51,316,46,28,61,068,45,33,48,071,44,37,10,218,34,1*73
$GBGSV,2,1,07,02,28,236,37,03,44,206,36,07,67,218,45,08,53,256,41,3*7F
$GBGSV,2,2,07,10,66,253,45,13,43,251,40,14,27,048,33,3*4C
$GBGSV,1,1,03,05,08,256,,15,28,186,,30,05,295,,0*41
$GNRMC,043142.00,A,3726.9369762,N,12639.2341855,E,0.018,,210622,,,R,V*0E
$GNVTG,,T,,M,0.018,N,0.033,K,D*31
$GNGNS,043142.00,3726.9369762,N,12639.2341855,E,RRRR,27,0.62,15.654,17.837,2.0,4095,V*0B
$GNGGA,043142.00,3726.9369762,N,12639.2341855,E,4,12,0.62,15.654,M,17.837,M,2.0,4095*58
$GNGSA,A,3,09,03,04,14,06,11,17,19,,,,,1.20,0.62,1.03,1*07
$GNGSA,A,3,85,76,,,,,,,,,,,1.20,0.62,1.03,2*0B
$GNGSA,A,3,03,01,26,27,21,15,13,,,,,,1.20,0.62,1.03,3*00
$GNGSA,A,3,01,27,33,03,08,04,07,13,28,10,,,1.20,0.62,1.03,4*04
$GPGSV,3,1,10,03,36,046,43,04,22,096,34,06,51,290,43,09,21,131,36,1*6A
$GPGSV,3,2,10,11,16,265,34,14,30,188,43,17,77,068,46,19,68,336,44,1*6F
$GPGSV,3,3,10,28,,,44,50,47,179,37,1*52
$GPGSV,2,1,07,03,36,046,40,04,22,096,34,06,51,290,41,09,21,131,37,6*6A
$GPGSV,2,2,07,11,16,265,36,14,30,188,35,17,77,068,39,6*54
$GPGSV,1,1,04,01,10,069,,02,12,270,,12,10,323,,20,04,221,,0*6D
$GLGSV,2,1,07,70,32,044,24,71,51,113,45,72,23,167,41,76,24,239,37,1*76
$GLGSV,2,2,07,77,27,294,26,85,26,076,42,87,23,304,36,1*43
$GLGSV,2,1,05,71,51,113,41,72,23,167,32,76,24,239,37,77,27,294,32,3*7D
$GLGSV,2,2,05,85,26,076,42,3*41
$GLGSV,1,1,02,78,02,343,,86,53,019,,0*72
$GAGSV,2,1,08,01,22,313,35,03,25,069,41,08,29,127,41,13,64,335,41,2*77
$GAGSV,2,2,08,15,37,061,43,21,45,260,41,26,23,277,37,27,27,196,40,2*74
$GAGSV,3,1,09,01,22,313,32,03,25,069,38,08,29,127,43,13,64,335,44,7*7C
$GAGSV,3,2,09,15,37,061,42,18,34,117,41,21,45,260,41,26,23,277,36,7*77
$GAGSV,3,3,09,27,27,196,43,7*43
$GAGSV,1,1,01,07,05,173,,0*42
$GBGSV,3,1,12,01,43,152,45,02,28,236,36,03,44,206,42,04,35,132,41,1*7A
$GBGSV,3,2,12,07,67,218,43,08,53,256,41,10,66,253,41,13,43,251,42,1*71
$GBGSV,3,3,12,27,51,316,46,28,61,068,45,33,48,071,44,37,10,218,35,1*72
$GBGSV,2,1,07,02,28,236,37,03,44,206,35,07,67,218,45,08,53,256,41,3*7C
$GBGSV,2,2,07,10,66,253,45,13,43,251,40,14,27,048,33,3*4C
$GBGSV,1,1,03,05,08,256,,15,28,186,,30,05,295,,0*41
$GNRMC,043143.00,A,3726.9369737,N,12639.2341844,E,0.014,,210622,,,R,V*03
$GNVTG,,T,,M,0.014,N,0.025,K,D*3A
$GNGNS,043143.00,3726.9369737,N,12639.2341844,E,RRRR,27,0.62,15.660,17.837,1.0,4095,V*0E
$GNGGA,043143.00,3726.9369737,N,12639.2341844,E,4,12,0.62,15.660,M,17.837,M,1.0,4095*5D
$GNGSA,A,3,09,03,04,14,06,11,17,19,,,,,1.20,0.62,1.03,1*07
$GNGSA,A,3,85,76,,,,,,,,,,,1.20,0.62,1.03,2*0B
$GNGSA,A,3,03,01,26,27,21,15,13,,,,,,1.20,0.62,1.03,3*00
$GNGSA,A,3,01,27,33,03,08,04,07,13,28,10,,,1.20,0.62,1.03,4*04
$GPGSV,3,1,10,03,36,046,43,04,22,096,34,06,51,290,43,09,21,131,36,1*6A
$GPGSV,3,2,10,11,16,265,34,14,30,188,43,17,77,068,46,19,68,336,45,1*6E
$GPGSV,3,3,10,28,,,44,50,47,179,37,1*52
$GPGSV,2,1,07,03,36,046,39,04,22,096,34,06,51,290,41,09,21,131,37,6*64
$GPGSV,2,2,07,11,16,265,36,14,30,188,34,17,77,068,39,6*55
$GPGSV,1,1,04,01,10,069,,02,12,270,,12,10,323,,20,04,221,,0*6D
$GLGSV,2,1,07,70,32,044,24,71,51,113,45,72,23,167,41,76,24,239,37,1*76
$GLGSV,2,2,07,77,27,294,26,85,26,076,41,87,23,304,36,1*40
$GLGSV,2,1,05,71,51,113,38,72,23,167,32,76,24,239,37,77,27,294,30,3*71
$GLGSV,2,2,05,85,26,076,39,3*4D
$GLGSV,1,1,02,78,02,343,,86,53,019,,0*72
$GAGSV,2,1,08,01,22,313,36,03,25,069,42,08,29,127,42,13,64,335,41,2*74
$GAGSV,2,2,08,15,37,061,43,21,45,260,42,26,23,277,38,27,27,196,41,2*79
$GAGSV,3,1,09,01,22,313,32,03,25,069,38,08,29,127,43,13,64,335,44,7*7C
$GAGSV,3,2,09,15,37,061,42,18,34,117,41,21,45,260,41,26,23,277,35,7*74
$GAGSV,3,3,09,27,27,196,43,7*43
$GAGSV,1,1,01,07,05,173,,0*42
$GBGSV,3,1,12,01,43,152,45,02,28,236,36,03,44,206,42,04,35,132,41,1*7A
$GBGSV,3,2,12,07,67,218,43,08,53,256,41,10,66,253,41,13,43,251,42,1*71
$GBGSV,3,3,12,27,51,316,46,28,61,068,45,33,48,071,44,37,10,218,34,1*73
$GBGSV,2,1,07,02,28,236,37,03,44,206,35,07,67,218,45,08,53,256,41,3*7C
$GBGSV,2,2,07,10,66,253,45,13,43,251,40,14,27,048,33,3*4C
$GBGSV,1,1,03,05,08,256,,15,28,186,,30,05,295,,0*41
$GNRMC,043144.00,A,3726.9369731,N,12639.2341838,E,0.008,,210622,,,R,V*04
$GNVTG,,T,,M,0.008,N,0.015,K,D*34
$GNGNS,043144.00,3726.9369731,N,12639.2341838,E,RRRR,27,0.62,15.660,17.837,2.0,4095,V*07
$GNGGA,043144.00,3726.9369731,N,12639.2341838,E,4,12,0.62,15.660,M,17.837,M,2.0,4095*54
$GNGSA,A,3,09,03,04,14,06,11,17,19,,,,,1.20,0.62,1.03,1*07
$GNGSA,A,3,85,76,,,,,,,,,,,1.20,0.62,1.03,2*0B
$GNGSA,A,3,03,01,26,27,21,15,13,,,,,,1.20,0.62,1.03,3*00
$GNGSA,A,3,01,27,33,03,08,04,07,13,28,10,,,1.20,0.62,1.03,4*04
$GPGSV,3,1,10,03,36,046,43,04,22,096,34,06,51,290,43,09,21,131,35,1*69
$GPGSV,3,2,10,11,16,265,35,14,30,188,43,17,77,068,46,19,68,336,45,1*6F
$GPGSV,3,3,10,28,,,44,50,47,179,36,1*53
$GPGSV,2,1,07,03,36,046,37,04,22,096,33,06,51,290,40,09,21,131,35,6*6E
$GPGSV,2,2,07,11,16,265,34,14,30,188,34,17,77,068,37,6*59
$GPGSV,1,1,04,01,10,069,,02,12,270,,12,10,323,,20,04,221,,0*6D
$GLGSV,2,1,07,70,32,044,23,71,51,113,45,72,23,167,41,76,24,239,36,1*70
$GLGSV,2,2,07,77,27,294,26,85,26,076,41,87,23,304,36,1*40
$GLGSV,2,1,05,71,51,113,38,72,23,167,32,76,24,239,36,77,27,294,30,3*70
$GLGSV,2,2,05,85,26,076,41,3*42
$GLGSV,1,1,02,78,02,343,,86,53,019,,0*72
$GAGSV,2,1,08,01,22,313,36,03,25,069,41,08,29,127,41,13,64,335,41,2*74
$GAGSV,2,2,08,15,37,061,43,21,45,260,41,26,23,277,38,27,27,196,40,2*7B
$GAGSV,3,1,09,01,22,313,33,03,25,069,38,08,29,127,43,13,64,335,45,7*7C
$GAGSV,3,2,09,15,37,061,42,18,34,117,41,21,45,260,41,26,23,277,35,7*74
$GAGSV,3,3,09,27,27,196,42,7*42
$GAGSV,1,1,01,07,05,173,,0*42
$GBGSV,3,1,12,01,43,152,45,02,28,236,36,03,44,206,42,04,35,132,41,1*7A
$GBGSV,3,2,12,07,67,218,43,08,53,256,41,10,66,253,41,13,43,251,42,1*71
$GBGSV,3,3,12,27,51,316,46,28,61,068,45,33,48,071,45,37,10,218,34,1*72
$GBGSV,2,1,07,02,28,236,36,03,44,206,35,07,67,218,43,08,53,256,40,3*7A
$GBGSV,2,2,07,10,66,253,43,13,43,251,39,14,27,048,33,3*44
$GBGSV,1,1,03,05,08,256,,15,28,186,,30,05,295,,0*41
$GNRMC,043145.00,A,3726.9369727,N,12639.2341817,E,0.015,,210622,,,R,V*03
$GNVTG,,T,,M,0.015,N,0.027,K,D*39
$GNGNS,043145.00,3726.9369727,N,12639.2341817,E,RRRR,27,0.62,15.660,17.837,2.0,4095,V*0C
$GNGGA,043145.00,3726.9369727,N,12639.2341817,E,4,12,0.62,15.660,M,17.837,M,2.0,4095*5F
$GNGSA,A,3,09,03,04,14,06,11,17,19,,,,,1.20,0.62,1.03,1*07
$GNGSA,A,3,85,76,,,,,,,,,,,1.20,0.62,1.03,2*0B
$GNGSA,A,3,03,01,26,27,21,15,13,,,,,,1.20,0.62,1.03,3*00
$GNGSA,A,3,01,27,33,03,08,04,07,13,28,10,,,1.20,0.62,1.03,4*04
$GPGSV,3,2,10,11,16,265,35,14,30,188,43,17,77,068,46,19,68,336,45,1*6F
$GPGSV,3,3,10,28,,,44,50,47,179,36,1*53
$GPGSV,2,1,07,03,36,046,38,04,22,096,33,06,51,290,41,09,21,131,36,6*63
$GPGSV,2,2,07,11,16,265,35,14,30,188,35,17,77,068,38,6*56
$GPGSV,1,1,04,01,10,069,,02,12,270,,12,10,323,,20,04,221,,0*6D
$GLGSV,2,1,07,70,32,044,23,71,51,113,45,72,23,167,41,76,24,239,36,1*70
$GLGSV,2,2,07,77,27,294,26,85,26,076,41,87,23,304,36,1*40
$GLGSV,2,1,05,71,51,113,40,72,23,167,32,76,24,239,36,77,27,294,31,3*7E
$GLGSV,2,2,05,85,26,076,41,3*42
$GLGSV,1,1,02,78,02,343,,86,53,019,,0*72
$GAGSV,2,1,08,01,22,313,36,03,25,069,42,08,29,127,42,13,64,335,41,2*74
$GAGSV,2,2,08,15,37,061,43,21,45,260,42,26,23,277,37,27,27,196,40,2*77
$GAGSV,3,1,09,01,22,313,33,03,25,069,38,08,29,127,43,13,64,335,45,7*7C
$GAGSV,3,2,09,15,37,061,42,18,34,117,40,21,45,260,41,26,23,277,35,7*75
$GAGSV,3,3,09,27,27,196,42,7*42
$GAGSV,1,1,01,07,05,173,,0*42
$GBGSV,3,1,12,$GBGSV,3,2,12,07,67,218,43,08,53,256,41,10,66,253,41,13,43,251,42,1*71
$GBGSV,3,3,12,27,51,316,46,28,61,068,45,33,48,071,44,37,10,218,35,1*72
$GBGSV,2,1,07,02,28,236,36,03,44,206,36,07,67,218,45,08,53,256,41,3*7E
$GBGSV,2,2,07,10,66,253,44,13,43,251,40,14,27,048,33,3*4D
$GBGSV,1,1,03,05,08,256,,15,28,186,,30,05,295,,0*41
$GNRMC,043146.00,A,3726.9369763,N,12639.2341849,E,0.008,,210622,,,R,V*07
$GNVTG,,T,,M,0.008,N,0.016,K,D*37
$GNGGA,043146.00,3726.9369763,N,12639.2341849,E,4,12,0.62,15.661,M,17.837,M,2.0,4095*56
$GNGSA,A,3,09,03,04,14,06,11,17,19,,,,,1.20,0.62,1.03,1*07
$GNGSA,A,3,85,76,,,,,,,,,,,1.20,0.62,1.03,2*0B
$GNGSA,A,3,03,01,26,27,21,15,13,,,,,,1.20,0.62,1.03,3*00
$GNGSA,A,3,01,27,33,03,08,04,07,13,28,10,,,1.20,0.62,1.03,4*04
$GPGSV,3,1,10,03,36,046,43,04,22,096,35,06,51,290,43,09,21,131,35,1*68
$GPGSV,3,2,10,11,16,265,35,14,30,188,43,17,77,068,46,19,68,336,45,1*6F
$GPGSV,3,3,10,28,,,44,50,47,179,36,1*53
$GPGSV,2,1,07,03,36,046,41,04,22,096,34,06,51,290,44,09,21,131,39,6*60
$GPGSV,2,2,07,11,16,265,38,14,30,188,37,17,77,068,41,6*57
$GPGSV,1,1,04,01,10,069,,02,12,270,,12,10,323,,20,04,221,,0*6D
$GLGSV,2,1,07,70,32,044,24,71,51,113,45,72,23,167,41,76,24,239,36,1*77
$GLGSV,2,2,07,77,27,294,26,85,26,076,42,87,23,304,36,1*43
$GLGSV,2,1,05,71,51,113,43,72,23,167,34,76,24,239,39,77,27,294,33,3*76
$GLGSV,2,2,05,85,26,076,44,3*47$GNRMC,043147.00,A,3726.9369746,N,12639.2341864,E,0.014,,210622,,,R,V*03
$GNVTG,,T,,M,0.014,N,0.026,K,D*39
$GNGNS,043147.00,3726.9369746,N,12639.2341864,E,RRRR,27,0.62,15.656,17.837,2.0,4095,V*08
$GNGGA,043147.00,3726.9369746,N,12639.2341864,E,4,12,0.62,15.656,M,17.837,M,2.0,4095*5B
$GNGSA,A,3,09,03,04,14,06,11,17,19,,,,,1.20,0.62,1.03,1*07
$GNGSA,A,3,85,76,,,,,,,,,,,1.20,0.62,1.03,2*0B
$GNGSA,A,3,03,01,26,27,21,15,13,,,,,,1.20,0.62,1.03,3*00
$GNGSA,A,3,01,27,33,03,08,04,07,13,28,10,,,1.20,0.62,1.03,4*04
$GPGSV,3,1,10,03,36,046,43,04,22,096,34,06,51,290,44,09,21,131,35,1*6E
$GPGSV,3,2,10,11,16,265,35,14,30,188,43,17,77,068,46,19,68,336,45,1*6F
$GPGSV,3,3,10,28,,,44,50,47,179,36,1*53
$GPGSV,2,1,07,03,36,046,40,04,22,096,34,06,51,290,42,09,21,131,37,6*69
$GPGSV,2,2,07,11,16,265,37,14,30,188,36,17,77,068,39,6*56
$GPGSV,1,1,04,01,10,069,,02,12,270,,12,10,323,,20,04,221,,0*6D
$GLGSV,2,1,07,70,32,044,24,71,51,113,45,72,23,167,41,76,24,239,36,1*77
$GLGSV,2,2,07,77,27,294,26,85,26,076,42,87,23,304,36,1*43
$GLGSV,2,1,05,71,51,113,41,72,23,167,33,76,24,239,38,77,27,294,32,3*73
$GLGSV,2,2,05,85,26,076,42,3*41
$GLGSV,1,1,02,78,02,343,,86,53,019,,0*72
$GAGSV,2,1,08,01,22,313,36,03,25,069,42,08,29,127,42,13,64,335,41,2*74
$GAGSV,2,2,08,15,37,061,43,21,45,260,42,26,23,277,38,27,27,196,41,2*79
$GAGSV,3,1,09,01,22,313,32,03,25,069,38,08,29,127,43,13,64,335,45,7*7D
$GAGSV,3,2,09,15,37,061,42,18,34,117,40,21,45,260,41,26,23,277,35,7*75
$GAGSV,3,3,09,27,27,196,42,7*42
$GAGSV,1,1,01,07,05,173,,0*42
$GBGSV,3,1,12,01,43,152,45,02,28,236,36,03,44,206,42,04,35,132,40,1*7B
$GBGSV,3,2,12,07,67,218,43,08,53,256,41,10,66,253,41,13,43,251,42,1*71
$GBGSV,3,3,12,27,51,316,46,28,61,068,45,33,48,071,44,37,10,218,35,1*72
$GBGSV,2,1,07,02,28,236,37,03,44,206,36,07,67,218,45,08,53,256,42,3*7C
$GBGSV,2,2,07,10,66,253,45,13,43,251,41,14,27,048,34,3*4A
$GBGSV,1,1,03,05,08,256,,15,28,186,,30,05,295,,0*41
$GNRMC,043148.00,A,3726.9369739,N,12639.2341868,E,0.013,,210622,,,R,V*0F
$GNVTG,,T,,M,0.013,N,0.025,K,D*3D
$GNGNS,043148.00,3726.9369739,N,12639.2341868,E,RRRR,27,0.62,15.665,17.837,2.0,4095,V*03
$GNGGA,043148.00,3726.9369739,N,12639.2341868,E,4,12,0.62,15.665,M,17.837,M,2.0,4095*50
$GNGSA,A,3,09,03,04,14,06,11,17,19,,,,,1.20,0.62,1.03,1*07
$GNGSA,A,3,85,76,,,,,,,,,,,1.20,0.62,1.03,2*0B
$GNGSA,A,3,03,01,26,27,21,15,13,,,,,,1.20,0.62,1.03,3*00
$GNGSA,A,3,01,27,33,03,08,04,07,13,28,10,,,1.20,0.62,1.03,4*04
$GPGSV,3,1,10,03,36,046,43,04,22,096,34,06,51,290,44,09,21,131,35,1*6E
$GPGSV,3,2,10,11,16,265,35,14,30,188,43,17,77,068,46,19,68,336,45,1*6F
$GPGSV,3,3,10,28,,,44,50,47,179,36,1*53
$GPGSV,2,1,07,03,36,046,39,04,22,096,33,06,51,290,42,09,21,131,37,6*60
$GPGSV,2,2,07,11,16,265,36,14,30,188,35,17,77,068,39,6*54
$GPGSV,1,1,04,01,10,069,,02,12,270,,12,10,323,,20,04,221,,0*6D
$GLGSV,2,1,07,70,32,044,24,71,51,113,45,72,23,167,41,76,24,239,36,1*77
$GLGSV,2,2,07,77,27,294,26,85,26,076,42,87,23,304,36,1*43
$GLGSV,2,1,05,71,51,113,41,72,23,167,33,76,24,239,37,77,27,294,32,3*7C
$GLGSV,2,2,05,85,26,076,42,3*41
$GLGSV,1,1,02,78,02,343,,86,53,019,,0*72
$GAGSV,2,1,08,01,22,313,36,03,25,069,42,08,29,127,42,13,64,335,42,2*77
$GAGSV,2,2,08,15,37,061,44,21,45,260,42,26,23,277,38,27,27,196,41,2*7E
$GAGSV,3,1,09,01,22,313,33,03,25,069,38,08,29,127,44,13,64,335,45,7*7B
$GAGSV,3,2,09,15,37,061,42,18,34,117,40,21,45,260,41,26,23,277,35,7*75
$GAGSV,3,3,09,27,27,196,42,7*42
$GAGSV,1,1,01,07,05,173,,0*42
$GBGSV,3,1,12,01,43,152,45,02,28,236,36,03,44,206,42,04,35,132,41,1*7A
$GBGSV,3,2,12,07,67,218,43,08,53,256,41,10,66,253,41,13,43,251,42,1*71
$GBGSV,3,3,12,27,51,316,46,28,61,068,45,33,48,071,44,37,10,218,35,1*72
$GBGSV,2,2,07,10,66,253,45,13,43,251,41,14,27,048,33,3*4D
$GBGSV,1,1,03,05,08,256,,15,28,186,,30,05,295,,0*41
$GNRMC,043149.00,A,3726.9369741,N,12639.2341865,E,0.014,,210622,,,R,V*0B
$GNVTG,,T,,M,0.014,N,0.026,K,D*39
$GNGNS,043149.00,3726.9369741,N,12639.2341865,E,RRRR,27,0.62,15.665,17.837,2.0,4095,V*00
$GNGGA,043149.00,3726.9369741,N,12639.2341865,E,4,12,0.62,15.665,M,17.837,M,2.0,4095*53
$GNGSA,A,3,09,03,04,14,06,11,17,19,,,,,1.20,0.62,1.03,1*07
$GNGSA,A,3,85,76,,,,,,,,,,,1.20,0.62,1.03,2*0B
$GNGSA,A,3,03,01,26,27,21,15,13,,,,,,1.20,0.62,1.03,3*00
$GNGSA,A,3,01,27,33,03,08,04,07,13,28,10,,,1.20,0.62,1.03,4*04
$GPGSV,3,1,10,03,36,046,43,04,22,096,35,06,51,290,44,09,21,131,35,1*6F
$GPGSV,3,2,10,11,16,265,34,14,30,188,44,17,77,068,46,19,68,336,45,1*69
$GPGSV,3,3,10,28,,,44,50,47,179,36,1*53
$GPGSV,2,1,07,03,36,046,39,04,22,096,33,06,51,290,42,09,21,131,37,6*60
$GPGSV,2,2,07,11,16,265,36,14,30,188,35,17,77,068,39,6*54
$GPGSV,1,1,04,01,10,069,,02,12,270,,12,10,323,,20,04,221,,0*6D
$GLGSV,2,1,07,70,32,043,25,71,51,113,45,72,23,167,41,76,24,239,36,1*71
$GLGSV,2,2,07,77,27,294,26,85,26,076,41,87,23,304,36,1*40
$GLGSV,2,1,05,71,51,113,41,72,23,167,33,76,24,239,37,77,27,294,32,3*7C
$GLGSV,2,2,05,85,26,076,42,3*41
$GLGSV,1,1,02,78,02,343,,86,53,019,,0*72
$GAGSV,2,1,08,01,22,313,37,03,25,069,42,08,29,127,42,13,64,335,41,2*75
$GAGSV,2,2,08,15,37,061,44,21,45,260,42,26,23,277,38,27,27,196,41,2*7E
$GAGSV,3,1,09,01,22,313,33,03,25,069,38,08,29,127,44,13,64,335,45,7*7B
$GAGSV,3,2,09,15,37,061,42,18,34,117,40,21,45,260,41,26,23,277,35,7*75
$GAGSV,3,3,09,27,27,196,42,7*42
$GAGSV,1,1,01,07,05,173,,0*42
$GBGSV,3,1,12,01,43,152,45,02,28,236,36,03,44,206,42,04,35,132,40,1*7B
$GBGSV,3,2,12,07,67,218,43,08,53,256,41,10,66,253,41,13,43,251,42,1*71
$GBGSV,3,3,12,27,51,316,46,28,61,068,46,33,48,071,44,37,10,218,35,1*71
$GBGSV,2,1,07,02,28,236,37,03,44,206,36,07,67,218,45,08,53,256,42,3*7C
$GBGSV,2,2,07,10,66,253,45,13,43,251,41,14,27,048,33,3*4D
$GBGSV,1,1,03,05,08,256,,15,28,186,,30,05,295,,0*41
$GNRMC,043150.00,A,3726.9369733,N,12639.2341843,E,0.018,,210622,,,R,V*0E
$GNVTG,,T,,M,0.018,N,0.033,K,D*31
$GNGNS,043150.00,3726.9369733,N,12639.2341843,E,RRRR,27,0.62,15.675,17.837,2.0,4095,V*08
$GNGGA,043150.00,3726.9369733,N,12639.2341843,E,4,12,0.62,15.675,M,17.837,M,2.0,4095*5B
$GNGSA,A,3,09,03,04,14,06,11,17,19,,,,,1.20,0.62,1.03,1*07
$GNGSA,A,3,85,76,,,,,,,,,,,1.20,0.62,1.03,2*0B
$GNGSA,A,3,03,01,26,27,21,15,13,,,,,,1.20,0.62,1.03,3*00
$GNGSA,A,3,01,27,33,03,08,04,07,13,28,10,,,1.20,0.62,1.03,4*04
$GPGSV,3,1,10,03,36,046,43,04,22,096,34,06,51,290,44,09,21,131,36,1*6D
$GPGSV,3,2,10,11,16,265,35,14,30,188,44,17,77,068,46,19,68,336,45,1*68
$GPGSV,3,3,10,28,,,44,50,47,179,36,1*53
$GPGSV,2,1,07,03,36,046,39,04,22,096,33,06,51,290,42,09,21,131,37,6*60
$GPGSV,2,2,07,11,16,265,36,14,30,188,35,17,77,068,39,6*54
$GPGSV,1,1,04,01,10,069,,02,12,270,,12,10,323,,20,04,221,,0*6D
$GLGSV,2,1,07,70,32,043,25,71,52,111,45,72,23,167,40,76,24,239,36,1*71
$GLGSV,2,2,07,77,27,294,26,85,26,076,41,87,23,304,36,1*40
$GLGSV,2,1,05,71,52,111,41,72,23,167,33,76,24,239,36,77,27,294,32,3*7C
$GLGSV,2,2,05,85,26,076,42,3*41
$GLGSV,1,1,02,78,02,343,,86,53,019,,0*72
$GAGSV,2,1,08,01,22,313,36,03,25,069,42,08,29,127,42,13,64,335,41,2*74
$GAGSV,2,2,08,15,37,061,44,21,45,260,42,26,23,277,38,27,27,196,41,2*7E
$GAGSV,3,1,09,01,22,313,32,03,25,069,39,08,29,127,43,13,64,335,45,7*7C
$GAGSV,3,2,09,15,37,061,42,18,34,117,40,21,45,260,41,26,23,277,35,7*75
$GAGSV,3,3,09,27,27,196,42,7*42
$GAGSV,1,1,01,07,05,173,,0*42
$GBGSV,3,1,12,01,43,152,45,02,28,236,36,03,44,206,42,04,35,132,41,1*7A
$GBGSV,3,2,12,07,67,218,43,08,53,256,41,10,66,253,41,13,43,251,42,1*71
$GBGSV,3,3,12,27,51,316,46,28,61,068,46,33,48,071,44,37,10,218,35,1*71
$GBGSV,2,2,07,10,66,253,45,13,43,251,40,14,27,048,34,3*4B
$GBGSV,1,1,03,05,08,256,,15,28,186,,30,05,295,,0*41
$GNRMC,043151.00,A,3726.9369736,N,12639.2341843,E,0.014,,210622,,,R,V*06
$GNVTG,,T,,M,0.014,N,0.025,K,D*3A
$GNGNS,043151.00,3726.9369736,N,12639.2341843,E,RRRR,27,0.62,15.674,17.837,2.0,4095,V*0D
$GNGGA,043151.00,3726.9369736,N,12639.2341843,E,4,12,0.62,15.674,M,17.837,M,2.0,4095*5E
$GNGSA,A,3,09,03,04,14,06,11,17,19,,,,,1.20,0.62,1.03,1*07
$GNGSA,A,3,85,76,,,,,,,,,,,1.20,0.62,1.03,2*0B
$GNGSA,A,3,03,01,26,27,21,15,13,,,,,,1.20,0.62,1.03,3*00
$GNGSA,A,3,01,27,33,03,08,04,07,13,28,10,,,1.20,0.62,1.03,4*04
$GPGSV,3,1,10,03,36,046,43,04,22,096,34,06,51,290,44,09,21,131,36,1*6D
$GPGSV,3,2,10,11,16,265,35,14,30,188,44,17,77,068,46,19,68,336,45,1*68
$GPGSV,3,3,10,28,,,44,50,47,179,36,1*53
$GPGSV,2,1,07,03,36,046,39,04,22,096,33,06,51,290,42,09,21,131,36,6*61
$GPGSV,2,2,07,11,16,265,35,14,30,188,35,17,77,068,39,6*57
$GPGSV,1,1,04,01,10,069,,02,12,270,,12,10,323,,20,04,221,,0*6D
$GLGSV,2,1,07,70,32,043,24,71,52,111,45,72,23,167,40,76,24,239,36,1*70
$GLGSV,2,2,07,77,27,294,27,85,26,076,41,87,23,304,36,1*41
$GLGSV,2,1,05,71,52,111,41,72,23,167,33,76,24,239,36,77,27,294,32,3*7C
$GLGSV,2,2,05,85,26,076,41,3*42
$GLGSV,1,1,02,78,02,343,,86,53,019,,0*72
$GAGSV,2,1,08,01,22,313,35,03,25,069,41,08,29,127,41,13,64,335,41,2*77
$GAGSV,2,2,08,15,37,061,43,21,45,260,41,26,23,277,37,27,27,196,40,2*74
$GAGSV,3,1,09,01,22,313,32,03,25,069,38,08,29,127,43,13,64,335,45,7*7D
$GAGSV,3,2,09,15,37,061,42,18,34,117,40,21,45,260,41,26,23,277,35,7*75
$GAGSV,3,3,09,27,27,196,42,7*42
$GAGSV,1,1,01,07,05,173,,0*42
$GBGSV,3,1,12,01,43,152,45,02,28,236,36,03,44,206,42,04,35,132,41,1*7A
$GBGSV,3,2,12,07,67,218,43,08,53,256,41,10,66,253,41,13,43,251,42,1*71
$GBGSV,3,3,12,27,51,316,46,28,61,068,46,33,48,071,45,37,10,218,35,1*70
$GBGSV,2,1,07,02,28,236,37,03,44,206,36,07,67,218,45,08,53,256,41,3*7F
$GBGSV,2,2,07,10,66,253,45,13,43,251,40,14,27,048,33,3*4C
$GBGSV,1,1,03,05,08,256,,15,28,186,,30,05,295,,0*41
$GNRMC,043152.00,A,3726.9369730,N,12639.2341869,E,0.008,,210622,,,R,V*06
$GNVTG,,T,,M,0.008,N,0.015,K,D*34
$GNGNS,043152.00,3726.9369730,N,12639.2341869,E,RRRR,27,0.62,15.658,17.837,2.0,4095,V*0E
$GNGGA,043152.00,3726.9369730,N,12639.2341869,E,4,12,0.62,15.658,M,17.837,M,2.0,4095*5D
$GNGSA,A,3,09,03,04,14,06,11,17,19,,,,,1.20,0.62,1.03,1*07
$GNGSA,A,3,85,76,,,,,,,,,,,1.20,0.62,1.03,2*0B
$GNGSA,A,3,03,01,26,27,21,15,13,,,,,,1.20,0.62,1.03,3*00
$GNGSA,A,3,01,27,33,03,08,04,07,13,28,10,,,1.20,0.62,1.03,4*04
$GPGSV,3,1,10,03,36,046,43,04,22,096,34,06,51,290,44,09,21,131,36,1*6D
$GPGSV,3,2,10,11,16,265,35,14,30,188,44,17,77,068,46,19,68,336,45,1*68
$GPGSV,3,3,10,28,,,44,50,47,179,36,1*53
$GPGSV,2,1,07,03,36,046,39,04,22,096,34,06,51,290,41,09,21,131,37,6*64
$GPGSV,2,2,07,11,16,265,35,14,30,188,35,17,77,068,39,6*57
$GPGSV,1,1,04,01,10,069,,02,12,270,,12,10,323,,20,04,221,,0*6D
$GLGSV,2,1,07,70,32,043,23,71,52,111,45,72,23,167,40,76,24,239,36,1*77
$GLGSV,2,2,07,77,27,294,27,85,26,076,41,87,23,304,36,1*41
$GLGSV,2,1,05,71,52,111,41,72,23,167,32,76,24,239,36,77,27,294,32,3*7D
$GLGSV,2,2,05,85,26,076,42,3*41
$GLGSV,1,1,02,78,02,343,,86,53,019,,0*72
$GAGSV,2,1,08,01,22,313,36,03,25,069,42,08,29,127,41,13,64,335,41,2*77
$GAGSV,2,2,08,15,37,061,44,21,45,260,42,26,23,277,38,27,27,196,41,2*7E
$GAGSV,3,1,09,01,22,313,33,03,25,069,38,08,29,127,43,13,64,335,45,7*7C
$GAGSV,3,2,09,15,37,061,42,18,34,117,41,21,45,260,42,26,23,277,35,7*77
$GAGSV,3,3,09,27,27,196,42,7*42
$GAGSV,1,1,01,07,05,173,,0*42
$GBGSV,3,1,12,01,43,152,45,02,28,236,36,03,44,206,42,04,35,132,41,1*7A
$GBGSV,3,2,12,07,67,218,43,08,53,256,41,10,66,253,42,13,43,251,42,1*72
$GBGSV,3,3,12,27,51,316,46,28,61,068,46,33,48,071,45,37,10,218,35,1*70
$GBGSV,2,1,07,02,28,236,37,03,44,206,35,07,67,218,45,08,53,256,41,3*7C
$GBGSV,2,2,07,10,66,253,44,13,43,251,40,14,27,048,33,3*4D
$GBGSV,1,1,03,05,08,256,,15,28,186,,30,05,295,,0*41
$GNRMC,043153.00,A,3726.9369751,N,12639.2341875,E,0.013,,210622,,,R,V*07
$GNVTG,,T,,M,0.013,N,0.023,K,D*3B
$GNGNS,043153.00,3726.9369751,N,12639.2341875,E,RRRR,27,0.62,15.649,17.837,1.0,4095,V*06
$GNGGA,043153.00,3726.9369751,N,12639.2341875,E,4,12,0.62,15.649,M,17.837,M,1.0,4095*55
$GNGSA,A,3,09,03,04,14,06,11,17,19,,,,,1.20,0.62,1.03,1*07
$GNGSA,A,3,85,76,,,,,,,,,,,1.20,0.62,1.03,2*0B
$GNGSA,A,3,03,01,26,27,21,15,13,,,,,,1.20,0.62,1.03,3*00
$GNGSA,A,3,01,27,33,03,08,04,07,13,28,10,,,1.20,0.62,1.03,4*04
$GPGSV,3,1,10,03,36,046,43,04,22,096,35,06,51,290,44,09,21,131,36,1*6C
$GPGSV,3,2,10,11,16,265,36,14,30,188,44,17,77,068,46,19,68,336,45,1*6B
$GPGSV,3,3,10,28,,,44,50,47,179,37,1*52
$GPGSV,2,1,07,03,36,046,39,04,22,096,34,06,51,290,41,09,21,131,36,6*65
$GPGSV,2,2,07,11,16,265,35,14,30,188,36,17,77,068,39,6*54
$GPGSV,1,1,04,01,10,069,,02,12,270,,12,10,323,,20,04,221,,0*6D
$GLGSV,2,1,07,70,32,043,23,71,52,111,45,72,23,167,40,76,24,239,37,1*76
$GLGSV,2,2,07,77,27,294,27,85,26,076,41,87,23,304,36,1*41
$GLGSV,2,1,05,71,52,111,40,72,23,167,32,76,24,239,36,77,27,294,32,3*7C
$GLGSV,2,2,05,85,26,076,41,3*42
$GLGSV,1,1,02,78,02,343,,86,53,019,,0*72
$GAGSV,2,1,08,01,22,313,36,03,25,069,42,08,29,127,42,13,64,335,41,2*74
$GAGSV,2,2,08,15,37,061,43,21,45,260,42,26,23,277,38,27,27,196,41,2*79
$GAGSV,3,1,09,01,22,313,32,03,25,069,38,08,29,127,43,13,64,335,45,7*7D
$GAGSV,3,2,09,15,37,061,42,18,34,117,41,21,45,260,41,26,23,277,35,7*74
$GAGSV,3,3,09,27,27,196,42,7*42
$GAGSV,1,1,01,07,05,173,,0*42
$GBGSV,3,1,12,01,43,152,45,02,28,236,36,03,44,206,42,04,35,132,41,1*7A
$GBGSV,3,2,12,07,67,218,43,08,53,256,41,10,66,253,42,13,43,251,42,1*72
$GBGSV,3,3,12,27,51,316,46,28,61,068,45,33,48,071,44,37,10,218,35,1*72
$GBGSV,2,1,07,02,28,236,36,03,44,206,35,07,67,218,44,08,53,256,41,3*7C
$GBGSV,2,2,07,10,66,253,44,13,43,251,40,14,27,048,32,3*4C
$GBGSV,1,1,03,05,08,256,,15,28,186,,30,05,295,,0*41
$GNRMC,043154.00,A,3726.9369742,N,12639.2341877,E,0.014,,210622,,,R,V*07
$GNVTG,,T,,M,0.014,N,0.026,K,D*39
$GNGNS,043154.00,3726.9369742,N,12639.2341877,E,RRRR,27,0.62,15.648,17.837,2.0,4095,V*03
$GNGGA,043154.00,3726.9369742,N,12639.2341877,E,4,12,0.62,15.648,M,17.837,M,2.0,4095*50
$GNGSA,A,3,09,03,04,14,06,11,17,19,,,,,1.20,0.62,1.03,1*07
$GNGSA,A,3,85,76,,,,,,,,,,,1.20,0.62,1.03,2*0B
$GNGSA,A,3,03,01,26,27,21,15,13,,,,,,1.20,0.62,1.03,3*00
$GNGSA,A,3,01,27,33,03,08,04,07,13,28,10,,,1.20,0.62,1.03,4*04
$GPGSV,3,1,10,03,36,046,43,04,22,096,34,06,51,290,44,09,21,131,37,1*6C
$GPGSV,3,2,10,11,16,265,35,14,30,188,44,17,77,068,46,19,68,336,45,1*68
$GPGSV,3,3,10,28,,,45,50,47,179,36,1*52
$GPGSV,2,1,07,03,36,046,39,04,22,096,33,06,51,290,41,09,21,131,36,6*62
$GPGSV,2,2,07,11,16,265,34,14,30,188,35,17,77,068,39,6*56
$GPGSV,1,1,04,01,10,069,,02,12,270,,12,10,323,,20,04,221,,0*6D
$GLGSV,2,1,07,70,32,043,22,71,52,111,45,72,23,167,40,76,24,239,37,1*77
$GLGSV,2,2,07,77,27,294,27,85,26,076,41,87,23,304,36,1*41
$GLGSV,2,1,05,71,52,111,40,72,23,167,31,76,24,239,36,77,27,294,31,3*7C
$GLGSV,2,2,05,85,26,076,41,3*42
$GLGSV,1,1,02,78,02,343,,86,53,019,,0*72
$GAGSV,2,1,08,01,22,313,35,03,25,069,42,08,29,127,41,13,64,335,41,2*74
$GAGSV,2,2,08,15,37,061,43,21,45,260,41,26,23,277,37,27,27,196,40,2*74
$GAGSV,3,1,09,01,22,313,32,03,25,069,38,08,29,127,43,13,64,335,45,7*7D
$GAGSV,3,2,09,15,37,061,42,18,34,117,41,21,45,260,41,26,23,277,34,7*75
$GAGSV,3,3,09,27,27,196,42,7*42
$GAGSV,1,1,01,07,05,173,,0*42
$GBGSV,3,1,12,01,43,152,45,02,28,236,36,03,44,206,42,04,35,132,41,1*7A
$GBGSV,3,2,12,07,67,218,43,08,53,256,41,10,66,253,41,13,43,251,42,1*71
$GBGSV,3,3,12,27,51,316,46,28,61,068,45,33,48,071,45,37,10,218,35,1*73
$GBGSV,2,1,07,02,28,236,37,03,44,206,35,07,67,218,44,08,53,256,41,3*7D
$GBGSV,2,2,07,10,66,253,44,13,43,251,40,14,27,048,32,3*4C
$GBGSV,1,1,03,05,08,256,,15,28,186,,30,05,295,,0*41
$GNRMC,043155.00,A,3726.9369731,N,12639.2341865,E,0.004,,210622,,,R,V*00
$GNVTG,,T,,M,0.004,N,0.008,K,D*34
$GNGNS,043155.00,3726.9369731,N,12639.2341865,E,RRRR,27,0.62,15.650,17.837,2.0,4095,V*0C
$GNGGA,043155.00,3726.9369731,N,12639.2341865,E,4,12,0.62,15.650,M,17.837,M,2.0,4095*5F
$GNGSA,A,3,09,03,04,14,06,11,17,19,,,,,1.20,0.62,1.03,1*07
$GNGSA,A,3,85,76,,,,,,,,,,,1.20,0.62,1.03,2*0B
$GNGSA,A,3,03,01,26,27,21,15,13,,,,,,1.20,0.62,1.03,3*00
$GNGSA,A,3,01,27,33,03,08,04,07,13,28,10,,,1.20,0.62,1.03,4*04
$GPGSV,3,1,10,03,36,046,43,04,22,096,35,06,51,290,44,09,21,131,34,1*6E
$GPGSV,3,2,10,11,16,265,35,14,30,188,44,17,77,068,46,19,68,336,45,1*68
$GPGSV,3,3,10,28,,,45,50,47,179,36,1*52
$GPGSV,2,1,07,03,36,046,38,04,22,096,32,06,51,290,40,09,21,131,35,6*60
$GPGSV,2,2,07,11,16,265,33,14,30,188,34,17,77,068,38,6*51
$GPGSV,1,1,04,01,10,069,,02,12,270,,12,10,323,,20,04,221,,0*6D
$GLGSV,2,1,07,70,32,043,23,71,52,111,45,72,23,167,40,76,24,238,38,1*78
$GLGSV,2,2,07,77,27,294,27,85,26,076,41,87,23,304,36,1*41
$GLGSV,2,1,05,71,52,111,40,72,23,167,30,76,24,238,35,77,27,294,32,3*7C
$GLGSV,2,2,05,85,26,076,42,3*41
$GLGSV,1,1,02,78,02,343,,86,53,019,,0*72
$GAGSV,2,1,08,01,22,313,36,03,25,069,42,08,29,127,42,13,64,335,41,2*74
$GAGSV,2,2,08,15,37,061,43,21,45,260,42,26,23,277,38,27,27,196,41,2*79
$GAGSV,3,1,09,01,22,313,33,03,25,069,38,08,29,127,43,13,64,335,45,7*7C
$GAGSV,3,2,09,15,37,061,42,18,34,117,41,21,45,260,41,26,23,277,34,7*75
$GAGSV,3,3,09,27,27,196,42,7*42
$GAGSV,1,1,01,07,05,172,,0*43
$GBGSV,3,1,12,01,43,152,45,02,28,236,36,03,44,206,42,04,35,132,41,1*7A
$GBGSV,3,2,12,07,67,218,43,08,53,256,41,10,66,253,42,13,43,251,42,1*72
$GBGSV,3,3,12,27,51,316,46,28,61,068,45,33,48,071,45,37,10,218,35,1*73
$GBGSV,2,1,07,02,28,236,37,03,44,206,36,07,67,218,45,08,53,256,41,3*7F
$GBGSV,2,2,07,10,66,253,45,13,43,251,40,14,27,048,33,3*4C
$GBGSV,1,1,03,05,08,256,,15,28,186,,30,05,295,,0*41
$GNRMC,043156.00,A,3726.9369729,N,12639.2341833,E,0.011,,210622,,,R,V*0D
$GNVTG,,T,,M,0.011,N,0.021,K,D*3B
$GNGNS,043156.00,3726.9369729,N,12639.2341833,E,RRRR,27,0.62,15.652,17.837,2.0,4095,V*07
$GNGGA,043156.00,3726.9369729,N,12639.2341833,E,4,12,0.62,15.652,M,17.837,M,2.0,4095*54
$GNGSA,A,3,09,03,04,14,06,11,17,19,,,,,1.20,0.62,1.03,1*07
$GNGSA,A,3,85,76,,,,,,,,,,,1.20,0.62,1.03,2*0B
$GNGSA,A,3,03,01,26,27,21,15,13,,,,,,1.20,0.62,1.03,3*00
$GNGSA,A,3,01,27,33,03,08,04,07,13,28,10,,,1.20,0.62,1.03,4*04
$GPGSV,3,1,10,03,36,046,43,04,22,096,35,06,51,290,44,09,21,131,34,1*6E
$GPGSV,3,2,10,11,16,265,36,14,30,188,44,17,77,068,46,19,68,336,45,1*6B
$GPGSV,3,3,10,28,,,45,50,47,179,36,1*52
$GPGSV,2,1,07,03,36,046,39,04,22,096,33,06,51,290,40,09,21,131,35,6*60
$GPGSV,2,2,07,11,16,265,34,14,30,188,35,17,77,068,38,6*57
$GPGSV,1,1,04,01,10,069,,02,12,270,,12,10,323,,20,04,221,,0*6D
$GLGSV,2,1,07,70,32,043,23,71,52,111,45,72,23,167,40,76,24,238,38,1*78
$GLGSV,2,2,07,77,27,293,27,85,26,076,41,87,23,304,36,1*46
$GLGSV,2,1,05,71,52,111,40,72,23,167,30,76,24,238,36,77,27,293,31,3*7B
$GLGSV,2,2,05,85,26,076,42,3*41
$GLGSV,1,1,02,78,02,343,,86,53,019,,0*72
$GAGSV,2,1,08,01,22,313,35,03,25,069,41,08,29,127,42,13,64,335,40,2*75
$GAGSV,2,2,08,15,37,061,43,21,45,260,41,26,23,277,37,27,27,196,40,2*74
$GAGSV,3,1,09,01,22,313,33,03,25,069,38,08,29,127,43,13,64,335,45,7*7C
$GAGSV,3,2,09,15,37,061,42,18,34,117,41,21,45,260,42,26,23,277,34,7*76
$GAGSV,3,3,09,27,27,196,42,7*42
$GAGSV,1,1,01,07,05,172,,0*43
$GBGSV,3,1,12,01,43,152,45,02,28,236,37,03,44,206,42,04,35,132,41,1*7B
$GBGSV,3,2,12,07,67,218,43,08,53,256,41,10,66,253,41,13,43,251,42,1*71
$GBGSV,3,3,12,27,51,316,46,28,61,068,45,33,48,071,44,37,10,218,35,1*72
$GBGSV,2,1,07,02,28,236,37,03,44,206,36,07,67,218,45,08,53,256,41,3*7F
$GBGSV,2,2,07,10,66,253,45,13,43,251,40,14,27,048,33,3*4C
$GBGSV,1,1,03,05,08,256,,15,28,186,,30,05,295,,0*41
$GNRMC,043157.00,A,3726.9369723,N,12639.2341862,E,0.007,,210622,,,R,V*05
$GNVTG,,T,,M,0.007,N,0.014,K,D*3A
$GNGNS,043157.00,3726.9369723,N,12639.2341862,E,RRRR,27,0.62,15.655,17.837,2.0,4095,V*0F
$GNGGA,043157.00,3726.9369723,N,12639.2341862,E,4,12,0.62,15.655,M,17.837,M,2.0,4095*5C
$GNGSA,A,3,09,03,04,14,06,11,17,19,,,,,1.20,0.62,1.03,1*07
$GNGSA,A,3,85,76,,,,,,,,,,,1.20,0.62,1.03,2*0B
$GNGSA,A,3,03,01,26,27,21,15,13,,,,,,1.20,0.62,1.03,3*00
$GNGSA,A,3,01,27,33,03,08,04,07,13,28,10,,,1.20,0.62,1.03,4*04
$GPGSV,3,1,10,03,36,046,43,04,22,096,34,06,51,290,44,09,21,131,34,1*6F
$GPGSV,3,2,10,11,16,265,36,14,30,188,44,17,77,068,46,19,68,336,45,1*6B
$GPGSV,3,3,10,28,,,45,50,47,179,37,1*53
$GPGSV,2,1,07,03,36,046,39,04,22,096,33,06,51,290,41,09,21,131,35,6*61
$GPGSV,2,2,07,11,16,265,33,14,30,188,34,17,77,068,38,6*51
$GPGSV,1,1,04,01,10,069,,02,12,270,,12,10,323,,20,04,221,,0*6D
$GLGSV,2,1,07,70,32,043,22,71,52,111,45,72,23,167,39,76,24,238,38,1*77
$GLGSV,2,2,07,77,27,293,27,85,26,076,41,87,23,304,36,1*46
$GLGSV,2,1,05,71,52,111,41,72,23,167,30,76,24,238,35,77,27,293,32,3*7A
$GLGSV,2,2,05,85,26,076,42,3*41
$GLGSV,1,1,02,78,03,342,,86,53,019,,0*72
$GAGSV,2,1,08,01,22,313,36,03,25,069,41,08,29,127,42,13,64,335,41,2*77
$GAGSV,2,2,08,15,37,061,43,21,45,260,42,26,23,277,37,27,27,196,40,2*77
$GAGSV,3,1,09,01,22,313,33,03,25,069,38,08,29,127,43,13,64,335,45,7*7C
$GAGSV,3,2,09,15,37,061,42,18,34,117,41,21,45,260,42,26,23,277,34,7*76
$GAGSV,3,3,09,27,27,196,43,7*43
$GAGSV,1,1,01,07,05,172,,0*43
$GBGSV,3,1,12,01,43,152,45,02,28,236,37,03,44,206,42,04,35,132,41,1*7B
$GBGSV,3,2,12,07,67,218,43,08,53,256,41,10,66,253,42,13,43,251,42,1*72
$GBGSV,3,3,12,27,51,316,45,28,61,068,45,33,48,071,44,37,10,218,35,1*71
$GBGSV,2,1,07,02,28,236,37,03,44,206,36,07,67,218,45,08,53,256,41,3*7F
$GNRMC,043158.00,A,3726.9369735,N,12639.2341871,E,0.012,,210622,,,R,V*0B
$GNVTG,,T,,M,0.012,N,0.022,K,D*3B
$GNGNS,043158.00,3726.9369735,N,12639.2341871,E,RRRR,27,0.62,15.647,17.837,2.0,4095,V*06
$GNGGA,043158.00,3726.9369735,N,12639.2341871,E,4,12,0.62,15.647,M,17.837,M,2.0,4095*55
$GNGSA,A,3,09,03,04,14,06,11,17,19,,,,,1.20,0.62,1.03,1*07
$GNGSA,A,3,85,76,,,,,,,,,,,1.20,0.62,1.03,2*0B
$GNGSA,A,3,03,01,26,27,21,15,13,,,,,,1.20,0.62,1.03,3*00
$GNGSA,A,3,01,27,33,03,08,04,07,13,28,10,,,1.20,0.62,1.03,4*04
$GPGSV,3,1,10,03,36,046,43,04,22,096,34,06,51,290,44,09,21,131,34,1*6F
$GPGSV,3,2,10,11,16,265,36,14,30,188,45,17,77,068,46,19,68,336,45,1*6A
$GPGSV,3,3,10,28,,,45,50,47,179,37,1*53
$GPGSV,2,1,07,03,36,046,39,04,22,096,33,06,51,290,41,09,21,131,35,6*61
$GPGSV,2,2,07,11,16,265,33,14,30,188,34,17,77,068,38,6*51
$GPGSV,1,1,04,01,10,069,,02,12,270,,12,10,323,,20,04,221,,0*6D
$GLGSV,2,1,07,70,32,043,22,71,52,111,45,72,23,167,38,76,24,238,38,1*76
$GLGSV,2,2,07,77,27,293,27,85,26,076,41,87,23,304,36,1*46
$GLGSV,2,1,05,71,52,111,41,72,23,167,30,76,24,238,35,77,27,293,32,3*7A
$GLGSV,2,2,05,85,26,076,42,3*41
$GLGSV,1,1,02,78,03,342,,86,53,019,,0*72
$GAGSV,2,1,08,01,22,313,36,03,25,069,42,08,29,127,42,13,64,335,41,2*74
$GAGSV,2,2,08,15,37,061,43,21,45,260,42,26,23,277,38,27,27,196,41,2*79
$GAGSV,3,1,09,01,22,313,33,03,25,069,38,08,29,127,43,13,64,335,45,7*7C
$GAGSV,3,2,09,15,37,061,42,18,34,117,41,21,45,260,42,26,23,277,34,7*76
$GAGSV,3,3,09,27,27,196,43,7*43
$GAGSV,1,1,01,07,05,172,,0*43
$GBGSV,3,1,12,01,43,152,45,02,28,236,36,03,44,206,42,04,35,132,41,1*7A
$GBGSV,3,2,12,07,67,218,43,08,53,256,41,10,66,253,42,13,43,251,42,1*72
$GBGSV,3,3,12,27,51,316,46,28,61,068,45,33,48,071,44,37,10,218,35,1*72
$GBGSV,2,1,07,02,28,236,37,03,44,206,36,07,67,218,45,08,53,256,41,3*7F
$GBGSV,2,2,07,10,66,253,45,13,43,251,41,14,27,048,33,3*4D
$GNRMC,043159.00,A,3726.9369736,N,12639.2341865,E,0.014,,210622,,,R,V*0A
$GNVTG,,T,,M,0.014,N,0.025,K,D*3A
$GNGNS,043159.00,3726.9369736,N,12639.2341865,E,RRRR,27,0.62,15.651,17.837,2.0,4095,V*06
$GNGGA,043159.00,3726.9369736,N,12639.2341865,E,4,12,0.62,15.651,M,17.837,M,2.0,4095*55
$GNGSA,A,3,09,03,04,14,06,11,17,19,,,,,1.20,0.62,1.03,1*07
$GNGSA,A,3,85,76,,,,,,,,,,,1.20,0.62,1.03,2*0B
$GNGSA,A,3,03,01,26,27,21,15,13,,,,,,1.20,0.62,1.03,3*00
$GNGSA,A,3,01,27,33,03,08,04,07,13,28,10,,,1.20,0.62,1.03,4*04
$GPGSV,3,1,10,03,36,046,43,04,22,096,34,06,51,290,44,09,21,131,34,1*6F
$GPGSV,3,2,10,11,16,265,36,14,30,188,44,17,77,068,46,19,68,336,45,1*6B
$GPGSV,3,3,10,28,,,45,50,47,179,37,1*53
$GPGSV,2,1,07,03,36,046,39,04,22,096,33,06,51,290,41,09,21,131,35,6*61
$GPGSV,2,2,07,11,16,265,33,14,30,188,34,17,77,068,38,6*51
$GPGSV,1,1,04,01,10,069,,02,12,270,,12,10,323,,20,04,221,,0*6D
$GLGSV,2,1,07,70,32,043,22,71,52,111,45,72,23,167,38,76,24,238,38,1*76
$GLGSV,2,2,07,77,27,293,27,85,26,076,41,87,23,304,36,1*46
$GLGSV,2,1,05,71,52,111,41,72,23,167,31,76,24,238,35,77,27,293,32,3*7B
$GLGSV,2,2,05,85,26,076,42,3*41
$GLGSV,1,1,02,78,03,342,,86,53,019,,0*72
$GAGSV,2,1,08,01,22,313,36,03,25,069,42,08,29,127,42,13,64,335,41,2*74
$GAGSV,2,2,08,15,37,061,43,21,45,260,42,26,23,277,38,27,27,196,41,2*79
$GAGSV,3,1,09,01,22,313,32,03,25,069,38,08,29,127,43,13,64,335,45,7*7D
$GAGSV,3,2,09,15,37,061,43,18,34,117,41,21,45,260,42,26,23,277,34,7*77
$GAGSV,3,3,09,27,27,196,43,7*43
$GAGSV,1,1,01,07,05,172,,0*43
$GBGSV,3,1,12,01,43,152,45,02,28,236,36,03,44,206,42,04,35,132,41,1*7A
$GBGSV,3,2,12,07,67,218,43,08,53,256,41,10,66,253,42,13,43,251,42,1*72
$GBGSV,3,3,12,27,51,316,46,28,61,068,45,33,48,071,45,37,10,218,35,1*73
$GBGSV,2,1,07,02,28,236,36,03,44,206,36,07,67,218,45,08,53,256,41,3*7E
$GBGSV,2,2,07,10,66,253,45,13,43,251,41,14,27,048,33,3*4D
$GBGSV,1,1,03,05,08,256,,15,28,186,,30,05,295,,0*41
$GNRMC,043200.00,A,3726.9369722,N,12639.2341867,E,0.016,,210622,,,R,V*00
$GNVTG,,T,,M,0.016,N,0.030,K,D*3C
$GNGNS,043200.00,3726.9369722,N,12639.2341867,E,RRRR,27,0.62,15.654,17.837,2.0,4095,V*0B
$GNGGA,043200.00,3726.9369722,N,12639.2341867,E,4,12,0.62,15.654,M,17.837,M,2.0,4095*58
$GNGSA,A,3,09,03,04,14,06,11,17,19,,,,,1.20,0.62,1.03,1*07
$GNGSA,A,3,85,76,,,,,,,,,,,1.20,0.62,1.03,2*0B
$GNGSA,A,3,03,01,26,27,21,15,13,,,,,,1.20,0.62,1.03,3*00
$GNGSA,A,3,01,27,33,03,08,04,07,13,28,10,,,1.20,0.62,1.03,4*04
$GPGSV,3,1,10,03,36,046,43,04,22,096,34,06,51,290,44,09,21,131,35,1*6E
$GPGSV,3,2,10,11,16,265,37,14,30,188,44,17,77,068,46,19,68,336,45,1*6A
$GPGSV,3,3,10,28,,,45,50,47,179,37,1*53
$GPGSV,2,1,07,03,36,046,39,04,22,096,33,06,51,290,41,09,21,131,34,6*60
$GPGSV,2,2,07,11,16,265,32,14,30,188,35,17,77,068,38,6*51
$GPGSV,1,1,04,01,10,069,,02,12,270,,12,10,323,,20,04,221,,0*6D
$GLGSV,2,1,07,70,32,043,21,71,52,111,45,72,23,167,38,76,24,238,38,1*75
$GLGSV,2,2,07,77,27,293,27,85,26,076,41,87,23,304,36,1*46
$GLGSV,2,1,05,71,52,111,41,72,23,167,31,76,24,238,35,77,27,293,32,3*7B
$GLGSV,2,2,05,85,26,076,42,3*41
$GLGSV,1,1,02,78,03,342,,86,53,019,,0*72
$GAGSV,2,1,08,01,22,313,36,03,25,069,41,08,29,127,42,13,64,335,41,2*77
$GAGSV,2,2,08,15,37,061,43,21,45,260,42,26,23,277,38,27,27,196,41,2*79
$GAGSV,3,1,09,01,22,313,33,03,25,069,38,08,29,127,43,13,64,335,45,7*7C
$GAGSV,3,2,09,15,37,061,43,18,34,117,41,21,45,260,42,26,23,277,35,7*76
$GAGSV,3,3,09,27,27,196,43,7*43
$GAGSV,1,1,01,07,05,172,,0*43
$GBGSV,3,1,12,01,43,152,45,02,28,236,36,03,44,206,42,04,35,132,41,1*7A
$GBGSV,3,2,12,07,67,218,43,08,53,256,41,10,66,253,42,13,43,251,42,1*72
$GBGSV,3,3,12,27,51,316,46,28,61,068,45,33,48,071,45,37,10,218,35,1*73
$GBGSV,2,1,07,02,28,236,36,03,44,206,36,07,67,218,45,08,53,256,41,3*7E
$GNRMC,043201.00,A,3726.9369720,N,12639.2341868,E,0.013,,210622,,,R,V*09
$GNVTG,,T,,M,0.013,N,0.024,K,D*3C
$GNGNS,043201.00,3726.9369720,N,12639.2341868,E,RRRR,27,0.62,15.653,17.837,2.0,4095,V*00
$GNGGA,043201.00,3726.9369720,N,12639.2341868,E,4,12,0.62,15.653,M,17.837,M,2.0,4095*53
$GNGSA,A,3,09,03,04,14,06,11,17,19,,,,,1.20,0.62,1.03,1*07
$GNGSA,A,3,85,76,,,,,,,,,,,1.20,0.62,1.03,2*0B
$GNGSA,A,3,03,01,26,27,21,15,13,,,,,,1.20,0.62,1.03,3*00
$GNGSA,A,3,01,27,33,03,08,04,07,13,28,10,,,1.20,0.62,1.03,4*04
$GPGSV,3,1,10,03,36,046,43,04,22,096,34,06,51,290,44,09,21,131,34,1*6F
$GPGSV,3,2,10,11,16,265,36,14,30,188,44,17,77,068,46,19,68,336,45,1*6B
$GPGSV,3,3,10,28,,,45,50,47,179,36,1*52
$GPGSV,2,1,07,03,36,046,39,04,22,096,33,06,51,290,41,09,21,131,34,6*60
$GPGSV,2,2,07,11,16,265,32,14,30,188,35,17,77,068,38,6*51
$GPGSV,1,1,04,01,10,069,,02,12,270,,12,10,323,,20,04,221,,0*6D
$GLGSV,2,1,07,70,32,043,21,71,52,111,45,72,23,167,38,76,24,238,38,1*75
$GLGSV,2,2,07,77,27,293,27,85,26,076,41,87,23,304,36,1*46
$GLGSV,2,1,05,71,52,111,41,72,23,167,31,76,24,238,36,77,27,293,32,3*78
$GLGSV,2,2,05,85,26,076,42,3*41
$GLGSV,1,1,02,78,03,342,,86,53,019,,0*72
$GAGSV,2,1,08,01,22,313,36,03,25,069,41,08,29,127,42,13,64,335,41,2*77
$GAGSV,2,2,08,15,37,061,43,21,45,260,42,26,23,277,38,27,27,196,41,2*79
$GAGSV,3,1,09,01,22,313,33,03,25,069,38,08,29,127,43,13,64,335,45,7*7C
$GAGSV,3,2,09,15,37,061,43,18,34,117,41,21,45,260,42,26,23,277,35,7*76
$GAGSV,3,3,09,27,27,196,43,7*43
$GAGSV,1,1,01,07,05,172,,0*43
$GBGSV,3,1,12,01,43,152,45,02,28,236,36,03,44,206,42,04,35,132,41,1*7A
$GBGSV,3,2,12,07,67,218,43,08,53,256,41,10,66,253,42,13,43,251,42,1*72
$GBGSV,3,3,12,27,51,316,46,28,61,068,45,33,48,071,45,37,10,218,35,1*73
$GBGSV,2,1,07,02,28,236,36,03,44,206,36,07,67,218,45,08,53,256,41,3*7E
$GBGSV,2,2,07,10,66,253,45,13,43,251,41,14,27,048,33,3*4D
$GBGSV,1,1,03,05,08,256,,15,28,186,,30,05,295,,0*41
$GNRMC,043202.00,A,3726.9369729,N,12639.2341884,E,0.011,,210622,,,R,V*03
$GNVTG,,T,,M,0.011,N,0.021,K,D*3B
$GNGNS,043202.00,3726.9369729,N,12639.2341884,E,RRRR,27,0.62,15.652,17.837,2.0,4095,V*09
$GNGGA,043202.00,3726.9369729,N,12639.2341884,E,4,12,0.62,15.652,M,17.837,M,2.0,4095*5A
$GNGSA,A,3,09,03,04,14,06,11,17,19,,,,,1.20,0.62,1.03,1*07
$GNGSA,A,3,85,76,,,,,,,,,,,1.20,0.62,1.03,2*0B
$GNGSA,A,3,03,01,26,27,21,15,13,,,,,,1.20,0.62,1.03,3*00
$GNGSA,A,3,01,27,33,03,08,04,07,13,28,10,,,1.20,0.62,1.03,4*04
$GPGSV,3,1,10,03,36,046,43,04,22,096,34,06,51,290,44,09,21,131,34,1*6F
$GPGSV,3,2,10,11,16,265,36,14,30,188,44,17,77,068,46,19,68,336,45,1*6B
$GLGSV,1,1,02,78,03,342,,86,53,019,,0*72
$GAGSV,2,1,08,01,22,313,36,03,25,069,42,08,29,127,43,13,64,335,41,2*75
$GAGSV,2,2,08,15,37,061,44,21,45,260,42,26,23,277,38,27,27,196,41,2*7E
$GAGSV,3,1,09,01,22,313,33,03,25,069,38,08,29,127,43,13,64,335,45,7*7C
$GAGSV,3,2,09,15,37,061,43,18,34,117,41,21,45,260,42,26,23,277,35,7*76
$GAGSV,3,3,09,27,27,196,43,7*43
$GAGSV,1,1,01,07,05,172,,0*43
$GBGSV,3,1,12,01,43,152,45,02,28,236,36,03,44,206,42,04,35,132,41,1*7A
$GNRMC,043203.00,A,3726.9369730,N,12639.2341882,E,0.002,,210622,,,R,V*0E
$GNVTG,,T,,M,0.002,N,0.004,K,D*3E
$GNGNS,043203.00,3726.9369730,N,12639.2341882,E,RRRR,27,0.62,15.650,17.837,1.0,4095,V*07
$GNGGA,043203.00,3726.9369730,N,12639.2341882,E,4,12,0.62,15.650,M,17.837,M,1.0,4095*54
$GNGSA,A,3,09,03,04,14,06,11,17,19,,,,,1.20,0.62,1.03,1*07
$GNGSA,A,3,85,76,,,,,,,,,,,1.20,0.62,1.03,2*0B
$GNGSA,A,3,03,01,26,27,21,15,13,,,,,,1.20,0.62,1.03,3*00
$GNGSA,A,3,01,27,33,03,08,04,07,13,28,10,,,1.20,0.62,1.03,4*04
$GPGSV,3,1,10,03,36,046,43,04,22,096,34,06,51,290,44,09,21,131,34,1*6F
$GPGSV,3,2,10,11,16,265,36,14,30,188,44,17,77,068,46,19,68,336,45,1*6B
$GPGSV,3,3,10,28,,,44,50,47,179,37,1*52
$GPGSV,2,1,07,03,36,046,39,04,22,096,33,06,51,290,41,09,21,131,35,6*61
$GPGSV,2,2,07,11,16,265,32,14,30,188,35,17,77,068,38,6*51
$GPGSV,1,1,04,01,10,069,,02,12,270,,12,10,323,,20,04,221,,0*6D
$GLGSV,2,1,07,70,32,043,20,71,52,111,45,72,23,167,38,76,24,238,39,1*75
$GLGSV,2,2,07,77,27,293,27,85,26,076,41,87,23,304,36,1*46
$GLGSV,2,1,05,71,52,111,41,72,23,167,31,76,24,238,36,77,27,293,32,3*78
$GLGSV,2,2,05,85,26,076,42,3*41
$GLGSV,1,1,02,78,03,342,,86,53,019,,0*72
$GAGSV,2,1,08,01,22,313,36,03,25,069,41,08,29,127,42,13,64,335,41,2*77
$GAGSV,2,2,08,15,37,061,43,21,45,260,42,26,23,277,38,27,27,196,41,2*79
$GAGSV,3,1,09,01,22,313,34,03,25,069,38,08,29,127,43,13,64,335,45,7*7B
$GAGSV,3,2,09,15,37,061,43,18,34,117,41,21,45,260,42,26,23,277,35,7*76
$GAGSV,3,3,09,27,27,196,43,7*43
$GAGSV,1,1,01,07,05,172,,0*43
$GBGSV,3,1,12,01,43,152,45,02,28,236,36,03,44,206,42,04,35,132,41,1*7A
$GBGSV,3,2,12,07,67,218,43,08,53,256,41,10,66,253,42,13,43,251,42,1*72
$GBGSV,3,3,12,27,51,316,46,28,61,068,45,33,48,071,45,37,10,218,35,1*73
$GBGSV,2,1,07,02,28,236,36,03,44,206,35,07,67,218,45,08,53,256,41,3*7D
$GBGSV,2,2,07,10,66,253,44,13,43,251,41,14,27,048,33,3*4C
$GBGSV,1,1,03,05,08,256,,15,28,186,,30,05,295,,0*41
$GNRMC,043204.00,A,3726.9369737,N,12639.2341892,E,0.010,,210622,,,R,V*0C
$GNVTG,,T,,M,0.010,N,0.019,K,D*31
$GNGNS,043204.00,3726.9369737,N,12639.2341892,E,RRRR,27,0.62,15.646,17.837,2.0,4095,V*02
$GNGGA,043204.00,3726.9369737,N,12639.2341892,E,4,12,0.62,15.646,M,17.837,M,2.0,4095*51
$GNGSA,A,3,09,03,04,14,06,11,17,19,,,,,1.20,0.62,1.03,1*07
$GNGSA,A,3,85,76,,,,,,,,,,,1.20,0.62,1.03,2*0B
$GNGSA,A,3,03,01,26,27,21,15,13,,,,,,1.20,0.62,1.03,3*00
$GNGSA,A,3,01,27,33,03,08,04,07,13,28,10,,,1.20,0.62,1.03,4*04
$GPGSV,3,1,10,03,36,046,43,04,22,096,35,06,51,290,44,09,21,131,35,1*6F
$GPGSV,3,2,10,11,16,265,36,14,30,188,44,17,77,068,46,19,68,336,45,1*6B
$GPGSV,3,3,10,28,,,44,50,47,179,36,1*53
$GPGSV,2,1,07,03,36,046,39,04,22,096,33,06,51,290,41,09,21,131,35,6*61
$GPGSV,2,2,07,11,16,265,33,14,30,188,35,17,77,068,38,6*50
$GPGSV,1,1,04,01,10,069,,02,12,270,,12,10,323,,20,04,221,,0*6D
$GLGSV,2,1,07,70,32,043,21,71,52,111,45,72,23,167,38,76,24,238,39,1*74
$GLGSV,2,2,07,77,27,293,28,85,26,076,41,87,23,304,36,1*49
