$GPGSA,A,3,01,02,03,04,05,06,07,08,09,10,11,12,2.9,2.9,0.6*37
$GPGSV,3,1,12,01,45,045,50,02,45,045,50,03,45,045,50,04,45,045,50*7c
$GPGSV,3,2,12,05,45,045,50,06,45,045,50,07,45,045,50,08,45,045,50*77
$GPGSV,3,3,12,09,45,045,50,10,45,045,50,11,45,045,50,12,45,045,50*71
$GPRMC,040315.99,A,3726.8809,N,12639.1952,E,0.0,129.4,210622,0.0,E,A*34
$GPVTG,129.4,T,0.0,M,0.0,N,0.0,K*40
$GPGGA,040315.99,3726.8809,N,12639.1952,E,12,12,2.9,5.5,M,0.0,M,0.0,0000*42
$GPGSA,A,3,01,02,03,04,05,06,07,08,09,10,11,12,2.9,2.9,0.6*37
$GPGSV,3,1,12,01,45,045,50,02,45,045,50,03,45,045,50,04,45,045,50*7c
$GPGSV,3,2,12,05,45,045,50,06,45,045,50,07,45,045,50,08,45,045,50*77
$GPGSV,3,3,12,09,45,045,50,10,45,045,50,11,45,045,50,12,45,045,50*71
$GPRMC,040316.99,A,3726.8809,N,12639.1952,E,0.0,129.4,210622,0.0,E,A*37
$GPVTG,129.4,T,0.0,M,0.0,N,0.0,K*40
$GPGGA,040316.99,3726.8809,N,12639.1952,E,12,12,2.9,5.5,M,0.0,M,0.0,0000*41
$GPGSA,A,3,01,02,03,04,05,06,07,08,09,10,11,12,2.9,2.9,0.6*37
$GPGSV,3,1,12,01,45,045,50,02,45,045,50,03,45,045,50,04,45,045,50*7c
$GPGSV,3,2,12,05,45,045,50,06,45,045,50,07,45,045,50,08,45,045,50*77
$GPGSV,3,3,12,09,45,045,50,10,45,045,50,11,45,045,50,12,45,045,50*71
$GPRMC,040318.00,A,3726.8808,N,12639.1952,E,0.0,129.4,210622,0.0,E,A*38
$GPVTG,129.4,T,0.0,M,0.0,N,0.0,K*40
$GPGGA,040318.00,3726.8808,N,12639.1952,E,12,12,2.9,5.6,M,0.0,M,0.0,0000*4d
$GPGSA,A,3,01,02,03,04,05,06,07,08,09,10,11,12,3.5,3.2,1.3*34
$GPGSV,3,1,12,01,45,045,50,02,45,045,50,03,45,045,50,04,45,045,50*7c
$GPGSV,3,2,12,05,45,045,50,06,45,045,50,07,45,045,50,08,45,045,50*77
$GPGSV,3,3,12,09,45,045,50,10,45,045,50,11,45,045,50,12,45,045,50*71
$GPRMC,040319.00,A,3726.8808,N,12639.1952,E,0.0,129.4,210622,0.0,E,A*39
$GPVTG,129.4,T,0.0,M,0.0,N,0.0,K*40
$GPGGA,040319.00,3726.8808,N,12639.1952,E,12,12,3.2,5.6,M,0.0,M,0.0,0000*46
$GPGSA,A,3,01,02,03,04,05,06,07,08,09,10,11,12,3.5,3.2,1.3*34
$GPGSV,3,1,12,01,45,045,50,02,45,045,50,03,45,045,50,04,45,045,50*7c
$GPGSV,3,2,12,05,45,045,50,06,45,045,50,07,45,045,50,08,45,045,50*77
$GPGSV,3,3,12,09,45,045,50,10,45,045,50,11,45,045,50,12,45,045,50*71
$GPRMC,040319.99,A,3726.8808,N,12639.1952,E,0.0,129.4,210622,0.0,E,A*39
$GPVTG,129.4,T,0.0,M,0.0,N,0.0,K*40
$GPGGA,040319.99,3726.8808,N,12639.1952,E,12,12,3.2,5.6,M,0.0,M,0.0,0000*46
$GPGSA,A,3,01,02,03,04,05,06,07,08,09,10,11,12,3.5,3.2,1.3*34
$GPGSV,3,1,12,01,45,045,50,02,45,045,50,03,45,045,50,04,45,045,50*7c
$GPGSV,3,2,12,05,45,045,50,06,45,045,50,07,45,045,50,08,45,045,50*77
$GPGSV,3,3,12,09,45,045,50,10,45,045,50,11,45,045,50,12,45,045,50*71
$GPRMC,040320.99,A,3726.8808,N,12639.1952,E,0.0,129.4,210622,0.0,E,A*33
$GPVTG,129.4,T,0.0,M,0.0,N,0.0,K*40
$GPGGA,040320.99,3726.8808,N,12639.1952,E,12,12,3.2,5.6,M,0.0,M,0.0,0000*4c
$GPGSA,A,3,01,02,03,04,05,06,07,08,09,10,11,12,3.5,3.2,1.3*34
$GPGSV,3,1,12,01,45,045,50,02,45,045,50,03,45,045,50,04,45,045,50*7c
$GPGSV,3,2,12,05,45,045,50,06,45,045,50,07,45,045,50,08,45,045,50*77
$GPGSV,3,3,12,09,45,045,50,10,45,045,50,11,45,045,50,12,45,045,50*71
$GPRMC,040321.99,A,3726.8808,N,12639.1952,E,0.0,129.4,210622,0.0,E,A*32
$GPVTG,129.4,T,0.0,M,0.0,N,0.0,K*40
$GPGGA,040321.99,3726.8808,N,12639.1952,E,12,12,3.2,5.6,M,0.0,M,0.0,0000*4d
$GPGSA,A,3,01,02,03,04,05,06,07,08,09,10,11,12,3.5,3.2,1.3*34
$GPGSV,3,1,12,01,45,045,50,02,45,045,50,03,45,045,50,04,45,045,50*7c
$GPGSV,3,2,12,05,45,045,50,06,45,045,50,07,45,045,50,08,45,045,50*77
$GPGSV,3,3,12,09,45,045,50,10,45,045,50,11,45,045,50,12,45,045,50*71
$GPRMC,040322.99,A,3726.8808,N,12639.1952,E,0.0,129.4,210622,0.0,E,A*31
$GPVTG,129.4,T,0.0,M,0.0,N,0.0,K*40
$GPGGA,040322.99,3726.8808,N,12639.1952,E,12,12,3.2,5.6,M,0.0,M,0.0,0000*4e
$GPGSA,A,3,01,02,03,04,05,06,07,08,09,10,11,12,3.5,3.2,1.3*34
$GPGSV,3,1,12,01,45,045,50,02,45,045,50,03,45,045,50,04,45,045,50*7c
$GPGSV,3,2,12,05,45,045,50,06,45,045,50,07,45,045,50,08,45,045,50*77
$GPGSV,3,3,12,09,45,045,50,10,45,045,50,11,45,045,50,12,45,045,50*71
$GPRMC,040324.00,A,3726.8808,N,12639.1952,E,0.0,129.4,210622,0.0,E,A*37
$GPVTG,129.4,T,0.0,M,0.0,N,0.0,K*40
$GPGGA,040324.00,3726.8808,N,12639.1952,E,12,12,3.2,5.6,M,0.0,M,0.0,0000*48
$GPGSA,A,3,01,02,03,04,05,06,07,08,09,10,11,12,3.5,3.2,1.3*34
$GPGSV,3,1,12,01,45,045,50,02,45,045,50,03,45,045,50,04,45,045,50*7c
$GPGSV,3,2,12,05,45,045,50,06,45,045,50,07,45,045,50,08,45,045,50*77
$GPGSV,3,3,12,09,45,045,50,10,45,045,50,11,45,045,50,12,45,045,50*71
$GPRMC,040325.00,A,3726.8808,N,12639.1952,E,0.0,129.4,210622,0.0,E,A*36
$GPVTG,129.4,T,0.0,M,0.0,N,0.0,K*40
$GPGGA,040325.00,3726.8808,N,12639.1952,E,12,12,3.2,5.6,M,0.0,M,0.0,0000*49
$GPGSA,A,3,01,02,03,04,05,06,07,08,09,10,11,12,3.5,3.2,1.3*34
$GPGSV,3,1,12,01,45,045,50,02,45,045,50,03,45,045,50,04,45,045,50*7c
$GPGSV,3,2,12,05,45,045,50,06,45,045,50,07,45,045,50,08,45,045,50*77
$GPGSV,3,3,12,09,45,045,50,10,45,045,50,11,45,045,50,12,45,045,50*71
$GPRMC,040326.00,A,3726.8808,N,12639.1952,E,0.0,129.4,210622,0.0,E,A*35
$GPVTG,129.4,T,0.0,M,0.0,N,0.0,K*40
$GPGGA,040326.00,3726.8808,N,12639.1952,E,12,12,3.2,5.6,M,0.0,M,0.0,0000*4a
$GPGSA,A,3,01,02,03,04,05,06,07,08,09,10,11,12,3.5,3.2,1.3*34
$GPGSV,3,1,12,01,45,045,50,02,45,045,50,03,45,045,50,04,45,045,50*7c
$GPGSV,3,2,12,05,45,045,50,06,45,045,50,07,45,045,50,08,45,045,50*77
$GPGSV,3,3,12,09,45,045,50,10,45,045,50,11,45,045,50,12,45,045,50*71
$GPRMC,040327.00,A,3726.8808,N,12639.1952,E,0.0,129.4,210622,0.0,E,A*34
$GPVTG,129.4,T,0.0,M,0.0,N,0.0,K*40
$GPGGA,040327.00,3726.8808,N,12639.1952,E,12,12,3.2,5.6,M,0.0,M,0.0,0000*4b
$GPGSA,A,3,01,02,03,04,05,06,07,08,09,10,11,12,3.5,3.2,1.3*34
$GPGSV,3,1,12,01,45,045,50,02,45,045,50,03,45,045,50,04,45,045,50*7c
$GPGSV,3,2,12,05,45,045,50,06,45,045,50,07,45,045,50,08,45,045,50*77
$GPGSV,3,3,12,09,45,045,50,10,45,045,50,11,45,045,50,12,45,045,50*71
$GPRMC,040328.00,A,3726.8808,N,12639.1952,E,0.0,129.4,210622,0.0,E,A*3b
$GPVTG,129.4,T,0.0,M,0.0,N,0.0,K*40
$GPGGA,040328.00,3726.8808,N,12639.1952,E,12,12,3.2,5.6,M,0.0,M,0.0,0000*44
$GPGSA,A,3,01,02,03,04,05,06,07,08,09,10,11,12,3.5,3.2,1.3*34
$GPGSV,3,1,12,01,45,045,50,02,45,045,50,03,45,045,50,04,45,045,50*7c
$GPGSV,3,2,12,05,45,045,50,06,45,045,50,07,45,045,50,08,45,045,50*77
$GPGSV,3,3,12,09,45,045,50,10,45,045,50,11,45,045,50,12,45,045,50*71
$GPRMC,040328.99,A,3726.8808,N,12639.1952,E,0.0,129.4,210622,0.0,E,A*3b
$GPVTG,129.4,T,0.0,M,0.0,N,0.0,K*40
$GPGGA,040328.99,3726.8808,N,12639.1952,E,12,12,3.2,5.6,M,0.0,M,0.0,0000*44
$GPGSA,A,3,01,02,03,04,05,06,07,08,09,10,11,12,3.5,3.2,1.3*34
$GPGSV,3,1,12,01,45,045,50,02,45,045,50,03,45,045,50,04,45,045,50*7c
$GPGSV,3,2,12,05,45,045,50,06,45,045,50,07,45,045,50,08,45,045,50*77
$GPGSV,3,3,12,09,45,045,50,10,45,045,50,11,45,045,50,12,45,045,50*71
$GPRMC,040329.99,A,3726.8808,N,12639.1952,E,0.0,129.4,210622,0.0,E,A*3a
$GPVTG,129.4,T,0.0,M,0.0,N,0.0,K*40
$GPGGA,040329.99,3726.8808,N,12639.1952,E,12,12,3.2,5.6,M,0.0,M,0.0,0000*45
$GPGSA,A,3,01,02,03,04,05,06,07,08,09,10,11,12,3.5,3.2,1.3*34
$GPGSV,3,1,12,01,45,045,50,02,45,045,50,03,45,045,50,04,45,045,50*7c
$GPGSV,3,2,12,05,45,045,50,06,45,045,50,07,45,045,50,08,45,045,50*77
$GPGSV,3,3,12,09,45,045,50,10,45,045,50,11,45,045,50,12,45,045,50*71
$GPRMC,040331.00,A,3726.8808,N,12639.1952,E,0.0,129.4,210622,0.0,E,A*33
$GPVTG,129.4,T,0.0,M,0.0,N,0.0,K*40
$GPGGA,040331.00,3726.8808,N,12639.1952,E,12,12,3.2,5.6,M,0.0,M,0.0,0000*4c
$GPGSA,A,3,01,02,03,04,05,06,07,08,09,10,11,12,3.5,3.2,1.3*34
$GPGSV,3,1,12,01,45,045,50,02,45,045,50,03,45,045,50,04,45,045,50*7c
$GPGSV,3,2,12,05,45,045,50,06,45,045,50,07,45,045,50,08,45,045,50*77
$GPGSV,3,3,12,09,45,045,50,10,45,045,50,11,45,045,50,12,45,045,50*71
$GPRMC,040332.00,A,3726.8808,N,12639.1952,E,0.0,129.4,210622,0.0,E,A*30
$GPVTG,129.4,T,0.0,M,0.0,N,0.0,K*40
$GPGGA,040332.00,3726.8808,N,12639.1952,E,12,12,3.2,5.6,M,0.0,M,0.0,0000*4f
$GPGSA,A,3,01,02,03,04,05,06,07,08,09,10,11,12,3.5,3.2,1.3*34
$GPGSV,3,1,12,01,45,045,50,02,45,045,50,03,45,045,50,04,45,045,50*7c
$GPGSV,3,2,12,05,45,045,50,06,45,045,50,07,45,045,50,08,45,045,50*77
$GPGSV,3,3,12,09,45,045,50,10,45,045,50,11,45,045,50,12,45,045,50*71
$GPRMC,040333.00,A,3726.8808,N,12639.1952,E,0.0,129.4,210622,0.0,E,A*31
$GPVTG,129.4,T,0.0,M,0.0,N,0.0,K*40
$GPGGA,040333.00,3726.8808,N,12639.1952,E,12,12,3.2,5.6,M,0.0,M,0.0,0000*4e
$GPGSA,A,3,01,02,03,04,05,06,07,08,09,10,11,12,3.5,3.2,1.3*34
$GPGSV,3,1,12,01,45,045,50,02,45,045,50,03,45,045,50,04,45,045,50*7c
$GPGSV,3,2,12,05,45,045,50,06,45,045,50,07,45,045,50,08,45,045,50*77
$GPGSV,3,3,12,09,45,045,50,10,45,045,50,11,45,045,50,12,45,045,50*71
$GPRMC,040334.00,A,3726.8808,N,12639.1952,E,0.0,129.4,210622,0.0,E,A*36
$GPVTG,129.4,T,0.0,M,0.0,N,0.0,K*40
$GPGGA,040334.00,3726.8808,N,12639.1952,E,12,12,3.2,5.6,M,0.0,M,0.0,0000*49
$GPGSA,A,3,01,02,03,04,05,06,07,08,09,10,11,12,3.5,3.2,1.3*34
$GPGSV,3,1,12,01,45,045,50,02,45,045,50,03,45,045,50,04,45,045,50*7c
$GPGSV,3,2,12,05,45,045,50,06,45,045,50,07,45,045,50,08,45,045,50*77
$GPGSV,3,3,12,09,45,045,50,10,45,045,50,11,45,045,50,12,45,045,50*71
$GPRMC,040335.00,A,3726.8808,N,12639.1952,E,0.0,129.4,210622,0.0,E,A*37
$GPVTG,129.4,T,0.0,M,0.0,N,0.0,K*40
$GPGGA,040335.00,3726.8808,N,12639.1952,E,12,12,3.2,5.6,M,0.0,M,0.0,0000*48
$GPGSA,A,3,01,02,03,04,05,06,07,08,09,10,11,12,3.5,3.2,1.3*34
$GPGSV,3,1,12,01,45,045,50,02,45,045,50,03,45,045,50,04,45,045,50*7c
$GPGSV,3,2,12,05,45,045,50,06,45,045,50,07,45,045,50,08,45,045,50*77
$GPGSV,3,3,12,09,45,045,50,10,45,045,50,11,45,045,50,12,45,045,50*71
$GPRMC,040336.00,A,3726.8808,N,12639.1952,E,0.0,129.4,210622,0.0,E,A*34
$GPVTG,129.4,T,0.0,M,0.0,N,0.0,K*40
$GPGGA,040336.00,3726.8808,N,12639.1952,E,12,12,3.2,5.6,M,0.0,M,0.0,0000*4b
$GPGSA,A,3,01,02,03,04,05,06,07,08,09,10,11,12,3.5,3.2,1.3*34
$GPGSV,3,1,12,01,45,045,50,02,45,045,50,03,45,045,50,04,45,045,50*7c
$GPGSV,3,2,12,05,45,045,50,06,45,045,50,07,45,045,50,08,45,045,50*77
$GPGSV,3,3,12,09,45,045,50,10,45,045,50,11,45,045,50,12,45,045,50*71
$GPRMC,040337.00,A,3726.8808,N,12639.1952,E,0.0,129.4,210622,0.0,E,A*35
$GPVTG,129.4,T,0.0,M,0.0,N,0.0,K*40
$GPGGA,040337.00,3726.8808,N,12639.1952,E,12,12,3.2,5.6,M,0.0,M,0.0,0000*4a
$GPGSA,A,3,01,02,03,04,05,06,07,08,09,10,11,12,3.5,3.2,1.3*34
$GPGSV,3,1,12,01,45,045,50,02,45,045,50,03,45,045,50,04,45,045,50*7c
$GPGSV,3,2,12,05,45,045,50,06,45,045,50,07,45,045,50,08,45,045,50*77
$GPGSV,3,3,12,09,45,045,50,10,45,045,50,11,45,045,50,12,45,045,50*71
$GPRMC,040338.00,A,3726.8808,N,12639.1952,E,0.0,129.4,210622,0.0,E,A*3a
$GPVTG,129.4,T,0.0,M,0.0,N,0.0,K*40
$GPGGA,040338.00,3726.8808,N,12639.1952,E,12,12,3.2,5.6,M,0.0,M,0.0,0000*45
$GPGSA,A,3,01,02,03,04,05,06,07,08,09,10,11,12,3.5,2.8,2.0*3f
$GPGSV,3,1,12,01,45,045,50,02,45,045,50,03,45,045,50,04,45,045,50*7c
$GPGSV,3,2,12,05,45,045,50,06,45,045,50,07,45,045,50,08,45,045,50*77
$GPGSV,3,3,12,09,45,045,50,10,45,045,50,11,45,045,50,12,45,045,50*71
$GPRMC,040339.00,A,3726.8808,N,12639.1952,E,0.0,129.4,210622,0.0,E,A*3b
$GPVTG,129.4,T,0.0,M,0.0,N,0.0,K*40
$GPGGA,040339.00,3726.8808,N,12639.1952,E,12,12,2.8,5.6,M,0.0,M,0.0,0000*4f
$GPGSA,A,3,01,02,03,04,05,06,07,08,09,10,11,12,3.5,2.8,2.0*3f
$GPGSV,3,1,12,01,45,045,50,02,45,045,50,03,45,045,50,04,45,045,50*7c
$GPGSV,3,2,12,05,45,045,50,06,45,045,50,07,45,045,50,08,45,045,50*77
$GPGSV,3,3,12,09,45,045,50,10,45,045,50,11,45,045,50,12,45,045,50*71
$GPRMC,040340.00,A,3726.8808,N,12639.1952,E,0.0,129.4,210622,0.0,E,A*35
$GPVTG,129.4,T,0.0,M,0.0,N,0.0,K*40
$GPGGA,040340.00,3726.8808,N,12639.1952,E,12,12,2.8,5.6,M,0.0,M,0.0,0000*41
$GPGSA,A,3,01,02,03,04,05,06,07,08,09,10,11,12,3.5,2.8,2.0*3f
$GPGSV,3,1,12,01,45,045,50,02,45,045,50,03,45,045,50,04,45,045,50*7c
$GPGSV,3,2,12,05,45,045,50,06,45,045,50,07,45,045,50,08,45,045,50*77
$GPGSV,3,3,12,09,45,045,50,10,45,045,50,11,45,045,50,12,45,045,50*71
$GPRMC,040341.00,A,3726.8808,N,12639.1952,E,0.0,129.4,210622,0.0,E,A*34
$GPVTG,129.4,T,0.0,M,0.0,N,0.0,K*40
$GPGGA,040341.00,3726.8808,N,12639.1952,E,12,12,2.8,5.6,M,0.0,M,0.0,0000*40
$GPGSA,A,3,01,02,03,04,05,06,07,08,09,10,11,12,3.5,2.8,2.0*3f
$GPGSV,3,1,12,01,45,045,50,02,45,045,50,03,45,045,50,04,45,045,50*7c
$GPGSV,3,2,12,05,45,045,50,06,45,045,50,07,45,045,50,08,45,045,50*77
$GPGSV,3,3,12,09,45,045,50,10,45,045,50,11,45,045,50,12,45,045,50*71
$GPRMC,040342.00,A,3726.8808,N,12639.1952,E,0.0,129.4,210622,0.0,E,A*37
$GPVTG,129.4,T,0.0,M,0.0,N,0.0,K*40
$GPGGA,040342.00,3726.8808,N,12639.1952,E,12,12,2.8,5.6,M,0.0,M,0.0,0000*43
$GPGSA,A,3,01,02,03,04,05,06,07,08,09,10,11,12,3.5,2.8,2.0*3f
$GPGSV,3,1,12,01,45,045,50,02,45,045,50,03,45,045,50,04,45,045,50*7c
$GPGSV,3,2,12,05,45,045,50,06,45,045,50,07,45,045,50,08,45,045,50*77
$GPGSV,3,3,12,09,45,045,50,10,45,045,50,11,45,045,50,12,45,045,50*71
$GPRMC,040343.00,A,3726.8808,N,12639.1952,E,0.0,129.4,210622,0.0,E,A*36
$GPVTG,129.4,T,0.0,M,0.0,N,0.0,K*40
$GPGGA,040343.00,3726.8808,N,12639.1952,E,12,12,2.8,5.6,M,0.0,M,0.0,0000*42
$GPGSA,A,3,01,02,03,04,05,06,07,08,09,10,11,12,3.5,2.8,2.0*3f
$GPGSV,3,1,12,01,45,045,50,02,45,045,50,03,45,045,50,04,45,045,50*7c
$GPGSV,3,2,12,05,45,045,50,06,45,045,50,07,45,045,50,08,45,045,50*77
$GPGSV,3,3,12,09,45,045,50,10,45,045,50,11,45,045,50,12,45,045,50*71
$GPRMC,040344.00,A,3726.8808,N,12639.1952,E,0.0,129.4,210622,0.0,E,A*31
$GPVTG,129.4,T,0.0,M,0.0,N,0.0,K*40
$GPGGA,040344.00,3726.8808,N,12639.1952,E,12,12,2.8,5.6,M,0.0,M,0.0,0000*45
$GPGSA,A,3,01,02,03,04,05,06,07,08,09,10,11,12,3.5,2.8,2.0*3f
$GPGSV,3,1,12,01,45,045,50,02,45,045,50,03,45,045,50,04,45,045,50*7c
$GPGSV,3,2,12,05,45,045,50,06,45,045,50,07,45,045,50,08,45,045,50*77
$GPGSV,3,3,12,09,45,045,50,10,45,045,50,11,45,045,50,12,45,045,50*71
$GPRMC,040345.00,A,3726.8808,N,12639.1952,E,0.0,129.4,210622,0.0,E,A*30
$GPVTG,129.4,T,0.0,M,0.0,N,0.0,K*40
$GPGGA,040345.00,3726.8808,N,12639.1952,E,12,12,2.8,5.6,M,0.0,M,0.0,0000*44
$GPGSA,A,3,01,02,03,04,05,06,07,08,09,10,11,12,3.5,2.8,2.0*3f
$GPGSV,3,1,12,01,45,045,50,02,45,045,50,03,45,045,50,04,45,045,50*7c
$GPGSV,3,2,12,05,45,045,50,06,45,045,50,07,45,045,50,08,45,045,50*77
$GPGSV,3,3,12,09,45,045,50,10,45,045,50,11,45,045,50,12,45,045,50*71
$GPRMC,040346.00,A,3726.8808,N,12639.1952,E,0.0,129.4,210622,0.0,E,A*33
$GPVTG,129.4,T,0.0,M,0.0,N,0.0,K*40
$GPGGA,040346.00,3726.8808,N,12639.1952,E,12,12,2.8,5.6,M,0.0,M,0.0,0000*47
$GPGSA,A,3,01,02,03,04,05,06,07,08,09,10,11,12,3.5,2.8,2.0*3f
$GPGSV,3,1,12,01,45,045,50,02,45,045,50,03,45,045,50,04,45,045,50*7c
$GPGSV,3,2,12,05,45,045,50,06,45,045,50,07,45,045,50,08,45,045,50*77
$GPGSV,3,3,12,09,45,045,50,10,45,045,50,11,45,045,50,12,45,045,50*71
$GPRMC,040347.00,A,3726.8808,N,12639.1952,E,0.0,129.4,210622,0.0,E,A*32
$GPVTG,129.4,T,0.0,M,0.0,N,0.0,K*40
$GPGGA,040347.00,3726.8808,N,12639.1952,E,12,12,2.8,5.6,M,0.0,M,0.0,0000*46
