$GNRMC,042253.00,A,3727.0689791,N,12639.3444886,E,0.025,,220622,,,R,V*03
$GNVTG,,T,,M,0.025,N,0.047,K,D*3C
$GNGNS,042253.00,3727.0689791,N,12639.3444886,E,RRRR,28,0.75,26.823,17.840,,4095,V*20
$GNGGA,042253.00,3727.0689791,N,12639.3444886,E,4,12,0.75,26.823,M,17.840,M,,4095*7C
$GNGSA,A,3,17,03,09,19,06,01,04,,,,,,1.48,0.75,1.28,1*02
$GNGSA,A,3,65,78,88,72,71,77,87,,,,,,1.48,0.75,1.28,2*06
$GNGSA,A,3,34,09,30,05,36,,,,,,,,1.48,0.75,1.28,3*0A
$GNGSA,A,3,04,28,07,11,14,10,08,13,37,,,,1.48,0.75,1.28,4*03
$GPGSV,2,2,07,09,19,132,38,17,77,060,45,19,66,334,42,1*52
$GPGSV,2,1,05,01,12,067,32,03,38,047,33,04,21,098,32,06,49,287,35,6*6B
$GPGSV,2,2,05,17,77,060,39,6*5C
$GPGSV,2,1,08,02,11,269,,11,15,263,,12,09,324,,14,32,189,,0*69
$GPGSV,2,2,08,14,32,189,,20,02,220,,40,06,259,,41,27,238,,0*6C
$GLGSV,2,1,06,65,23,167,12,71,32,044,38,72,50,110,49,78,26,300,36,1*70
$GLGSV,2,2,06,87,53,001,44,88,27,305,41,1*70
$GLGSV,2,1,06,65,23,167,10,71,32,044,26,72,50,110,38,77,25,238,11,3*7A
$GLGSV,2,2,06,78,26,300,33,88,27,305,36,3*72
$GLGSV,1,1,03,76,01,198,,79,01,344,,86,23,076,,0*48
$GAGSV,1,1,04,09,30,093,42,30,40,286,43,34,51,298,35,36,55,040,40,2*7B
$GAGSV,2,1,06,05,20,148,18,09,30,093,44,18,46,307,48,30,40,286,42,7*7B
$GAGSV,2,2,06,34,51,298,43,36,55,040,45,7*72
$GAGSV,2,1,06,02,39,215,,04,11,043,,11,13,073,,15,07,269,,0*74
$GAGSV,2,2,06,15,07,269,,25,07,175,,0*7F
$GBGSV,3,1,09,04,35,132,35,07,68,219,39,10,67,256,40,11,42,083,43,1*7F
$GB$GBGSV,3,3,09,37,18,278,26,1*4B
$GBGSV,2,1,07,04,35,132,42,07,68,219,42,08,52,254,28,10,67,256,07,3*71
$GBGSV,2,2,07,11,42,083,42,14,55,131,41,28,41,307,08,3*48
$GBGSV,2,1,06,01,43,152,,02,28,236,,03,44,206,,05,08,256,,0*76
$GBGSV,2,2,06,05,08,256,,23,14,227,,0*7E
$GNRMC,042254.00,A,3727.0689816,N,12639.3444924,E,0.015,,220622,,,R,V*0E
$GNVTG,,T,,M,0.015,N,0.029,K,D*37
$GNGNS,042254.00,3727.0689816,N,12639.3444924,E,RRRR,28,0.74,26.822,17.840,,4095,V*2E
$GNGGA,042254.00,3727.0689816,N,12639.3444924,E,4,12,0.74,26.822,M,17.840,M,,4095*72
$GNGSA,A,3,17,03,09,19,06,01,04,,,,,,1.49,0.74,1.29,1*03
$GNRMC,042255.00,A,3727.0689785,N,12639.3444943,E,0.022,,220622,,,R,V*0F
$GNVTG,,T,,M,0.022,N,0.041,K,D*3D
$GNGNS,042255.00,3727.0689785,N,12639.3444943,E,RRRR,28,0.74,26.839,17.840,,4095,V*21
$GNGGA,042255.00,3727.0689785,N,12639.3444943,E,4,12,0.74,26.839,M,17.840,M,,4095*7D
$GNGSA,A,3,17,03,09,19,06,01,04,,,,,,1.49,0.74,1.29,1*03
$GNGSA,A,3,65,78,88,72,71,77,87,,,,,,1.49,0.74,1.29,2*07
$GNGSA,A,3,34,09,30,05,36,,,,,,,,1.49,0.74,1.29,3*0B
$GNGSA,A,3,04,28,07,11,14,10,08,21,37,,,,1.49,0.74,1.29,4*03
$GPGSV,2,1,07,01,12,067,32,03,38,047,41,04,21,098,41,06,49,287,44,1*69
$GPGSV,2,2,07,09,19,132,39,17,77,060,46,19,66,334,42,1*50
$GPGSV,2,1,05,01,12,067,32,03,38,047,38,04,21,098,31,06,49,287,34,6*62
$GPGSV,2,2,05,17,77,060,39,6*5C
$GPGSV,2,1,08,02,11,269,,11,15,263,,12,09,324,,14,32,189,,0*69
$GPGSV,2,2,08,14,32,189,,20,02,220,,40,06,259,,41,27,238,,0*6C
$GLGSV,2,1,06,65,23,167,10,71,32,044,39,72,50,110,49,78,26,300,29,1*7D
$GLGSV,2,2,06,87,53,001,44,88,27,305,37,1*71
$GLGSV,2,1,06,65,23,167,11,71,32,044,23,72,50,110,38,77,25,238,10,3*7F
$GLGSV,2,2,06,78,26,300,35,88,27,305,32,3*70
$GLGSV,1,1,03,76,01,198,,79,01,344,,86,23,076,,0*48
$GAGSV,1,1,04,09,30,093,41,30,40,286,41,34,51,298,32,36,55,040,35,2*7F
$GAGSV,2,1,06,05,20,148,16,09,30,093,44,18,46,307,47,30,40,286,41,7*79
$GAGSV,2,2,06,34,51,298,42,36,55,040,45,7*73
$GAGSV,2,1,06,02,39,215,,04,11,043,,11,13,073,,15,07,269,,0*74
$GAGSV,2,2,06,15,07,269,,25,07,175,,0*7F
$GBGSV,3,1,09,04,35,132,36,07,68,219,40,10,67,255,40,11,42,084,43,1*76
$GBGSV,3,2,09,13,43,249,20,14,55,131,44,21,15,040,27,28,41,307,43,1*7A
$GBGSV,3,3,09,37,18,278,25,1*48
$GBGSV,2,1,06,04,35,132,42,07,68,219,43,08,52,254,28,11,42,084,41,3*78
$GBGSV,2,2,06,14,55,131,40,28,41,307,07,3*7C
$GBGSV,2,1,06,01,43,152,,02,28,236,,03,44,206,,05,08,256,,0*76
$GBGSV,2,2,06,05,08,256,,23,14,227,,0*7E
$GNRMC,042256.00,A,3727.0689853,N,12639.3444900,E,0.007,,220622,,,R,V*08
$GNVTG,,T,,M,0.007,N,0.013,K,D*3D
$GNGNS,042256.00,3727.0689853,N,12639.3444900,E,RRRR,28,0.68,26.825,17.840,,4095,V*21
$GNGGA,042256.00,3727.0689853,N,12639.3444900,E,4,12,0.68,26.825,M,17.840,M,,4095*7D
$GNGSA,A,3,65,78,88,72,71,77,87,,,,,,1.32,0.68,1.13,2*0F
$GNGSA,A,3,34,09,30,05,36,,,,,,,,1.32,0.68,1.13,3*03
$GNGSA,A,3,04,28,07,11,14,10,08,21,37,,,,1.32,0.68,1.13,4*0B
$GPGSV,2,1,07,01,12,067,32,03,38,047,41,04,21,098,40,06,49,287,44,1*68
$GPGSV,2,2,07,09,19,132,39,17,77,060,46,19,66,334,43,1*51
$GPGSV,2,1,05,01,12,067,32,03,38,047,37,04,21,098,30,06,49,287,35,6*6D
$GPGSV,2,2,05,17,77,060,39,6*5C
$GPGSV,2,1,08,02,11,269,,11,15,263,,12,09,324,,14,32,189,,0*69
$GPGSV,2,2,08,14,32,189,,20,02,220,,40,06,259,,41,27,238,,0*6C
$GLGSV,2,1,06,65,23,167,10,71,32,044,40,72,50,110,49,78,26,300,36,1*7D
$GLGSV,2,2,06,87,53,001,44,88,27,305,41,1*70
$GLGSV,2,1,06,65,23,167,10,71,32,044,23,72,50,110,38,77,25,238,11,3*7F
$GLGSV,2,2,06,78,26,300,33,88,27,305,35,3*71
$GLGSV,1,1,03,76,01,198,,79,01,344,,86,23,076,,0*48
$GAGSV,1,1,04,09,30,093,41,30,40,286,43,34,51,298,35,36,55,040,35,2*7A
$GAGSV,2,1,06,05,20,148,16,09,30,093,43,18,46,307,47,30,40,286,42,7$GAGSV,2,2,06,34,51,298,41,36,55,040,45,7*70
$GAGSV,2,1,06,02,39,215,,04,11,043,,11,13,073,,15,07,269,,0*74
$GAGSV,2,2,06,15,07,269,,25,07,175,,0*7F
$GBGSV,2,1,08,04,35,132,38,07,68,219,41,10,67,255,42,11,42,084,44,1*7C
$GBGSV,2,2,08,14,55,131,45,21,15,040,26,28,41,307,46,37,18,278,26,1*73
$GBGSV,2,1,06,04,35,132,42,07,68,219,43,08,52,254,29,10,67,255,42,3*72
$GBGSV,2,2,06,11,42,084,40,14,55,131,42,3*7C
$GBGSV,2,1,07,01,43,152,,02,28,236,,03,44,206,,05,08,256,,0*77
$GBGSV,2,2,07,05,08,256,,13,43,249,,23,14,227,,0*45
$GNRMC,042257.00,A,3727.0689834,N,12639.3444894,E,0.004,,220622,,,R,V*07
$GNVTG,,T,,M,0.004,N,0.008,K,D*34
$GNGNS,042257.00,3727.0689834,N,12639.3444894,E,RRRR,27,0.74,26.819,17.840,,4095,V*20
$GNGGA,042257.00,3727.0689834,N,12639.3444894,E,4,12,0.74,26.819,M,17.840,M,,4095*73
$GNGSA,A,3,17,03,09,19,06,01,04,,,,,,1.49,0.74,1.29,1*03
$GNGSA,A,3,65,78,88,72,71,77,87,,,,,,1.49,0.74,1.29,2*07
$GNGSA,A,3,34,09,30,05,36,,,,,,,,1.49,0.74,1.29,3*0B
$GNGSA,A,3,04,28,07,11,14,10,08,37,,,,,1.49,0.74,1.29,4*00
$GPGSV,2,1,07,01,12,067,34,03,38,047,42,04,21,098,40,06,49,287,45,1*6C
$GPGSV,2,2,07,09,19,132,40,17,77,060,46,19,66,334,43,1*5F
$GPGSV,2,1,05,01,12,067,32,03,38,047,37,04,21,098,31,06,49,287,38,6*61
$GPGSV,2,2,05,17,77,060,39,6*5C
$GPGSV,2,1,08,02,11,269,,11,15,263,,12,09,324,,14,32,189,,0*69
$GPGSV,2,2,08,14,32,189,,20,02,220,,40,06,259,,41,27,238,,0*6C
$GLGSV,2,1,06,65,23,167,12,71,32,044,40,72,50,110,49,78,26,300,32,1*7B
$GLGSV,2,2,06,87,53,001,44,88,27,305,41,1*70
$GLGSV,2,1,06,65,23,167,09,71,32,044,24,72,50,110,38,77,25,238,10,3*71
$GLGSV,2,2,06,78,26,300,33,88,27,305,35,3*71
$GLGSV,1,1,03,76,01,198,,79,01,344,,86,23,076,,0*48
$GAGSV,1,1,04,09,30,093,42,30,40,286,43,34,51,298,34,36,55,040,35,2*78
$GAGSV,2,1,06,05,20,148,18,09,30,093,42,18,46,307,48,30,40,286,42,7*7D
$GAGSV,2,2,06,34,51,298,42,36,55,040,45,7*73
$GAGSV,2,1,06,02,39,215,,04,11,043,,11,13,073,,15,07,269,,0*74
$GAGSV,2,2,06,15,07,269,,25,07,175,,0*7F
$GBGSV,3,1,09,04,35,132,37,07,68,219,41,08,52,254,31,10,67,255,41,1*74
$GBGSV,3,2,09,11,42,084,43,14,55,131,45,21,15,040,25,28,41,307,46,1*79
$GBGSV,3,3,09,37,18,278,26,1*4B
$GBGSV,2,1,06,04,35,132,42,07,68,219,43,08,52,254,29,10,67,255,40,3*70
$GBGSV,2,2,06,11,42,084,41,14,55,131,40,3*7F
$GBGSV,2,1,07,01,43,152,,02,28,236,,03,44,206,,05,08,256,,0*77
$GBGSV,2,2,07,05,08,256,,13,43,250,,23,14,227,,0*4D
$GNRMC,042258.00,A,3727.0689833,N,12639.3444906,E,0.024,,220622,,,R,V*07
$GNGNS,042258.00,3727.0689833,N,12639.3444906,E,RRRR,27,0.74,26.818,17.840,,4095,V*23
$GNGGA,042258.00,3727.0689833,N,12639.3444906,E,4,12,0.74,26.818,M,17.840,M,,4095*70
$GNGSA,A,3,17,03,09,19,06,01,04,,,,,,1.49,0.74,1.29,1*03
$GNGSA,A,3,65,78,88,72,71,77,87,,,,,,1.49,0.74,1.29,2*07
$GNGSA,A,3,34,09,30,05,36,,,,,,,,1.49,0.74,1.29,3*0B
$GNGSA,A,3,04,28,07,11,14,10,08,37,,,,,1.49,0.74,1.29,4*00
$GPGSV,2,1,07,01,12,067,33,03,38,047,42,04,21,098,40,06,49,287,45,1*6B
$GPGSV,2,2,07,09,19,132,39,17,77,060,46,19,66,334,43,1*51
$GPGSV,2,1,05,01,12,067,32,03,38,047,37,04,21,098,30,06,49,287,36,6*6E
$GPGSV,2,2,05,17,77,060,39,6*5C
$GPGSV,2,1,08,02,11,269,,11,15,263,,12,09,324,,14,32,189,,0*69
$GPGSV,2,2,08,14,32,189,,20,02,220,,40,06,259,,41,27,238,,0*6C
$GLGSV,2,1,06,65,23,167,09,71,32,044,40,72,50,110,49,78,26,300,26,1*74
$GLGSV,2,2,06,87,53,001,44,88,27,305,39,1*7F
$GLGSV,2,1,06,65,23,167,09,71,32,044,23,72,50,110,38,77,25,238,11,3*77
$GLGSV,2,2,06,78,26,300,30,88,27$GLGSV,1,1,03,76,01,198,,79,01,344,,86,23,076,,0*48
$GAGSV,1,1,04,09,30,093,42,30,40,286,43,34,51,298,35,36,55,040,35,2*79
$GAGSV,2,1,06,05,20,148,18,09,30,093,43,18,46,307,47,30,40,286,42,7*73
$GAGSV,2,2,06,34,51,298,43,36,55,040,45,7*72
$GAGSV,2,1,06,02,39,215,,04,11,043,,11,13,073,,15,07,269,,0*74
$GAGSV,2,2,06,15,07,269,,25,07,175,,0*7F
$GBGSV,2,1,08,04,35,132,37,07,68,219,40,08,52,254,31,10,67,255,41,1*75
$GBGSV,2,2,08,11,42,084,43,14,55,130,44,28,41,307,43,37,18,278,26,1*7C
$GBGSV,2,1,06,04,35,132,42,07,68,219,43,08,52,254,29,10,67,255,41,3*71
$GBGSV,2,2,06,11,42,084,41,14,55,130,42,3*7C
$GBGSV,2,1,08,01,43,152,,02,28,236,,03,44,206,,05,08,256,,0*78
$GBGSV,2,2,08,05,08,256,,13,43,250,,21,15,040,,23,14,227,,0*71
$GNRMC,042259.00,A,3727.0689855,N,12639.3444865,E,0.021,,220622,,,R,V*07
$GNVTG,,T,,M,0.021,N,0.038,K,D*30
$GNGNS,042259.00,3727.0689855,N,12639.3444865,E,RRRR,26,0.74,26.830,17.840,,4095,V*2D
$GNGGA,042259.00,3727.0689855,N,12639.3444865,E,4,12,0.74,26.830,M,17.840,M,,4095*7F
$GNGSA,A,3,17,03,09,19,06,01,04,,,,,,1.49,0.74,1.29,1*03
$GNGSA,A,3,65,78,88,72,71,87,,,,,,,1.49,0.74,1.29,2*07
$GNGSA,A,3,04,28,07,34,11,14,10,08,37,,,,1.49,0.74,1.29,4*07
$GPGSV,2,1,07,01,12,067,33,03,38,047,41,04,21,098,40,06,49,287,45,1*68
$GPGSV,2,2,07,09,19,132,39,17,77,060,46,19,66,334,43,1*51
$GPGSV,2,1,05,01,12,067,32,03,38,047,38,04,21,098,30,06,49,287,36,6*61
$GPGSV,2,2,05,17,77,060,39,6*5C
$GPGSV,2,1,08,02,11,269,,11,15,263,,12,09,324,,14,32,189,,0*69
$GPGSV,2,2,08,14,32,189,,20,02,220,,40,06,259,,41,27,238,,0*6C
$GLGSV,2,1,06,65,23,167,09,71,32,044,38,72,50,110,49,78,26,300,35,1*79
$GLGSV,2,2,06,87,53,001,44,88,27,305,40,1*71
$GLGSV,2,1,06,65,23,167,07,71,32,044,23,72,50,110,38,77,25,238,06,3*7F
$GLGSV,2,2,06,78,26,300,33,88,27,305,35,3*71
$GLGSV,1,1,03,76,01,198,,79,01,344,,86,23,076,,0*48
$GAGSV,1,1,04,09,30,093,42,30,40,286,42,34,51,298,32,36,55,040,35,2*7F
$GAGSV,2,1,05,09,30,093,43,18,46,307,47,30,40,286,42,34,51,298,42,7*75
$GAGSV,2,2,05,36,55,040,44,7*47
$GAGSV,2,1,07,02,39,215,,04,11,043,,05,20,148,,11,13,073,,0*71
$GAGSV,2,2,07,11$GBGSV,3,1,09,04,35,132,36,07,68,219,40,08,52,254,30,10,67,255,40,1*74
$GBGSV,3,2,09,11,42,084,42,14,55,130,44,28,41,307,45,34,23,097,41,1*72
$GBGSV,3,3,09,37,18,278,26,1*4B
$GBGSV,2,1,06,04,35,132,42,07,68,219,42,08,52,254,29,10,67,255,41,3*70
$GBGSV,2,2,06,11,42,084,41,14,55,130,41,3*7F
$GBGSV,2,1,07,01,43,152,,02,28,236,,03,44,206,,05,08,256,,0*77
$GBGSV,2,2,07,05,08,256,,13,43,250,,21,15,040,,0*4D
$GNRMC,042300.00,A,3727.0689831,N,12639.3444863,E,0.012,,220622,,,R,V*0E
$GNVTG,,T,,M,0.012,N,0.021,K,D*38
$GNGNS,042300.00,3727.0689831,N,12639.3444863,E,RRRR,27,0.74,26.838,17.840,,4095,V*2D
$GNGGA,042300.00,3727.0689831,N,12639.3444863,E,4,12,0.74,26.838,M,17.840,M,,4095*7E
$GNGSA,A,3,17,03,09,19,06,01,04,,,,,,1.49,0.74,1.29,1*03
$GNGSA,A,3,65,78,88,72,71,77,87,,,,,,1.49,0.74,1.29,2*07
$GNGSA,A,3,34,09,30,36,,,,,,,,,1.49,0.74,1.29,3*0E
$GNGSA,A,3,04,28,07,34,11,14,10,08,37,,,,1.49,0.74,1.29,4*07
$GPGSV,2,1,07,01,12,067,33,03,38,047,41,04,21,098,39,06,49,287,44,1*67
$GPGSV,2,2,07,09,19,132,39,17,77,060,46,19,66,334,43,1*51
$GPGSV,1,1,01,14,32,189,15,5*51
$GPGSV,2,1,05,01,12,067,33,03,38,047,38,04,21,098,30,06,49,287,36,6*60
$GPGSV,2,2,05,17,77,060,39,6*5C
$GPGSV,2,1,07,02,11,269,,11,15,263,,12,09,324,,20,02,220,,0*62
$GNRMC,042301.00,A,3727.0689837,N,12639.3444879,E,0.015,,220622,,,R,V*05
$GNVTG,,T,,M,0.015,N,0.027,K,D*39
$GNGNS,042301.00,3727.0689837,N,12639.3444879,E,RRRR,27,0.74,26.852,17.840,,4095,V*2D
$GNGGA,042301.00,3727.0689837,N,12639.3444879,E,4,12,0.74,26.852,M,17.840,M,,4095*7E
$GNGSA,A,3,17,03,09,19,06,01,04,,,,,,1.49,0.74,1.29,1*03
$GNGSA,A,3,65,78,88,72,71,77,87,,,,,,1.49,0.74,1.29,2*07
$GNGSA,A,3,34,09,30,36,,,,,,,,,1.49,0.74,1.29,3*0E
$GNGSA,A,3,04,28,07,34,11,14,10,08,37,,,,1.49,0.74,1.29,4*07
$GPGSV,2,1,07,01,12,067,33,03,38,047,40,04,21,098,39,06,49,287,44,1*66
$GPGSV,2,2,07,09,19,132,38,17,77,060,46,19,66,334,43,1*50
$GPGSV,2,1,06,01,12,067,32,03,38,047,38,04,21,098,29,06,49,287,36,6*6A
$GPGSV,2,2,06,14,32,189,15,17,77,060,39,6*6F
$GPGSV,2,1,07,02,11,269,,11,15,263,,12,09,324,,20,02,220,,0*62
$GPGSV,2,2,07,20,02,220,,40,06,259,,41,27,238,,0*57
$GLGSV,2,1,06,65,23,167,07,71,32,044,39,72,50,110,49,78,26,300,32,1*71
$GLGSV,2,2,06,87,53,001,43,88,27,305,42,1*74
$GLGSV,2,1,06,65,23,167,10,71,32,044,20,72,50,110,38,77,25,238,08,3*74
$GLGSV,2,2,06,78,26,300,32,88,27,305,35,3*70
$GLGSV,1,1,03,76,01,198,,79,01,344,,86,23,076,,0*48
$GAGSV,1,1,04,09,30,093,42,30,40,286,43,34,51,298,34,36,55,040,35,2*78
$GAGSV,2,1,06,05,20,148,19,09,30,093,43,18,46,307,48,30,40,286,42,7*7D
$GAGSV,2,2,06,34,51,298,42,36,55,040,45,7*73
$GAGSV,2,1,06,02,39,215,,04,11,043,,11,13,073,,15,07,269,,0*74
$GAGSV,2,2,06,15,07,269,,25,07,175,,0*7F
$GBGSV,3,1,10,01,43,152,28,04,35,132,37,07,68,219,40,08,52,254,31,1*70
$GBGSV,3,2,10,10,67,255,41,11,42,084,42,14,55,130,45,28,41,307,45,1*71
$GBGSV,3,3,10,34,23,097,41,37,18,278,27,1*7F
$GBGSV,2,1,06,04,35,132,42,07,68,219,42,08,52,254,28,10,67,255,41,3*71
$GBGSV,2,2,06,11,42,084,41,14,55,130,41,3*7F
$GBGSV,2,1,06,02,28,236,,03,44,206,,05,08,256,,13,43,250,,0*74
$GBGSV,2,2,06,13,43,250,,21,15,040,,0*70
$GNRMC,042302.00,A,3727.0689840,N,12639.3444891,E,0.025,,220622,,,R,V*03
$GNVTG,,T,,M,0.025,N,0.046,K,D*3D
$GNGNS,042302.00,3727.0689840,N,12639.3444891,E,RRRR,28,0.70,26.843,17.840,,4095,V*23
$GNGSA,A,3,17,03,09,19,06,01,04,,,,,,1.45,0.70,1.27,1*05
$GNGSA,A,3,65,78,88,72,71,77,87,,,,,,1.45,0.70,1.27,2*01
$GNGSA,A,3,34,09,30,36,,,,,,,,,1.45,0.70,1.27,3*08
$GNGSA,A,3,01,04,28,07,34,11,14,10,08,37,,,1.45,0.70,1.27,4*00
$GPGSV,2,1,07,01,12,067,33,03,38,047,40,04,21,098,39,06,49,287,44,1*66
$GPGSV,2,2,07,09,19,132,38,17,77,060,46,19,66,334,43,1*50
$GPGSV,2,1,06,01,12,067,32,03,38,047,38,04,21,098,30,06,49,287,36,6*62
$GPGSV,2,2,06,14,32,189,14,17,77,060,39,6*6E
$GPGSV,2,1,07,02,11,269,,11,15,263,,12,09,324,,20,02,220,,0*62
$GPGSV,2,2,07,20,02,220,,40,06,259,,41,27,238,,0*57
$GLGSV,2,1,06,65,23,167,10,71,32,044,38,72,50,110,49,78,26,300,33,1*77
$GLGSV,2,2,06,87,53,001,43,88,27,305,40,1*76
$GLGSV,2,1,06,65,23,167,11,71,32,044,20,72,50,110,36,77,25,238,09,3*7A
$GLGSV,2,2,06,78,26,300,32,88,27,305,33,3*76
$GLGSV,1,1,03,76,01,198,,79,01,344,,86,23,076,,0*48
$GAGSV,1,1,04,09,30,093,42,30,40,286,43,34,51,298,3$GAGSV,2,1,06,05,20,148,19,09,30,093,43,18,46,307,48,30,40,286,42,7*7D
$GAGSV,2,2,06,34,51,298,41,36,55,040,45,7*70
$GAGSV,2,1,06,02,39,215,,04,11,043,,11,13,073,,15,07,269,,0*74
$GAGSV,2,2,06,15,07,269,,25,07,175,,0*7F
$GBGSV,3,1,10,01,43,152,28,04,35,132,37,07,68,219,40,08,52,254,31,1*70
$GBGSV,3,2,10,10,67,255,41,11,42,084,42,14,55,130,44,28,41,307,45,1*70
$GBGSV,3,3,10,34,23,097,41,37,18,278,28,1*70
$GBGSV,2,1,06,04,35,132,42,07,68,219,42,08,52,254,28,10,67,255,41,3*71
$GBGSV,2,2,06,11,42,084,40,14,55,130,41,3*7E
$GBGSV,2,1,06,02,28,236,,03,44,206,,05,08,256,,13,43,250,,0*74
$GBGSV,2,2,06,13,43,250,,21,15,039,,0*7E
$GNRMC,042303.00,A,3727.0689822,N,12639.3444891,E,0.012,,220622,,,R,V*02
$GNVTG,,T,,M,0.012,N,0.023,K,D*3A
$GNGNS,042303.00,3727.0689822,N,12639.3444891,E,RRRR,28,0.71,26.842,17.840,,4095,V*26
$GNGGA,042303.00,3727.0689822,N,12639.3444891,E,4,12,0.71,26.842,M,17.840,M,,4095*7A
$GNGSA,A,3,17,03,09,19,06,01,04,,,,,,1.47,0.71,1.28,1*09
$GNGSA,A,3,65,78,88,72,71,77,87,,,,,,1.47,0.71,1.28,2*0D
$GNGSA,A,3,34,09,30,36,,,,,,,,,1.47,0.71,1.28,3*04
$GNGSA,A,3,01,04,28,07,34,11,14,10,08,37,,,1.47,0.71,1.28,4*0C
$GPGSV,2,1,07,01,12,067,33,03,38,047,40,04,21,098,39,06,49,287,45,1*67
$GPGSV,2,2,07,09,19,132,38,17,77,060,46,19,66,334,43,1*50
$GPGSV,2,1,06,01,12,067,32,03,38,047,38,04,21,098,31,06,49,287,35,6*60
$GPGSV,2,2,06,14,32,189,13,17,77,060,39,6*69
$GPGSV,2,1,07,02,11,269,,11,15,263,,12,09,324,,20,02,220,,0*62
$GPGSV,2,2,07,20,02,220,,40,06,259,,41,27,238,,0*57
$GLGSV,2,1,06,65,23,167,10,71,32,044,38,72,50,110,49,78,26,300,28,1*7D
$GLGSV,2,2,06,87,53,001,43,88,27,305,42,1*74
$GLGSV,2,1,06,65,23,167,07,71,32,044,20,72,50,110,37,77,25,238,07,3*72
$GLGSV,2,2,06,78,26,300,32,88,27,305,33,3*76
$GLGSV,1,1,03,76,01,198,,79,01,344,,86,23,076,,0*48
$GAGSV,1,1,04,09,30,093,42,30,40,286,43,34,51,298,34,36,55,040,35,2*78
$GAGSV,2,1,06,05,20,148,19,09,30,093,43,18,46,307,48,30,40,286,42,7*7D
$GAGSV,2,2,06,34,51,298,41,36,55,040,45,7*70
$GAGSV,2,1,06,02,39,215,,04,11,043,,11,13,073,,15,07,269,,0*74
$GAGSV,2,2,06,15,07,269,,25,07,175,,0*7F
$GBGSV,3,1,10,01,43,152,28,04,35,132,36,07,68,219,40,08,52,254,30,1*70
$GBGSV,3,2,10,10,67,255,40,11,42,084,42,14,55,130,44,28,41,307,44,1*70
$GBGSV,3,3,10,34,23,097,41,37,18,278,28,1*70
$GBGSV,2,1,06,04,35,132,42,07,68,219,42,08,52,254,28,10,67,255,41,3*71
$GBGSV,2,2,06,11,42,084,41,14,55,130,41,3*7F
$GBGSV,2,1,06,02,28,236,,03,44,206,,05,08,256,,13,43,250,,0*74
$GBGSV,2,2,06,13,43,250,,21,15,039,,0*7E
$GNRMC,042304.00,A,3727.0689828,N,12639.3444911,E,0.017,,220622,,,R,V*03
$GNVTG,,T,,M,0.017,N,0.031,K,D*3C
$GNGNS,042304.00,3727.0689828,N,12639.3444911,E,RRRR,28,0.71,26.853,17.840,,4095,V*22
$GNGGA,042304.00,3727.0689828,N,12639.3444911,E,4,12,0.71,26.853,M,17.840,M,,4095*7E
$GNGSA,A,3,17,03,09,19,06,01,04,,,,,,1.47,0.71,1.28,1*09
$GNGSA,A,3,65,78,88,72,71,77,87,,,,,,1.47,0.71,1.28,2*0D
$GNGSA,A,3,34,09,30,36,,,,,,,,,1.47,0.71,1.28,3*04
$GNGSA,A,3,01,04,28,07,34,11,14,10,08,37,,,1.47,0.71,1.28,4*0C
$GPGSV,2,1,07,01,12,067,34,03,38,047,41,04,21,098,39,06,49,287,45,1*61
$GPGSV,2,2,07,09,19,132,38,17,77,060,46,19,66,334,43,1*50
$GPGSV,2,1,06,01,12,067,32,03,38,047,39,04,21,098,32,06,49,287,36,6*61
$GPGSV,2,2,06,14,32,189,12,17,77,060,40,6*66
$GPGSV,2,1,07,02,11,269,,11,15,263,,12,09,324,,20,02,220,,0*62
$GPGSV,2,2,07,20,02,220,,40,06,259,,41,27,238,,0*57
$GLGSV,2,1,06,65,23,167,09,71,32,044,39,72,50,110,49,78,26,300,21,1*7D
$GLGSV,2,2,06,87,53,001,43,88,27,305,39,1*78
$GLGSV,2,1,06,65,23,167,08,71,32,044,22,72,50,110,37,77,25,238,07,3*7F
$GLGSV,2,2,06,78,26,300,28,88,27,305,33,3*7D
$GLGSV,1,1,03,76,01,198,,79,01,344,,86,23,076,,0*48
$GAGSV,1,1,04,09,30,093,42,30,40,286,41,34,51,298,34,36,55,040,36,2*79
$GAGSV,2,1,06,05,20,148,19,09,30,093,43,18,46,307,47,30,40,286,42,7*72
$GAGSV,2,2,06,34,51,298,43,36,55,040,45,7*72
$GAGSV,2,1,06,02,39,215,,04,11,043,,11,13,073,,15,07,269,,0*74
$GAGSV,2,2,06,15,07,269,,25,07,175,,0*7F
$GBGSV,3,1,10,01,43,152,27,04,35,132,37,07,68,219,40,08,52,254,30,1*7E
$GBGSV,3,2,10,10,67,255,40,11,42,084,42,14,55,130,44,28,41,307,43,1*77
$GBGSV,3,3,10,34,23,097,41,37,18,278,28,1*70
$GBGSV,2,1,06,04,35,132,42,07,68,219,42,08,52,254,28,10,67,255,41,3*71
$GBGSV,2,2,06,11,42,084,41,14,55,130,42,3*7C
$GBGSV,2,1,06,02,28,236,,03,44,206,,05,08,256,,13,43,250,,0*74
$GBGSV,2,2,06,13,43,250,,21,15,039,,0*7E
$GNRMC,042305.00,A,3727.0689813,N,12639.3444903,E,0.011,,220622,,,R,V*0F
$GNVTG,,T,,M,0.011,N,0.020,K,D*3A
$GNGNS,042305.00,3727.0689813,N,12639.3444903,E,RRRR,28,0.79,26.852,17.840,,4095,V*21
$GNGGA,042305.00,3727.0689813,N,12639.3444903,E,4,12,0.79,26.852,M,17.840,M,,4095*7D
$GNGSA,A,3,17,03,09,14,19,06,01,04,,,,,1.56,0.79,1.35,1*08
$GNGSA,A,3,65,78,88,72,71,87,,,,,,,1.56,0.79,1.35,2*09
$GNGSA,A,3,34,09,30,36,,,,,,,,,1.56,0.79,1.35,3*00
$GNGSA,A,3,01,04,28,07,34,11,14,10,08,37,,,1.56,0.79,1.35,4*08
$GPGSV,2,1,07,01,12,067,33,03,38,047,40,04,21,098,39,06,49,287,45,1*67
$GPGSV,2,2,07,09,19,132,38,17,77,060,46,19,66,334,43,1*50
$GPGSV,2,1,06,01,12,067,32,03,38,047,38,04,21,098,31,06,49,287,37,6*62
$GPGSV,2,2,06,14,32,189,12,17,77,060,40,6*66
$GPGSV,2,1,07,02,11,269,,11,15,263,,12,09,324,,20,02,220,,0*62
$GPGSV,2,2,07,20,02,220,,40,06,259,,41,27,238,,0*57
$GLGSV,2,1,06,65,23,167,07,71,32,044,38,72,50,110,49,78,26,300,34,1*76
$GLGSV,2,2,06,87,53,001,44,88,27,305,42,1*73
$GLGSV,2,1,06,65,23,167,08,71,32,044,23,72,50,110,37,77,25,238,08,3*71
$GLGSV,2,2,06,78,26,300,33,88,27,305,34,3*70
$GLGSV,1,1,03,76,01,198,,79,01,344,,86,23,076,,0*48
$GAGSV,1,1,04,09,30,093,41,30,40,286,43,34,51,298,35,36,55,040,35,2*7A
$GAGSV,2,1,06,05,20,148,19,09,30,093,43,18,46,307,48,30,40,286,42,7*7D
$GAGSV,2,2,06,34,51,298,42,36,55,040,45,7*73
$GAGSV,2,1,06,02,39,215,,04,11,043,,11,13,073,,15,07,269,,0*74
$GAGSV,2,2,06,15,07,269,,25,07,175,,0*7F
$GBGSV,3,1,10,01,43,152,27,04,35,132,37,07,68,219,40,08,52,254,30,1*7E
$GBGSV,3,2,10,10,67,255,41,11,42,084,42,14,55,130,44,28,41,307,45,1*70
$GBGSV,3,3,10,34,23,097,41,37,18,278,28,1*70
$GBGSV,2,1,06,04,35,132,42,07,68,219,43,08,52,254,29,10,67,255,41,3*71
$GBGSV,2,2,06,11,42,084,41,14,55,130,41,3*7F
$GBGSV,2,1,06,02,28,236,,03,44,206,,05,08,256,,13,43,250,,0*74
$GBGSV,2,2,06,13,43,250,,21,15,039,,0*7E
$GNGNS,042306.00,3727.0689830,N,12639.3444929,E,RRRR,28,0.71,26.851,17.840,,4095,V*20
$GNGGA,042306.00,3727.0689830,N,12639.3444929,E,4,12,0.71,26.851,M,17.840,M,,4095*7C
$GNGSA,A,3,17,03,09,14,19,06,01,04,,,,,1.47,0.71,1.28,1*0C
$GNGSA,A,3,65,78,88,72,71,87,,,,,,,1.47,0.71,1.28,2*0D
$GNGSA,A,3,34,09,30,36,,,,,,,,,1.47,0.71,1.28,3*04
$GNGSA,A,3,01,04,28,07,34,11,14,10,08,37,,,1.47,0.71,1.28,4*0C
$GPGSV,2,2,07,09,19,132,38,17,77,060,46,19,66,334,43,1*50
$GPGSV,2,1,06,01,12,067,32,03,38,047,40,04,21,098,31,06,49,287,36,6*6C
$GPGSV,2,2,06,14,32,189,13,17,77,060,39,6*69
$GPGSV,2,1,07,02,11,269,,11,15,263,,12,09,324,,20,02,220,,0*62
$GPGSV,2,2,07,20,02,220,,40,06,259,,41,27,238,,0*57
$GLGSV,2,1,06,65,23,167,09,71,32,044,38,72,50,110,49,78,26,300,32,1*7E
$GLGSV,2,2,06,87,53,001,44,88,27,305,42,1*73
$GLGSV,2,1,06,65,23,167,11,71,32,044,23,72,50,110,37,77,25,238,10,3*70
$GLGSV,2,2,06,78,26,300,29,88,27,305,34,3*7B
$GLGSV,1,1,03,76,01,198,,79,01,344,,86,23,076,,0*48
$GAGSV,1,1,04,09,30,093,42,30,40,286,43,34,51,298,35,36,55,040,36,2*7A
$GAGSV,2,1,06,05,20,148,19,09,30,093,42,18,46,307,47,30,40,286,42,7*73
$GAGSV,2,2,06,34,51,298,42,36,55,040,45,7*73
$GAGSV,2,1,06,02,39,215,,04,11,043,,11,13,073,,15,07,269,,0*74
$GAGSV,2,2,06,15,07,269,,25,07,175,,0*7F
$GBGSV,3,1,10,01,43,152,27,04,35,132,37,07,68,219,40,08,52,254,30,1*7E
$$GNRMC,042307.00,A,3727.0689842,N,12639.3444921,E,0.005,,220622,,,R,V*0C
$GNVTG,,T,,M,0.005,N,0.009,K,D*34
$GNGNS,042307.00,3727.0689842,N,12639.3444921,E,RRRR,28,0.71,26.841,17.840,,4095,V*2D
$GNGGA,042307.00,3727.0689842,N,12639.3444921,E,4,12,0.71,26.841,M,17.840,M,,4095*71
$GNGSA,A,3,17,03,09,14,19,06,01,04,,,,,1.47,0.71,1.28,1*0C
$GNGSA,A,3,65,78,88,72,71,87,,,,,,,1.47,0.71,1.28,2*0D
$GNGSA,A,3,34,09,30,36,,,,,,,,,1.47,0.71,1.28,3*04
$GNGSA,A,3,01,04,28,07,34,11,14,10,08,37,,,1.47,0.71,1.28,4*0C
$GPGSV,2,1,07,01,12,067,34,03,38,047,39,04,21,098,39,06,49,287,43,1*68
$GPGSV,2,2,07,09,19,132,38,17,77,060,46,19,66,334,43,1*50
$GPGSV,2,1,06,01,12,067,32,03,38,047,39,04,21,098,31,06,49,287,36,6*62
$GPGSV,2,2,06,14,32,189,14,17,77,060,39,6*6E
$GPGSV,2,1,07,02,11,269,,11,15,263,,12,09,324,,20,02,220,,0*62
$GPGSV,2,2,07,20,02,220,,40,06,259,,41,27,238,,0*57
$GLGSV,2,1,06,65,23,167,11,71,32,044,38,72,50,110,49,78,26,300,31,1*74
$GLGSV,2,2,06,87,53,001,44,88,27,305,42,1*73
$GLGSV,2,1,06,65,23,167,08,71,32,044,22,72,50,110,37,77,25,238,07,3*7F
$GLGSV,2,2,06,78,26,300,29,88,27,305,33,3*7C
$GLGSV,1,1,03,76,01,198,,79,01,344,,86,23,076,,0*48
$GAGSV,1,1,04,09,30,093,42,30,40,286,43,34,51,298,35,36,55,040,35,2*79
$GAGSV,2,1,06,05,20,148,19,09,30,093,42,18,46,307,48,30,40,286,42,7*7C
$GAGSV,2,2,06,34,51,298,42,36,55,040,45,7*73
$GAGSV,2,1,06,02,39,215,,04,11,043,,11,13,073,,15,07,269,,0*74
$GAGSV,2,2,06,15,07,269,,25,07,175,,0*7F
$GBGSV,3,1,10,01,43,152,28,04,35,132,36,07,68,219,40,08,52,254,30,1*70
$GBGSV,3,2,10,10,67,255,40,11,42,084,41,14,55,130,44,28,41,307,45,1*72
$GBGSV,3,3,10,34,23,097,41,37,18,278,30,1*79
$GBGSV,2,1,06,04,35,132,42,07,68,219,42,08,52,254,29,10,67,255,41,3*70
$GBGSV,2,2,06,11,42,084,41,14,55,130,40,3*7E
$GBGSV,2,1,06,02,28,236,,03,44,206,,05,08,256,,13,43,250,,0*74
$GBGSV,2,2,06,13,43,250,,21,15,039,,0*7E
$GNRMC,042308.00,A,3727.0689846,N,12639.3444883,E,0.009,,220622,,,R,V*02
$GNVTG,,T,,M,0.009,N,0.016,K,D*36
$GNGNS,042308.00,3727.0689846,N,12639.3444883,E,RRRR,28,0.79,26.839,17.840,,4095,V*28
$GNGGA,042308.00,3727.0689846,N,12639.3444883,E,4,12,0.79,26.839,M,17.840,M,,4095*74
$GNGSA,A,3,17,03,09,14,19,06,01,04,,,,,1.56,0.79,1.35,1*08
$GNGSA,A,3,65,78,88,72,71,87,,,,,,,1.56,0.79,1.35,2*09
$GNGSA,A,3,34,09,30,36,,,,,,,,,1.56,0.79,1.35,3*00
$GNGSA,A,3,01,04,28,07,34,11,14,10,08,37,,,1.56,0.79,1.35,4*08
$GPGSV,2,1,07,01,12,067,34,03,38,047,39,04,21,098,39,06,49,287,44,1*6F
$GPGSV,2,2,07,09,19,132,38,17,77,060,46,19,66,334,43,1*50
$GPGSV,2,1,06,01,12,067,32,03,38,047,39,04,21,098,31,06,49,287,36,6*62
$GPGSV,2,2,06,14,32,189,16,17,77,060,39,6*6C
$GPGSV,2,2,07,20,02,220,,40,06,259,,41,27,238,,0*57
$GLGSV,2,1,06,65,23,167,11,71,32,044,37,72,50,110,49,78,26,300,30,1*7A
$GLGSV,2,2,06,87,53,001,44,88,27,305,42,1*73
$GLGSV,2,1,06,65,23,167,09,71,32,044,21,72,50,110,37,77,25,238,10,3*7B
$GLGSV,2,2,06,78,26,300,30,88,27,305,34,3*73
$GLGSV,1,1,03,76,01,198,,79,01,344,,86,23,076,,0*48
$GAGSV,1,1,04,09,30,093,42,30,40,286,43,34,51,298,34,36,55,040,36,2*7B
$GAGSV,2,1,06,05,20,148,18,09,30,093,42,18,46,307,48,30,40,286,41,7*7E
$GAGSV,2,2,06,34,51,298,42,36,55,040,44,7*72
$GAGSV,2,1,06,02,39,215,,04,11,043,,11,13,073,,15,07,269,,0*74
$GAGSV,2,2,06,15,07,269,,25,07,175,,0*7F
$GBGSV,3,1,10,01,43,152,27,04,35,132,36,07,68,219,40,08,52,254,30,1*7F
$GBGSV,3,2,10,10,67,255,40,11,42,084,42,14,55,130,44,28,41,307,45,1*71
$GBGSV,3,3,10,34,23,097,41,37,18,278,29,1*71
$GBGSV,2,1,06,04,35,132,42,07,68,219,43,08,52,254,29,10,67,255,41,3*71
$GBGSV,2,2,06,11,42,084,40,14,55,130,41,3*7E
$GBGSV,2,1,06,$GBGSV,2,2,06,13,43,250,,21,15,039,,0*7E
$GNRMC,042309.00,A,3727.0689816,N,12639.3444863,E,0.014,,220622,,,R,V*04
$GNVTG,,T,,M,0.014,N,0.026,K,D*39
$GNGNS,042309.00,3727.0689816,N,12639.3444863,E,RRRR,28,0.71,26.840,17.840,,4095,V*24
$GNGGA,042309.00,3727.0689816,N,12639.3444863,E,4,12,0.71,26.840,M,17.840,M,,4095*78
$GNGSA,A,3,17,03,09,14,19,06,01,04,,,,,1.47,0.71,1.28,1*0C
$GNGSA,A,3,65,78,88,72,71,87,,,,,,,1.47,0.71,1.28,2*0D
$GNGSA,A,3,34,09,30,36,,,,,,,,,1.47,0.71,1.28,3*04
$GNGSA,A,3,01,04,28,07,34,11,14,10,08,37,,,1.47,0.71,1.28,4*0C
$GPGSV,2,1,08,01,12,067,34,03,38,047,40,04,21,098,39,06,49,287,44,1*6E
$GPGSV,2,2,08,09,19,132,38,17,77,060,46,19,66,334,43,41,27,238,26,1*62
$GPGSV,2,1,06,01,12,067,32,03,38,047,39,04,21,098,32,06,49,287,36,6*61
$GPGSV,2,2,06,14,32,189,15,17,77,060,40,6*61
$GPGSV,2,1,06,02,11,269,,11,15,263,,12,09,324,,20,02,220,,0*63
$GPGSV,2,2,06,20,02,220,,40,06,259,,0*6F
$GLGSV,2,1,06,65,23,167,10,71,32,044,37,72,50,110,49,78,26,300,32,1*79
$GLGSV,2,2,06,87,53,001,44,88,27,305,42,1*73
$GLGSV,2,1,06,65,23,167,08,71,32,044,23,72,50,110,37,77,25,238,07,3*7E
$GLGSV,2,2,06,78,26,300,31,88,27,305,34,3*72
$GLGSV,1,1,03,76,01,198,,79,01,344,,86,23,076,,0*48
$GAGSV,1,1,04,09,30,093,42,30,40,286,43,34,51,298,34,36,55,040,36,2*7B
$GAGSV,2,1,06,05,20,148,19,09,30,093,42,18,46,307,48,30,40,286,41,7*7F
$GAGSV,2,2,06,34,51,298,41,36,55,040,45,7*70
$GAGSV,2,1,06,02,39,215,,04,11,043,,11,13,073,,15,07,269,,0*74
$GAGSV,2,2,06,15,07,269,,25,07,175,,0*7F
$GBGSV,3,1,10,01,43,152,27,04,35,132,36,07,68,219,40,08,52,254,31,1*7E
$GBGSV,3,2,10,10,67,255,40,11,42,084,42,14,55,130,44,28,42,308,45,1*7D
$GBGSV,3,3,10,34,23,097,41,37,18,278,29,1*71
$GBGSV,2,1,06,04,35,132,42,07,68,219,43,08,52,254,29,10,67,255,41,3*71
$GBGSV,2,2,06,11,42,084,41,14,55,130,41,3*7F
$GBGSV,2,1,06,02,28,236,,03,44,206,,05,08,256,,13,43,250,,0*74
$GBGSV,2,2,06,13,43,250,,21,15,039,,0*7E
$GNRMC,042310.00,A,3727.0689841,N,12639.3444883,E,0.018,,220622,,,R,V*0C
$GNVTG,,T,,M,0.018,N,0.032,K,D*30
$GNGNS,042310.00,3727.0689841,N,12639.3444883,E,RRRR,28,0.71,26.846,17.840,,4095,V*26
$GNGGA,042310.00,3727.0689841,N,12639.3444883,E,4,12,0.71,26.846,M,17.840,M,,4095*7A
$GNGSA,A,3,17,03,09,14,19,06,01,04,,,,,1.47,0.71,1.28,1*0C
$GNGSA,A,3,65,78,88,72,71,87,,,,,,,1.47,0.71,1.28,2*0D
$GNGSA,A,3,34,09,30,36,,,,,,,,,1.47,0.71,1.28,3*04
$GNGSA,A,3,01,04,28,07,34,11,14,10,08,37,,,1.47,0.71,1.28,4*0C
$GPGSV,2,1,07,01,12,067,34,03,38,047,40,04,21,098,39,06,49,287,44,1*61
$GPGSV,2,2,07,09,19,132,38,17,77,060,47,19,66,334,43,1*51
$GPGSV,2,1,06,01,12,067,32,03,38,047,39,04,21,098,32,06,49,287,36,6*61
$GPGSV,2,2,06,14,32,189,15,17,77,060,40,6*61
$GPGSV,2,1,07,02,11,269,,11,15,263,,12,09,324,,20,02,220,,0*62
$GPGSV,2,2,07,20,02,220,,40,06,259,,41,27,238,,0*57
$GLGSV,2,1,06,65,23,167,10,71,32,044,37,72,50,110,48,78,26,300,32,1*78
$GLGSV,2,2,06,87,53,001,44,88,27,305,42,1*73
$GLGSV,2,1,06,65,23,167,09,71,32,044,25,72,50,110,37,77,25,238,09,3*77
$GLGSV,2,2,06,78,26,300,31,88,27,305,34,3*72
$GLGSV,1,1,03,76,01,198,,79,01,344,,86,23,076,,0*48
$GAGSV,2,1,05,02,39,215,19,09,30,093,42,30,40,286,43,34,51,298,34,2*7B
$GAGSV,2,2,05,36,55,040,36,2*47
$GAGSV,2,1,06,05,20,148,18,09,30,093,42,18,46,307,48,30,40,286,42,7*7D
$GAGSV,2,2,06,34,51,298,42,36,55,040,45,7*73
$GAGSV,2,1,05,04,11,043,,11,13,073,,15,07,269,,25,07,175,,0*7A
$GAGSV,2,2,05,25,07,175,,0*42
$GBGSV,3,1,10,01,43,152,28,04,35,132,37,07,68,219,40,08,52,254,30,1*71
$GBGSV,3,2,10,10,67,255,40,11,42,084,42,14,55,130,44,28,42,308,45,1*7D
$GBGSV,3,3,10,34,23,097,41,37,18,278,30,1*79
$GBGSV,2,1,06,04,35,132,42,07,68,219,43,08,52,254,29,10,67,255,41,3*71
$GBGSV,2,2,06,11,42,084,41,14,55,130,41,3*7F
$GBGSV,2,1,06,02,28,236,,03,44,206,,05,08,256,,13,43,250,,0*74
$GBGSV,2,2,06,13,43,250,,21,15,039,,0*7E
$GNRMC,042311.00,A,3727.0689813,N,12639.3444868,E,0.003,,220622,,,R,V*05
$GNVTG,,T,,M,0.003,N,0.005,K,D*3E
$GNGNS,042311.00,3727.0689813,N,12639.3444868,E,RRRR,28,0.79,26.847,17.840,,4095,V*2C
$GNGGA,042311.00,3727.0689813,N,12639.3444868,E,4,12,0.79,26.847,M,17.840,M,,4095*70
$GNGSA,A,3,17,03,09,14,19,06,01,04,,,,,1.56,0.79,1.35,1*08
$GNGSA,A,3,65,78,88,72,71,87,,,,,,,1.56,0.79,1.35,2*09
$GNGSA,A,3,34,09,30,36,,,,,,,,,1.56,0.79,1.35,3*00
$GNGSA,A,3,01,04,28,07,34,11,14,10,08,37,,,1.56,0.79,1.35,4*08
$GPGSV,2,1,07,01,12,067,34,03,38,047,40,04,21,098,39,06,49,287,44,1*61
$GPGSV,2,2,07,09,19,132,38,17,77,060,47,19,66,334,43,1*51
$GPGSV,2,1,06,01,12,067,32,03,38,047,40,04,21,098,32,06,49,287,36,6*6F
$GPGSV,2,2,06,14,32,189,15,17,77,060,40,6*61
$GPGSV,2,1,07,02,11,269,,11,15,263,,12,09,324,,20,02,220,,0*62
$GPGSV,2,2,07,20,02,220,,40,06,259,,41,27,238,,0*57
$GLGSV,2,1,06,65,23,167,11,71,32,044,36,72,50,110,49,78,26,300,32,1*79
$GLGSV,2,2,06,87,53,001,44,88,27,305,42,1*73
$GLGSV,2,1,06,65,23,167,10,71,32,044,24,72,50,110,37,77,25,238,11,3*77
$GLGSV,2,2,06,78,26,300,32,88,27,305,34,3*71
$GLGSV,1,1,03,76,01,198,,79,01,344,,86,23,076,,0*48
$GAGSV,1,1,04,09,30,093,43,30,40,286,43,34,51,298,34,36,55,040,36,2*7A
$GAGSV,2,1,06,05,20,148,19,09,30,093,42,18,46,307,48,30,40,286,42,7*7C
$GAGSV,2,2,06,34,51,298,41,36,55,040,45,7*70
$GAGSV,2,1,06,02,39,215,,04,11,043,,11,13,073,,15,07,269,,0*74
$GAGSV,2,2,06,15,07,269,,25,07,175,,0*7F
$GBGSV,3,1,10,01,43,152,27,04,35,132,36,07,68,219,40,08,52,254,30,1*7F
$GBGSV,3,2,10,10,67,255,40,11,42,084,41,14,55,130,44,28,42,308,45,1*7E
$GBGSV,3,3,10,34,23,097,42,37,18,278,30,1*7A
$GBGSV,2,1,06,04,35,132,42,07,68,219,43,08,52,254,30,10,67,255,42,3*7A
$GBGSV,2,2,06,11,42,084,42,14,55,130,41,3*7C
$GBGSV,2,1,06,02,28,236,,03,44,206,,05,08,256,,13,43,250,,0*74
$GBGSV,2,2,06,13,43,250,,21,15,039,,0*7E
$GNGSA,A,3,65,78,88,72,71,87,,,,,,,1.47,0.71,1.28,2*0D
$GNGSA,A,3,34,09,30,36,,,,,,,,,1.47,0.71,1.28,3*04
$GNGSA,A,3,01,04,28,07,34,11,14,10,08,37,,,1.47,0.71,1.28,4*0C
$GPGSV,2,1,07,01,12,067,34,03,38,047,40,04,21,098,39,06,49,287,44,1*61
$GPGSV,2,2,07,09,19,132,38,17,77,060,47,19,66,334,44,1*56
$GPGSV,2,1,06,01,12,067,32,03,38,047,40,04,21,098,32,06,49,287,36,6*6F
$GPGSV,2,2,06,14,32,189,15,17,77,060,40,6*61
$GPGSV,2,1,07,02,11,269,,11,15,263,,12,09,324,,20,02,220,,0*62
$GPGSV,2,2,07,20,02,220,,40,06,259,,41,27,238,,0*57
$GLGSV,2,1,06,65,23,167,09,71,32,044,39,72,50,110,49,78,26,300,32,1*7F
$GLGSV,2,2,06,87,53,001,44,88,27,305,42,1*73
$GNRMC,042313.00,A,3727.0689845,N,12639.3444888,E,0.024,,220622,,,R,V*0F
$GNVTG,,T,,M,0.024,N,0.044,K,D*3E
$GNGNS,042313.00,3727.0689845,N,12639.3444888,E,RRRR,27,0.74,26.827,17.840,,4095,V*27
$GNGGA,042313.00,3727.0689845,N,12639.3444888,E,4,12,0.74,26.827,M,17.840,M,,4095*74
$GNGSA,A,3,17,03,09,14,19,06,01,04,,,,,1.49,0.74,1.29,1*06
$GNGSA,A,3,65,78,88,72,71,87,,,,,,,1.49,0.74,1.29,2*07
$GNGSA,A,3,34,05,09,30,36,,,,,,,,1.49,0.74,1.29,3*0B
$GNGSA,A,3,04,28,07,34,11,14,10,08,37,,,,1.49,0.74,1.29,4*07
$GPGSV,2,1,07,01,12,067,33,03,38,047,40,04,21,098,39,06,49,287,44,1*66
$GPGSV,2,2,07,09,19,132,38,17,77,062,47,19,66,334,44,1*54
$GPGSV,2,1,06,01,12,067,32,03,38,047,40,04,21,098,31,06,49,287,36,6*6C
$GPGSV,2,2,06,14,32,189,16,17,77,062,40,6*60
$GPGSV,2,1,07,02,11,269,,11,15,263,,12,09,324,,20,02,220,,0*62
$GPGSV,2,2,07,20,02,220,,40,06,259,,41,27,238,,0*57
$GLGSV,2,1,06,65,23,167,06,71,32,044,39,72,50,110,49,78,26,300,32,1*70
$GLGSV,2,2,06,87,53,001,44,88,27,305,42,1*73
$GLGSV,2,1,06,65,23,167,10,71,32,044,25,72,50,110,37,77,25,238,08,3*7E
$GLGSV,2,2,06,78,26,300,31,88,27,305,33,3*75
$GLGSV,1,1,03,76,01,198,,79,01,344,,86,23,076,,0*48
$GAGSV,1,1,04,09,30,093,43,30,40,286,43,34,51,298,34,36,55,040,35,2*79
$GAGSV,2,1,06,05,20,148,17,09,30,093,42,18,46,307,48,30,40,286,42,7*72
$GAGSV,2,2,06,34,51,298,43,36,55,040,44,7*73
$GAGSV,2,1,06,02,39,215,,04,11,043,,11,13,073,,15,07,269,,0*74
$GAGSV,2,2,06,15,07,269,,25,07,175,,0*7F
$GBGSV,3,1,09,04,35,132,37,07,68,219,40,08,52,254,30,10,67,255,40,1*75
$GBGSV,3,2,09,11,42,084,42,14,55,130,44,28,42,308,45,34,23,098,42,1*72
$GBGSV,3,3,09,37,18,277,30,1*43
$GBGSV,2,1,06,04,35,132,43,07,68,219,43,08,52,254,30,10,67,255,42,3*7B
$GBGSV,2,2,06,11,42,084,40,14,55,130,40,3*7F
$GBGSV,2,1,07,01,43,152,,02,28,236,,03,44,206,,05,08,256,,0*77
$GBGSV,2,2,07,05,08,256,,13,43,250,,21,15,039,,0*43
$GNRMC,042314.00,A,3727.0689895,N,12639.3444888,E,0.010,,220622,,,R,V*02
$GNVTG,,T,,M,0.010,N,0.019,K,D*31
$GNGNS,042314.00,3727.0689895,N,12639.3444888,E,RRRR,28,0.74,26.819,17.840,,4095,V*2F
$GNGGA,042314.00,3727.0689895,N,12639.3444888,E,4,12,0.74,26.819,M,17.840,M,,4095*73
$GNGSA,A,3,17,03,09,14,19,06,01,04,,,,,1.49,0.74,1.29,1*06
$GNGSA,A,3,65,78,88,72,71,87,,,,,,,1.49,0.74,1.29,2*07
$GNGSA,A,3,34,05,09,30,36,,,,,,,,1.49,0.74,1.29,3*0B
$GNGSA,A,3,04,28,07,34,11,14,10,08,37,,,,1.49,0.74,1.29,4*07
$GPGSV,2,1,07,01,12,067,33,03,38,047,41,04,21,098,38,06,49,287,44,1*66
$GPGSV,2,2,07,09,19,132,38,17,77,062,47,19,66,334,44,1*54
$GPGSV,2,1,06,01,12,067,31,03,38,047,39,04,21,098,31,06,49,287,35,6*62
$GPGSV,2,2,06,14,32,189,17,17,77,062,40,6*61
$GPGSV,2,1,07,02,11,269,,11,15,263,,12,09,324,,20,02,220,,0*62
$GPGSV,2,2,07,20,02,220,,40,06,259,,41,27,238,,0*57
$GLGSV,2,1,06,65,23,167,14,71,32,044,38,72,50,110,49,78,26,300,32,1*72
$GLGSV,2,2,06,87,53,001,44,88,27,305,40,1*71
$GLGSV,2,1,06,65,23,167,13,71,32,044,24,72,50,110,37,77,25,238,14,3*71
$GLGSV,2,2,06,78,26,300,32,88,27,305,33,3*76
$GLGSV,1,1,03,76,01,198,,79,01,344,,86,23,076,,0*48
$GAGSV,1,1,04,09,30,093,43,30,40,286,44,34,51,298,34,36,55,040,35,2*7E
$GAGSV,2,1,06,05,20,148,17,09,30,093,42,18,46,307,48,30,40,286,42,7*72
$GAGSV,2,2,06,34,51,298,43,36,55,040,44,7*73
$GAGSV,2,1,06,02,39,215,,04,11,043,,11,13,073,,15,07,269,,0*74
$GAGSV,2,2,06,15,07,269,,25,07,175,,0*7F
$GBGSV,3,1,09,04,35,132,36,07,68,219,40,08,52,254,30,10,67,255,40,1*74
$GBGSV,3,2,09,11,42,084,42,14,55,130,44,28,42,308,45,34,23,098,42,1*72
$GBGSV,3,3,09,37,18,277,30,1*43
$GBGSV,2,1,07,03,44,206,27,04,35,132,43,07,68,219,43,08,52,254,30,3*7C
$GBGSV,2,2,07,10,67,255,42,11,42,084,41,14,55,130,40,3*4B
$GBGSV,2,1,06,01,43,152,,02,28,236,,05,08,256,,13,43,250,,0*73
$GBGSV,2,2,06,13,43,250,,21,15,039,,0*7E
$GNRMC,042315.00,A,3727.0689907,N,12639.3444899,E,0.011,,220622,,,R,V*08
$GNVTG,,T,,M,0.011,N,0.020,K,D*3A
$GNGNS,042315.00,3727.0689907,N,12639.3444899,E,RRRR,28,0.74,26.813,17.840,,4095,V*2E
$GNGGA,042315.00,3727.0689907,N,12639.3444899,E,4,12,0.74,26.813,M,17.840,M,,4095*72
$GNGSA,A,3,17,03,09,14,19,06,01,04,,,,,1.49,0.74,1.29,1*06
$GNGSA,A,3,65,78,88,72,71,87,,,,,,,1.49,0.74,1.29,2*07
$GNGSA,A,3,34,05,09,30,36,,,,,,,,1.49,0.74,1.29,3*0B
$GNGSA,A,3,04,28,07,34,11,14,10,08,37,,,,1.49,0.74,1.29,4*07
$GPGSV,2,1,07,01,12,067,33,03,38,047,43,04,21,098,40,06,49,287,46,1*69
$GPGSV,2,2,07,09,19,132,40,17,77,062,49,19,66,334,45,1*54
$GPGSV,2,1,06,01,12,067,31,03,38,047,39,04,21,098,32,06,49,287,35,6*61
$GPGSV,2,2,06,14,32,189,17,17,77,062,40,6*61
$GPGSV,2,1,07,02,11,269,,11,15,263,,12,09,324,,20,02,220,,0*62
$GPGSV,2,2,07,20,02,220,,40,06,259,,41,27,238,,0*57
$GLGSV,2,1,06,65,23,167,10,71,32,044,38,72,50,110,49,78,26,300,33,1*77
$GLGSV,2,2,06,87,53,001,43,88,27,305,41,1*77
$GLGSV,2,1,06,65,23,167,10,71,32,044,25,72,50,110,37,77,25,238,12,3*75
$GLGSV,2,2,06,78,26,300,32,88,27,305,33,3*76
$GLGSV,1,1,03,76,01,198,,79,01,344,,86,23,076,,0*48
$GAGSV,1,1,04,09,30,093,43,30,40,286,43,34,51,298,34,36,55,040,36,2*7A
$GAGSV,2,1,06,05,20,148,18,09,30,093,43,18,46,307,50,30,40,286,43,7*74
$GAGSV,2,2,06,34,51,298,45,36,55,040,46,7*77
$GAGSV,2,1,06,02,39,215,,04,11,043,,11,13,073,,15,07,269,,0*74
$GAGSV,2,2,06,15,07,269,,25,07,175,,0*7F
$GBGSV,3,1,09,04,35,132,36,07,68,219,40,08,52,254,30,10,67,255,40,1*74
$GNRMC,042316.00,A,3727.0689883,N,12639.3444885,E,0.008,,220622,,,R,V*03
$GNVTG,,T,,M,0.008,N,0.014,K,D*35
$GNGNS,042316.00,3727.0689883,N,12639.3444885,E,RRRR,28,0.74,26.829,17.840,,4095,V*24
$GNGGA,042316.00,3727.0689883,N,12639.3444885,E,4,12,0.74,26.829,M,17.840,M,,4095*78
$GNGSA,A,3,17,03,09,14,19,06,01,04,,,,,1.49,0.74,1.29,1*06
$GNGSA,A,3,65,78,88,72,71,87,,,,,,,1.49,0.74,1.29,2*07
$GNGSA,A,3,34,09,30,36,,,,,,,,,1.49,0.74,1.29,3*0E
$GNGSA,A,3,03,04,28,07,34,11,14,10,08,37,,,1.49,0.74,1.29,4*04
$GPGSV,2,1,07,01,12,067,33,03,38,047,42,04,21,098,40,06,49,287,46,1*68
$GPGSV,2,2,07,09,19,132,40,17,77,062,48,19,66,334,45,1*55
$GPGSV,2,1,06,01,12,067,32,03,38,047,40,04,21,098,32,06,49,287,35,6*6C
$GPGSV,2,2,06,14,32,189,16,17,77,062,40,6*60
$GPGSV,2,1,07,02,11,269,,11,15,263,,12,09,324,,20,02,220,,0*62
$GPGSV,2,2,07,20,02,220,,40,06,259,,41,27,238,,0*57
$GLGSV,2,1,06,65,23,167,09,71,32,044,38,72,50,110,49,78,26,300,33,1*7F
$GLGSV,2,2,06,87,53,001,44,88,27,305,42,1*73
$GLGSV,2,1,06,65,23,167,09,71,32,044,25,72,50,110,37,77,25,238,09,3*77
$GLGSV,2,2,06,78,26,300,32,88,27,305,33,3*76
$GLGSV,1,1,03,76,01,198,,79,01,344,,86,23,076,,0*48
$GAGSV,1,1,04,09,30,093,43,30,40,286,43,34,51,298,35,36,55,040,35,2*78
$GAGSV,2,1,05,09,30,093,43,18,46,307,49,30,40,286,42,34,51,298,43,7*7A
$GAGSV,2,2,05,36,55,040,45,7*46
$GAGSV,2,1,07,02,39,215,,04,11,043,,05,20,148,,11,13,073,,0*71
$GAGSV,2,2,07,11,13,073,,15,07,269,,25,07,175,,0*48
$GBGSV,3,1,09,04,35,132,37,07,68,219,40,08,52,254,30,10,67,255,40,1*75
$GBGSV,3,2,09,11,42,084,42,14,55,130,44,28,42,308,45,34,23,098,42,1*72
$GBGSV,3,3,09,37,18,277,30,1*43
$GBGSV,2,1,07,03,44,206,27,04,35,132,43,07,68,219,44,08,52,254,30,3*7B
$GBGSV,2,2,07,10,67,255,42,11,42,084,43,14,55,130,41,3*48
$GBGSV,2,1,06,01,43,152,,02,28,236,,05,08,256,,13,43,250,,0*73
$GBGSV,2,2,06,13,43,250,,21,15,039,,0*7E
$GNRMC,042317.00,A,3727.0689885,N,12639.3444915,E,0.003,,220622,,,R,V*07
$GNVTG,,T,,M,0.003,N,0.006,K,D*3D
$GNGNS,042317.00,3727.0689885,N,12639.3444915,E,RRRR,28,0.74,26.839,17.840,,4095,V*2A
$GNGGA,042317.00,3727.0689885,N,12639.3444915,E,4,12,0.74,26.839,M,17.840,M,,4095*76
$GNGSA,A,3,17,03,09,14,19,06,01,04,,,,,1.49,0.74,1.29,1*06
$GNGSA,A,3,77,65,78,88,72,71,87,,,,,,1.49,0.74,1.29,2*07
$GNGSA,A,3,34,09,30,36,,,,,,,,,1.49,0.74,1.29,3*0E
$GNGSA,A,3,04,28,07,34,11,14,10,08,37,,,,1.49,0.74,1.29,4*07
$GPGSV,2,1,07,01,12,067,33,03,38,047,41,04,21,098,39,06,49,287,46,1*65
$GPGSV,2,2,07,09,19,132,39,17,77,062,48,19,66,334,44,1*5A
$GPGSV,2,1,06,01,12,067,32,03,38,047,38,04,21,098,33,06,49,287,35,6*62
$GPGSV,2,2,06,14,32,189,16,17,77,062,40,6*60
$GPGSV,2,1,07,02,11,269,,11,15,263,,12,09,324,,20,02,220,,0*62
$GPGSV,2,2,07,20,02,220,,40,06,259,,41,27,238,,0*57
$GLGSV,2,1,06,65,23,167,13,71,32,044,38,72,50,110,48,78,26,300,33,1*75
$GLGSV,2,2,06,87,53,001,43,88,27,305,41,1*77
$GLGSV,2,1,06,65,23,167,13,71,32,044,26,72,50,110,37,77,25,238,09,3*7F
$GLGSV,2,2,06,78,26,300,32,88,27,305,33,3*76
$GLGSV,1,1,03,76,01,198,,79,01,344,,86,23,076,,0*48
$GAGSV,1,1,04,09,30,093,43,30,40,286,43,34,51,298,35,36,55,040,36,2*7B
$GAGSV,2,1,05,09,30,093,42,18,46,307,48,30,40,286,42,34,51,298,42,7*7B
$GAGSV,2,2,05,36,55,040,44,7*47
$GAGSV,2,1,07,02,39,215,,04,11,043,,05,20,148,,11,13,073,,0*71
$GAGSV,2,2,07,11,13,073,,15,07,269,,25,07,175,,0*48
$GBGSV,3,1,09,04,35,132,36,07,68,219,40,08,52,254,30,10,67,255,40,1*74
$GBGSV,3,2,09,11,42,084,42,14,55,130,44,28,42,308,45,34,23,098,42,1*72
$GBGSV,3,3,09,37,18,277,30,1*43
$GBGSV,2,1,06,04,35,132,43,07,68,219,43,08,52,254,30,10,67,255,42,3*7B
$GBGSV,2,2,06,11,42,084,42,14,55,130,41,3*7C
$GBGSV,2,1,07,01,43,152,,02,28,236,,03,44,206,,05,08,256,,0*77
$GBGSV,2,2,07,05,08,256,,13,43,250,,21,15,039,,0*43
$GNRMC,042318.00,A,3727.0689856,N,12639.3444898,E,0.018,,220622,,,R,V*08
$GNVTG,,T,,M,0.018,N,0.033,K,D*31
$GNGNS,042318.00,3727.0689856,N,12639.3444898,E,RRRR,28,0.74,26.854,17.840,,4095,V*24
$GNGGA,042318.00,3727.0689856,N,12639.3444898,E,4,12,0.74,26.854,M,17.840,M,,4095*78
$GNGSA,A,3,17,03,09,14,19,06,01,04,,,,,1.49,0.74,1.29,1*06
$GNGSA,A,3,77,65,78,88,72,71,87,,,,,,1.49,0.74,1.29,2*07
$GNGSA,A,3,34,09,30,36,,,,,,,,,1.49,0.74,1.29,3*0E
$GNGSA,A,3,04,28,07,34,11,14,10,08,37,,,,1.49,0.74,1.29,4*07
$GPGSV,2,1,07,01,12,067,33,03,38,047,41,04,21,098,40,06,49,287,46,1*6B
$GPGSV,2,2,07,09,19,132,39,17,77,062,47,19,66,334,44,1*55
$GPGSV,2,1,06,01,12,067,32,03,38,047,39,04,21,098,32,06,49,287,36,6*61
$GPGSV,2,2,06,14,32,189,16,17,77,062,40,6*60
$GPGSV,2,1,07,02,11,269,,11,15,263,,12,09,324,,20,02,220,,0*62
$GPGSV,2,2,07,20,02,220,,40,06,259,,41,27,238,,0*57
$GLGSV,2,1,06,65,24,166,09,71,32,044,39,72,50,110,49,78,26,300,32,1*79
$GLGSV,2,2,06,87,53,001,43,88,27,305,41,1*77
$GLGSV,2,1,06,65,24,166,12,71,32,044,26,72,50,110,37,77,25,238,13,3*73
$GLGSV,2,2,06,78,26,300,33,88,27,305,33,3*77
$GLGSV,1,1,03,76,01,198,,79,01,344,,86,23,076,,0*48
$GAGSV,1,1,04,09,30,093,43,30,40,286,43,34,51,298,34,36,55,040,36,2*7A
$GAGSV,2,1,05,09,30,093,42,18,46,307,48,30,40,286,41,34,51,298,42,7*78
$GAGSV,2,2,05,36,55,040,44,7*47
$GAGSV,2,1,07,02,39,215,,04,11,043,,05,20,148,,11,13,073,,0*71
$GAGSV,2,2,07,11,13,073,,15,07,269,,25,07,175,,0*48
$GBGSV,3,1,09,04,35,132,36,07,68,219,40,08,52,254,30,10,67,255,40,1*74
$GBGSV,3,2,09,11,42,084,42,14,55,130,44,28,42,308,45,34,23,098,42,1*72
$GBGSV,3,3,09,37,18,277,30,1*43
$GBGSV,2,1,07,04,35,132,43,07,68,219,44,08,52,254,30,10,67,255,42,3*7D
$GBGSV,2,2,07,11,42,084,42,14,55,130,41,34,23,098,21,3*49
$GNRMC,042319.00,A,3727.0689798,N,12639.3444898,E,0.011,,220622,,,R,V*0D
$GNVTG,,T,,M,0.011,N,0.020,K,D*3A
$GNGNS,042319.00,3727.0689798,N,12639.3444898,E,RRRR,28,0.74,26.830,17.840,,4095,V*2A
$GNGGA,042319.00,3727.0689798,N,12639.3444898,E,4,12,0.74,26.830,M,17.840,M,,4095*76
$GNGSA,A,3,17,03,09,14,19,06,01,04,,,,,1.49,0.74,1.29,1*06
$GNGSA,A,3,77,65,78,88,72,71,87,,,,,,1.49,0.74,1.29,2*07
$GNGSA,A,3,34,09,30,36,,,,,,,,,1.49,0.74,1.29,3*0E
$GNGSA,A,3,04,28,07,34,11,14,10,08,37,,,,1.49,0.74,1.29,4*07
$GPGSV,2,1,07,01,12,067,33,03,38,047,42,04,21,098,39,06,49,287,45,1*65
$GPGSV,2,2,07,09,19,132,38,17,77,062,47,19,66,334,44,1*54
$GPGSV,2,1,06,01,12,067,32,03,38,047,39,04,21,098,31,06,49,287,36,6*62
$GPGSV,2,2,06,14,32,189,18,17,77,062,40,6*6E
$GPGSV,2,1,07,02,11,269,,11,15,263,,12,09,324,,20,02,220,,0*62
$GPGSV,2,2,07,20,02,220,,40,06,259,,41,27,238,,0*57
$GLGSV,2,1,06,65,24,166,09,71,32,044,40,72,50,110,49,78,26,300,32,1*77
$GLGSV,2,2,06,87,53,001,44,88,27,305,41,1*70
$GLGSV,2,1,06,65,24,166,09,71,32,044,26,72,50,110,37,77,25,238,12,3*78
$GLGSV,2,2,06,78,26,300,32,88,27,305,33,3*76
$GLGSV,1,1,03,76,01,198,,79,01,344,,86,23,076,,0*48
$GAGSV,1,1,04,09,30,093,43,30,40,286,43,34,51,298,35,36,55,040,36,2*7B
$GAGSV,2,1,05,09,30,093,42,18,46,307,48,30,40,286,41,34,51,298,42,7*78
$GAGSV,2,2,05,36,55,040,44,7*47
$GAGSV,2,1,07,02,39,215,,04,11,043,,05,20,148,,11,13,073,,0*71
$GAGSV,2,2,07,11,13,073,,15,07,269,,25,07,175,,0*48
$GBGSV,3,1,09,04,35,132,36,07,68,219,40,08,52,254,29,10,67,255,40,1*7C
$GBGSV,3,2,09,11,42,084,42,14,55,130,44,28,42,308,45,34,23,098,42,1*72
$GBGSV,3,3,09,37,18,277,30,1*43
$GBGSV,2,1,07,04,35,132,43,07,68,219,43,08,52,254,30,10,67,255,42,3*7A
$GBGSV,2,2,07,11,42,084,42,14,55,130,41,34,23,098,17,3*4C
$GBGSV,2,1,07,01,43,152,,02,28,236,,03,44,206,,05,08,256,,0*77
$GBGSV,2,2,07,05,08,256,,13,43,250,,21,15,039,,0*43
$GNRMC,042320.00,A,3727.0689830,N,12639.3444897,E,0.015,,220622,,,R,V*01
$GNVTG,,T,,M,0.015,N,0.027,K,D*39
$GNGNS,042320.00,3727.0689830,N,12639.3444897,E,RRRR,27,0.74,26.820,17.840,,4095,V*2C
$GNGGA,042320.00,3727.0689830,N,12639.3444897,E,4,12,0.74,26.820,M,17.840,M,,4095*7F
$GNGSA,A,3,17,03,09,14,19,06,01,04,,,,,1.48,0.74,1.27,1*09
$GNGSA,A,3,77,65,78,88,72,71,87,,,,,,1.48,0.74,1.27,2*08
$GNGSA,A,3,34,09,30,36,,,,,,,,,1.48,0.74,1.27,3*01
$GNGSA,A,3,04,28,07,34,11,14,10,08,37,,,,1.48,0.74,1.27,4*08
$GPGSV,2,1,07,01,12,067,33,03,38,047,42,04,21,098,39,06,49,287,45,1*65
$GPGSV,2,2,07,09,19,132,38,17,77,062,47,19,66,334,44,1*54
$GPGSV,2,1,06,01,12,067,32,03,38,047,39,04,21,098,32,06,49,287,35,6*62
$GPGSV,2,2,06,14,32,189,18,17,77,062,40,6*6E
$GPGSV,2,1,07,02,11,269,,11,15,263,,12,09,324,,20,02,220,,0*62
$GPGSV,2,2,07,20,02,220,,40,06,259,,41,27,238,,0*57
$GLGSV,2,1,06,65,24,166,07,71,32,044,38,72,50,110,49,78,26,300,32,1*76
$GLGSV,2,2,06,87,53,001,43,88,27,305,41,1*77
$GLGSV,2,1,06,65,24,166,09,71,32,044,26,72,50,110,37,77,25,238,09,3*72
$GLGSV,2,2,06,78,26,300,32,88,27,305,33,3*76
$GLGSV,1,1,03,76,01,198,,79,01,344,,86,23,076,,0*48
$GAGSV,1,1,04,09,30,093,43,30,40,286,43,34,51,298,35,36,55,040,36,2*7B
$GAGSV,2,1,05,09,30,093,42,18,46,307,48,30,40,286,41,34,51,298,42,7*78
$GAGSV,2,2,05,36,55,040,45,7*46
$GAGSV,2,1,07,02,39,215,,04,11,043,,05,20,148,,11,13,073,,0*71
$GAGSV,2,2,07,11,13,073,,15,07,269,,25,07,175,,0*48
$GBGSV,3,1,09,04,35,132,36,07,68,219,40,08,52,254,29,10,67,255,40,1*7C
$GBGSV,3,2,09,11,42,084,42,14,55,130,44,28,42,308,45,34,23,098,42,1*72
$GBGSV,3,3,09,37,18,277,30,1*43
$GBGSV,2,1,07,04,35,132,43,07,68,219,44,08,52,254,30,10,67,255,42,3*7D
$GBGSV,2,2,07,11,42,084,42,14,55,130,41,34,23,098,15,3*4E
$GBGSV,2,1,07,01,43,152,,02,28,236,,03,44,206,,05,08,256,,0*77
$GBGSV,2,2,07,05,08,256,,13,43,250,,21,15,039,,0*43
$GNRMC,042321.00,A,3727.0689842,N,12639.3444881,E,0.014,,220622,,,R,V*03
$GNVTG,,T,,M,0.014,N,0.026,K,D*39
$GNGNS,042321.00,3727.0689842,N,12639.3444881,E,RRRR,28,0.74,26.819,17.840,,4095,V*2A
$GNGGA,042321.00,3727.0689842,N,12639.3444881,E,4,12,0.74,26.819,M,17.840,M,,4095*76
$GNGSA,A,3,17,03,09,14,19,06,01,04,,,,,1.49,0.74,1.29,1*06
$GNGSA,A,3,77,65,78,88,72,71,87,,,,,,1.49,0.74,1.29,2*07
$GNGSA,A,3,34,09,30,36,,,,,,,,,1.49,0.74,1.29,3*0E
$GNGSA,A,3,04,28,07,34,11,14,10,08,37,,,,1.49,0.74,1.29,4*07
$GPGSV,2,1,08,01,12,067,33,03,38,047,41,04,21,098,39,06,49,287,45,1*69
$GPGSV,2,2,08,09,19,132,38,17,77,062,47,19,66,334,44,41,27,238,27,1*67
$GPGSV,2,1,06,01,12,067,32,03,38,047,40,04,21,098,32,06,49,287,35,6*6C
$GPGSV,2,2,06,14,32,189,18,17,77,062,39,6*60
$GPGSV,2,1,06,02,11,269,,11,15,263,,12,09,324,,20,02,220,,0*63
$GPGSV,2,2,06,20,02,220,,40,06,259,,0*6F
$GLGSV,2,1,06,65,24,166,10,71,32,044,39,72,50,110,48,78,26,300,32,1*70
$GLGSV,2,2,06,87,53,001,44,88,27,305,41,1*70
$GLGSV,2,1,06,65,24,166,09,71,32,044,26,72,50,110,37,77,25,238,11,3*7B
$GLGSV,2,2,06,78,26,300,32,88,27,305,33,3*76
$GLGSV,1,1,03,76,01,198,,79,01,344,,86,23,076,,0*48
$GAGSV,1,1,04,09,30,093,43,30,40,286,43,34,51,298,35,36,55,040,36,2*7B
$GAGSV,2,1,05,09,30,093,42,18,46,307,48,30,40,286,41,34,51,298,42,7*78
$GAGSV,2,2,05,36,55,040,44,7*47
$GAGSV,2,1,07,02,39,215,,04,11,043,,05,20,148,,11,13,073,,0*71
$GAGSV,2,2,07,11,13,073,,15,07,269,,25,07,175,,0*48
$GBGSV,3,1,09,04,35,132,36,07,68,219,40,08,52,254,29,10,67,255,40,1*7C
$GNRMC,042322.00,A,3727.0689845,N,12639.3444883,E,0.009,,220622,,,R,V*09
$GNVTG,,T,,M,0.009,N,0.017,K,D*37
$GNGNS,042322.00,3727.0689845,N,12639.3444883,E,RRRR,28,0.74,26.831,17.840,,4095,V*26
$GNGGA,042322.00,3727.0689845,N,12639.3444883,E,4,12,0.74,26.831,M,17.840,M,,4095*7A
$GNGSA,A,3,17,03,09,14,19,06,01,04,,,,,1.49,0.74,1.29,1*06
$GNGSA,A,3,77,65,78,88,72,71,87,,,,,,1.49,0.74,1.29,2*07
$GNGSA,A,3,34,09,30,36,,,,,,,,,1.49,0.74,1.29,3*0E
$GNGSA,A,3,04,28,07,34,11,14,10,08,37,,,,1.49,0.74,1.29,4*07
$GPGSV,2,1,07,01,12,067,32,03,38,047,41,04,21,098,39,06,49,287,44,1*66
$GPGSV,2,2,07,09,19,132,38,17,77,062,46,19,66,334,44,1*55
$GPGSV,2,1,06,01,12,067,32,03,38,047,40,04,21,098,33,06,49,287,35,6*6D
$GPGSV,2,2,06,14,32,189,18,17,77,062,39,6*60
$GPGSV,2,1,07,02,11,269,,11,15,263,,12,09,324,,20,02,220,,0*62
$GPGSV,2,2,07,20,02,220,,40,06,259,,41,27,238,,0*57
$GLGSV,2,1,06,65,24,166,08,71,32,044,39,72,50,110,48,78,26,300,32,1*79
$GLGSV,2,2,06,87,53,001,44,88,27,305,41,1*70
$GLGSV,2,1,06,65,24,166,10,71,32,044,27,72,50,110,37,77,25,238,09,3*7B
$GLGSV,2,2,06,78,26,300,31,88,27,305,33,3*75
$GLGSV,1,1,03,76,01,198,,79,01,344,,86,23,076,,0*48
$GAGSV,1,1,04,09,30,093,43,30,40,286,43,34,51,298,35,36,55,040,35,2*78
$GAGSV,2,1,05,09,30,093,42,18,46,307,48,30,40,286,41,34,51,298,42,7*78
$GAGSV,2,2,05,36,55,040,44,7*47
$GAGSV,2,1,07,02,39,215,,04,11,043,,05,20,148,,11,13,073,,0*71
$GAGSV,2,2,07,11,13,073,,15,07,269,,25,07,175,,0*48
$GBGSV,3,1,09,04,35,132,36,07,68,219,40,08,52,254,29,10,67,255,40,1*7C
$GBGSV,3,2,09,11,42,084,42,14,55,130,44,28,42,308,45,34,23,098,42,1*72
$GBGSV,3,3,09,37,18,277,30,1*43
$GBGSV,2,1,07,04,35,132,43,07,68,219,43,08,52,254,31,10,67,255,42,3*7B
$GBGSV,2,2,07,11,42,084,42,14,55,130,41,34,23,098,09,3*43
$GBGSV,2,1,07,01,43,152,,02,28,236,,03,44,206,,05,08,256,,0*77
$GBGSV,2,2,07,05,08,256,,13,43,250,,21,15,039,,0*43
$GNRMC,042323.00,A,3727.0689820,N,12639.3444879,E,0.008,,220622,,,R,V*0F
$GNVTG,,T,,M,0.008,N,0.015,K,D*34
$GNGNS,042323.00,3727.0689820,N,12639.3444879,E,RRRR,28,0.69,26.830,17.840,,4095,V*2C
$GNGGA,042323.00,3727.0689820,N,12639.3444879,E,4,12,0.69,26.830,M,17.840,M,,4095*70
$GNGSA,A,3,17,03,09,14,19,06,01,04,,,,,1.43,0.69,1.25,1*0C
$GNGSA,A,3,77,65,78,88,72,71,87,,,,,,1.43,0.69,1.25,2*0D
$GNGSA,A,3,34,09,30,36,,,,,,,,,1.43,0.69,1.25,3*04
$GNGSA,A,3,04,28,07,34,11,14,10,08,37,,,,1.43,0.69,1.25,4*0D
$GPGSV,2,1,07,01,12,067,32,03,38,047,41,04,21,098,39,06,49,287,44,1*66
$GPGSV,2,2,07,09,19,132,38,17,77,062,46,19,66,334,44,1*55
$GPGSV,2,1,06,01,12,067,31,03,38,047,40,04,21,098,32,06,49,287,35,6*6F
$GPGSV,2,2,06,14,32,189,18,17,77,062,39,6*60
$GPGSV,2,1,07,02,11,269,,11,15,263,,12,09,324,,20,02,220,,0*62
$GPGSV,2,2,07,20,02,220,,40,06,259,,41,27,238,,0*57
$GLGSV,2,1,06,65,24,166,14,71,32,044,39,72,50,110,48,78,26,300,33,1*75
$GLGSV,2,2,06,87,53,001,44,88,27,305,41,1*70
$GLGSV,2,1,06,65,24,166,10,71,32,044,27,72,50,110,37,77,25,238,08,3*7A
$GLGSV,2,2,06,78,26,300,31,88,27,305,33,3*75
$GLGSV,1,1,03,76,01,198,,79,01,344,,86,23,076,,0*48
$GAGSV,1,1,04,09,30,093,43,30,40,286,43,34,51,298,35,36,55,040,36,2*7B
$GAGSV,2,1,05,09,30,093,42,18,46,307,48,30,40,286,41,34,51,298,42,7*78
$GAGSV,2,2,05,36,55,040,44,7*47
$GAGSV,2,1,07,02,39,215,,04,11,043,,05,20,148,,11,13,073,,0*71
$GAGSV,2,2,07,11,13,073,,15,07,269,,25,07,175,,0*48
$GBGSV,3,1,09,04,35,132,36,07,68,219,40,08,52,254,29,10,67,255,40,1*7C
$GBGSV,3,2,09,11,42,084,42,14,55,130,44,28,42,308,45,34,23,098,42,1*72
$GBGSV,3,3,09,37,18,277,30,1*43
$GBGSV,2,1,07,04,35,132,43,07,68,219,43,08,52,254,31,10,67,255,42,3*7B
$GBGSV,2,2,07,11,42,084,42,14,55,130,41,34,23,098,10,3*4B
$GBGSV,2,1,07,01,43,152,,02,28,236,,03,44,206,,05,08,256,,0*77
$GBGSV,2,2,07,05,08,256,,13,43,250,,21,15,039,,0*43
$GNRMC,042324.00,A,3727.0689820,N,12639.3444886,E,0.015,,220622,,,R,V*04
$GNVTG,,T,,M,0.015,N,0.027,K,D*39
$GNGNS,042324.00,3727.0689820,N,12639.3444886,E,RRRR,28,0.74,26.827,17.840,,4095,V*21
$GNGGA,042324.00,3727.0689820,N,12639.3444886,E,4,12,0.74,26.827,M,17.840,M,,4095*7D
$GNGSA,A,3,17,03,09,14,19,06,01,04,,,,,1.49,0.74,1.29,1*06
$GNGSA,A,3,77,65,78,88,72,71,87,,,,,,1.49,0.74,1.29,2*07
$GNGSA,A,3,34,09,30,36,,,,,,,,,1.49,0.74,1.29,3*0E
$GNGSA,A,3,04,28,07,34,11,14,10,08,37,,,,1.49,0.74,1.29,4*07
$GPGSV,2,1,07,01,12,067,32,03,38,047,42,04,21,098,39,06,49,287,45,1*64
$GPGSV,2,2,07,09,19,132,38,17,77,062,46,19,66,334,44,1*55
$GPGSV,2,1,06,01,12,067,32,03,38,047,39,04,21,098,32,06,49,287,35,6*62
$GPGSV,2,2,06,14,32,189,18,17,77,062,40,6*6E
$GPGSV,2,1,07,02,11,269,,11,15,263,,12,09,324,,20,02,220,,0*62
$GPGSV,2,2,07,20,02,220,,40,06,259,,41,27,238,,0*57
$GLGSV,2,1,06,65,24,166,13,71,31,043,39,72,50,110,48,78,26,300,35,1*70
$GLGSV,2,2,06,87,53,001,44,88,27,305,41,1*70
$GLGSV,2,1,06,65,24,166,09,71,31,043,28,72,50,110,37,77,25,238,10,3*70
$GLGSV,2,2,06,78,26,300,31,88,27,305,33,3*75
$GLGSV,1,1,03,76,01,198,,79,01,344,,86,23,076,,0*48
$GAGSV,1,1,04,09,30,093,43,30,40,286,43,34,51,298,35,36,55,041,35,2*79
$GAGSV,2,1,05,09,30,093,41,18,46,307,48,30,40,286,41,34,51,298,42,7*7B
$GAGSV,2,2,05,36,55,041,44,7*46
$GAGSV,2,1,07,02,39,215,,04,11,043,,05,20,148,,11,13,073,,0*71
$GAGSV,2,2,07,11,13,073,,15,07,269,,25,07,175,,0*48
$GBGSV,3,3,09,37,18,277,30,1*43
$GBGSV,2,1,07,04,35,132,43,07,68,219,43,08,52,254,31,10,67,255,42,3*7B
$GBGSV,2,2,07,11,42,084,42,14,55,130,40,34,23,098,09,3*42
$GBGSV,2,1,07,01,43,152,,02,28,236,,03,44,206,,05,08,256,,0*77
$GBGSV,2,2,07,05,08,256,,13,43,250,,21,15,039,,0*43
$GNRMC,042325.00,A,3727.0689826,N,12639.3444911,E,0.001,,220622,,,R,V*09
$GNVTG,,T,,M,0.001,N,0.001,K,D*38
$GNGNS,042325.00,3727.0689826,N,12639.3444911,E,RRRR,28,0.74,26.834,17.840,,4095,V*2B
$GNGGA,042325.00,3727.0689826,N,12639.3444911,E,4,12,0.74,26.834,M,17.840,M,,4095*77
$GNGSA,A,3,17,03,09,14,19,06,01,04,,,,,1.49,0.74,1.29,1*06
$GNGSA,A,3,77,65,78,88,72,71,87,,,,,,1.49,0.74,1.29,2*07
$GNGSA,A,3,34,09,30,36,,,,,,,,,1.49,0.74,1.29,3*0E
$GNGSA,A,3,04,28,07,34,11,14,10,08,37,,,,1.49,0.74,1.29,4*07
$GPGSV,2,1,08,01,12,067,32,03,38,047,42,04,21,098,39,06,49,287,45,1*6B
$GPGSV,2,2,08,09,19,132,38,17,77,062,46,19,66,334,44,50,47,179,27,1*66
$GPGSV,2,1,06,01,12,067,31,03,38,047,39,04,21,098,32,06,49,287,36,6*62
$GPGSV,2,2,06,14,32,189,18,17,77,062,40,6*6E
$GPGSV,2,1,06,02,11,269,,11,15,263,,12,09,324,,20,02,220,,0*63
$GPGSV,2,2,06,20,02,220,,40,06,259,,0*6F
$GLGSV,2,1,06,65,24,166,13,71,31,043,40,72,51,109,48,78,26,300,34,1*76
$GLGSV,2,2,06,87,53,001,44,88,27,305,41,1*70
$GLGSV,2,1,06,65,24,166,10,71,31,043,29,72,51,109,37,77,25,238,10,3*70
$GLGSV,2,2,06,78,26,300,32,88,27,305,33,3*76
$GLGSV,1,1,03,76,01,198,,79,01,344,,86,23,076,,0*48
$GAGSV,1,1,04,09,30,093,43,30,40,286,43,34,51,298,35,36,55,041,35,2*79
$GAGSV,2,1,05,09,30,093,41,18,46,307,48,30,40,286,41,34,51,298,42,7*7B
$GAGSV,2,2,05,36,55,041,44,7*46
$GAGSV,2,1,07,02,39,215,,04,11,043,,05,20,148,,11,13,073,,0*71
$GAGSV,2,2,07,11,13,073,,15,07,269,,25,07,175,,0*48
$GBGSV,3,1,09,04,35,132,36,07,68,219,40,08,52,254,29,10,67,255,40,1*7C
$GBGSV,3,2,09,11,42,084,41,14,55,130,44,28,42,308,45,34,23,098,42,1*71
$GBGSV,3,3,09,37,18,277,30,1*43
$GBGSV,2,1,07,04,35,132,43,07,68,219,43,08,52,254,30,10,67,255,42,3*7A
$GBGSV,2,2,07,11,42,084,42,14,55,130,40,34,23,098,08,3*43
$GBGSV,2,1,07,01,43,152,,02,28,236,,03,44,206,,05,08,256,,0*77
$GBGSV,2,2,07,05,08,256,,13,43,250,,21,15,039,,0*43
$GNRMC,042326.00,A,3727.0689867,N,12639.3444899,E,0.021,,220622,,,R,V*0C
$GNVTG,,T,,M,0.021,N,0.038,K,D*30
$GNGNS,042326.00,3727.0689867,N,12639.3444899,E,RRRR,28,0.74,26.823,17.840,,4095,V*2A
$GNGGA,042326.00,3727.0689867,N,12639.3444899,E,4,12,0.74,26.823,M,17.840,M,,4095*76
$GNGSA,A,3,17,03,09,14,19,06,01,04,,,,,1.48,0.74,1.27,1*09
$GNGSA,A,3,77,65,78,88,72,71,87,,,,,,1.48,0.74,1.27,2*08
$GNGSA,A,3,34,09,30,36,,,,,,,,,1.48,0.74,1.27,3*01
$GNGSA,A,3,04,28,07,34,11,14,10,08,37,,,,1.48,0.74,1.27,4*08
$GPGSV,2,1,08,01,12,067,31,03,38,047,42,04,21,098,39,06,49,287,45,1*68
$GPGSV,2,2,08,09,19,132,38,17,77,062,46,19,66,334,44,50,47,179,27,1*66
$GPGSV,2,1,06,01,12,067,31,03,38,047,40,04,21,098,33,06,49,287,35,6*6E
$GPGSV,2,2,06,14,32,189,17,17,77,062,39,6*6F
$GPGSV,2,1,06,02,11,269,,11,15,263,,12,09,324,,20,02,220,,0*63
$GPGSV,2,2,06,20,02,220,,40,06,259,,0*6F
$GLGSV,2,1,06,65,24,166,17,71,31,043,40,72,51,109,48,78,26,300,34,1*72
$GLGSV,2,2,06,87,53,001,44,88,27,305,41,1*70
$GLGSV,2,1,06,65,24,166,10,71,31,043,29,72,51,109,37,77,25,238,10,3*70
$GLGSV,2,2,06,78,26,300,33,88,27,305,32,3*76
$GLGSV,1,1,03,76,01,198,,79,01,344,,86,23,076,,0*48
$GAGSV,1,1,04,09,30,093,42,30,40,286,42,34,51,298,35,36,55,041,35,2*79
$GAGSV,2,1,05,09,30,093,41,18,46,307,49,30,40,286,41,34,51,298,42,7*7A
$GAGSV,2,2,05,36,55,041,44,7*46
$GAGSV,2,1,07,02,39,215,,04,11,043,,05,20,148,,11,13,073,,0*71
$GAGSV,2,2,07,11,13,073,,15,07,269,,25,07,175,,0*48
$GBGSV,3,1,09,04,35,132,36,07,68,219,40,08,52,254,29,10,67,255,40,1*7C
$GBGSV,3,2,09,11,42,084,41,14,55,130,44,28,42,308,45,34,23,098,42,1*71
$GBGSV,3,3,09,37,18,277,30,1*43
$GBGSV,2,1,07,04,35,132,43,07,68,219,42,08,52,254,29,10,67,255,41,3*70
$GBGSV,2,2,07,11,42,084,42,14,55,130,40,34,23,098,08,3*43
$GBGSV,2,1,07,01,43,152,,02,28,236,,03,44,206,,05,08,256,,0*77
$GBGSV,2,2,07,05,08,256,,13,43,250,,21,15,039,,0*43
$GNRMC,042327.00,A,3727.0689882,N,12639.3444890,E,0.015,,220622,,,R,V*08
$GNVTG,,T,,M,0.015,N,0.027,K,D*39
$GNGNS,042327.00,3727.0689882,N,12639.3444890,E,RRRR,28,0.74,26.819,17.840,,4095,V*20
$GNGGA,042327.00,3727.0689882,N,12639.3444890,E,4,12,0.74,26.819,M,17.840,M,,4095*7C
$GNGSA,A,3,17,03,09,14,19,06,01,04,,,,,1.49,0.74,1.29,1*06
$GNGSA,A,3,77,65,78,88,72,71,87,,,,,,1.49,0.74,1.29,2*07
$GNGSA,A,3,34,09,30,36,,,,,,,,,1.49,0.74,1.29,3*0E
$GNGSA,A,3,04,28,07,34,11,14,10,08,37,,,,1.49,0.74,1.29,4*07
$GPGSV,2,1,07,01,12,067,31,03,38,047,43,04,21,098,40,06,49,287,45,1*68
$GPGSV,2,2,07,09,19,132,38,17,77,062,47,19,66,334,44,1*54
$GPGSV,2,1,06,01,12,067,31,03,38,047,40,04,21,098,33,06,49,287,35,6*6E
$GPGSV,2,2,06,14,32,189,16,17,77,062,40,6*60
$GPGSV,2,1,07,02,11,269,,11,15,263,,12,09,324,,20,02,220,,0*62
$GPGSV,2,2,07,20,02,220,,40,06,259,,41,27,238,,0*57
$GLGSV,2,1,06,65,24,166,16,71,31,043,40,72,51,109,48,78,26,300,35,1*72
$GLGSV,2,2,06,87,53,001,44,88,27,305,42,1*73
$GLGSV,2,1,06,65,24,166,11,71,31,043,29,72,51,109,37,77,25,238,11,3*70
$GLGSV,2,2,06,78,26,300,33,88,27,305,33,3*77
$GLGSV,1,1,03,76,01,198,,79,01,344,,86,23,076,,0*48
$GAGSV,1,1,04,09,30,093,43,30,40,286,43,34,51,298,35,36,55,041,36,2*7A
$GAGSV,2,1,05,09,30,093,41,18,46,307,49,30,40,286,40,34,51,298,42,7*7B
$GAGSV,2,2,05,36,55,041,44,7*46
$GAGSV,2,1,07,02,39,215,,04,11,043,,05,20,148,,11,13,073,,0*71
$GAGSV,2,2,07,11,13,073,,15,07,269,,25,07,175,,0*48
$GBGSV,3,1,09,04,35,132,36,07,68,219,40,08,52,254,29,10,67,255,40,1*7C
$GBGSV,3,2,09,11,42,084,41,14,55,130,45,28,42,308,45,34,23,098,42,1*70
$GBGSV,3,3,09,37,18,277,30,1*43
$GBGSV,2,1,07,04,35,132,42,07,68,219,43,08,52,254,29,10,67,255,41,3*70
$GBGSV,2,2,07,11,42,084,42,14,55,130,40,34,23,098,08,3*43
$GBGSV,2,1,07,01,43,152,,02,28,236,,03,44,206,,05,08,256,,0*77
$GBGSV,2,2,07,05,08,256,,13,43,250,,21,15,039,,0*43
$GNRMC,042328.00,A,3727.0689850,N,12639.3444885,E,0.009,,220622,,,R,V*01
$GNVTG,,T,,M,0.009,N,0.017,K,D*37
$GNGNS,042328.00,3727.0689850,N,12639.3444885,E,RRRR,28,0.74,26.823,17.840,,4095,V*2D
$GNGGA,042328.00,3727.0689850,N,12639.3444885,E,4,12,0.74,26.823,M,17.840,M,,4095*71
$GNGSA,A,3,17,03,09,14,19,06,01,04,,,,,1.49,0.74,1.29,1*06
$GNGSA,A,3,77,65,78,88,72,71,87,,,,,,1.49,0.74,1.29,2*07
$GNGSA,A,3,34,09,30,36,,,,,,,,,1.49,0.74,1.29,3*0E
$GNGSA,A,3,04,28,07,34,11,14,10,08,37,,,,1.49,0.74,1.29,4*07
$GPGSV,2,1,07,01,12,067,30,03,38,047,43,04,21,098,40,06,49,287,45,1*69
$GPGSV,2,2,07,09,19,132,38,17,77,062,47,19,66,334,44,1*54
$GPGSV,2,1,06,01,12,067,31,03,38,047,40,04,21,098,33,06,49,287,34,6*6F
$GPGSV,2,2,06,14,32,189,15,17,77,062,40,6*63
$GPGSV,2,1,07,02,11,269,,11,15,263,,12,09,324,,20,02,220,,0*62
$GPGSV,2,2,07,20,02,220,,40,06,259,,41,27,238,,0*57
$GLGSV,2,1,06,65,24,166,14,71,31,043,40,72,51,109,47,78,26,300,35,1*7F
$GLGSV,2,2,06,87,53,001,44,88,27,305,41,1*70
