$GNRMC,035318.00,A,3727.1196779,N,12639.1606412,E,0.027,,220622,,,F,V*12
$GNVTG,,T,,M,0.027,N,0.050,K,D*38
$GNGNS,035318.00,3727.1196779,N,12639.1606412,E,FFFF,28,0.60,27.654,17.833,2.0,4095,V*04
$GNGGA,035318.00,3727.1196779,N,12639.1606412,E,5,12,0.60,27.654,M,17.833,M,2.0,4095*59
$GNGSA,A,3,78,76,72,88,71,87,77,,,,,,1.14,0.60,0.97,2*0C
$GNGSA,A,3,30,09,34,02,11,36,,,,,,,1.14,0.60,0.97,3*05
$GNGSA,A,3,11,23,08,34,37,07,28,10,,,,,1.14,0.60,0.97,4*0E
$GPGSV,3,1,09,01,21,059,31,03,49,057,47,04,14,110,34,06,41,271,44,1*6D
$GPGSV,3,2,09,14,46,193,26,17,73,005,47,19,53,321,43,28,,,30,1*50
$GPGSV,3,3,09,41,27,238,28,1*5E
$GPGSV,2,1,06,01,21,059,26,03,49,057,42,04,14,110,20,06,41,271,33,6*62
$GPGSV,2,2,06,14,46,193,19,17,73,005,33,6*66
$GPGSV,1,1,01,40,06,259,,0*58
$GLGSV,2,1,07,71,37,061,47,72,39,127,26,76,13,203,28,77,36,252,36,1*78
$GLGSV,2,2,07,78,23,316,27,87,49,335,42,88,19,291,35,1*45
$GLGSV,2,1,06,71,37,061,44,72,39,127,17,76,13,203,18,77,36,252,27,3*79
$GLGSV,2,2,06,78,23,316,36,88,19,291,22,3*71
$GLGSV,1,1,03,65,09,170,,70,05,022,,86,31,061,,0*4F
$GAGSV,2,1,08,02,50,223,21,04,13,052,21,09,24,104,33,11,20,064,30,2*71
$GAGSV,2,2,08,18,31,302,39,30,37,300,36,34,45,283,43,36,62,023,36,2*72
$GAGSV,2,1,06,02,50,223,3$GNRMC,035319.00,A,3727.1196913,N,12639.1606331,E,0.015,,220622,,,F,V*16
$GNVTG,,T,,M,0.015,N,0.027,K,D*39
$GNGNS,035319.00,3727.1196913,N,12639.1606331,E,FFFF,28,0.60,27.600,17.833,2.0,4095,V*00
$GNGGA,035319.00,3727.1196913,N,12639.1606331,E,5,12,0.60,27.600,M,17.833,M,2.0,4095*5D
$GNGSA,A,3,14,19,06,17,04,03,01,,,,,,1.14,0.60,0.97,1*06
$GNGSA,A,3,78,76,72,88,71,87,77,,,,,,1.14,0.60,0.97,2*0C
$GNGSA,A,3,30,09,34,02,11,36,,,,,,,1.14,0.60,0.97,3*05
$GNGSA,A,3,11,23,08,34,37,07,28,10,,,,,1.14,0.60,0.97,4*0E
$GPGSV,3,1,09,01,21,059,30,03,49,057,47,04,14,110,35,06,41,271,43,1*6A
$GPGSV,3,2,09,14,46,193,26,17,73,005,47,19,53,321,41,28,,,32,1*50
$GPGSV,3,3,09,41,27,238,29,1*5F
$GPGSV,2,1,06,01,21,059,24,03,49,057,42,04,14,110,20,06,41,271,34,6*67
$GPGSV,2,2,06,14,46,193,19,17,73,005,32,6*67
$GPGSV,1,1,01,40,06,259,,0*58
$GLGSV,2,1,07,71,37,061,48,72,39,127,26,76,13,203,28,77,36,251,36,1*74
$GLGSV,2,2,07,78,23,316,26,87,49,335,42,88,19,291,34,1*45
$GLGSV,2,1,06,71,37,061,44,72,39,127,17,76,13,203,17,77,36,251,28,3*7A
$GLGSV,2,2,06,78,23,316,36,88,19,291,21,3*72
$GLGSV,1,1,03,65,09,170,,70,05,022,,86,31,061,,0*4F
$GAGSV,2,1,08,02,50,223,20,04,13,052,21,09,24,104,34,11,20,064,30,2*77
$GAGSV,2,2,08,18,31,302,39,30,37,300,36,34,45,283,44,36,62,023,36,2*75
$GAGSV,2,1,06,02,50,223,33,09,24,104,34,18,31,302,31,30,37,300,40,7*77
$GAGSV,2,2,06,34,45,283,45,36,62,023,34,7*7C
$GAGSV,1,1,02,15,01,260,,25,18,176,,0*79
$GBGSV,2,1,08,07,74,226,35,08,51,242,34,10,70,268,38,11,49,069,43,1*72
$GBGSV,2,2,08,23,23,236,33,28,33,298,39,34,31,087,23,37,21,289,28,1*7F
$GBGSV,1,1,04,07,74,226,33,08,51,242,36,10,70,268,33,11,49,069,44,3*77
$GBGSV,1,1,01,03,44,206,,0*41
$GNRMC,035320.00,A,3727.1196906,N,12639.1606385,E,0.015,,220622,,,F,V*17
$GNVTG,,T,,M,0.015,N,0.027,K,D*39
$GNGNS,035320.00,3727.1196906,N,12639.1606385,E,FFFF,27,0.60,27.542,17.833,2.0,4095,V*0B
$GNGGA,035320.00,3727.1196906,N,12639.1606385,E,5,12,0.60,27.542,M,17.833,M,2.0,4095*59
$GNGSA,A,3,14,19,06,17,04,03,01,,,,,,1.14,0.60,0.97,1*06
$GNGSA,A,3,30,09,34,02,11,36,,,,,,,1.14,0.60,0.97,3*05
$GNGSA,A,3,11,23,08,34,37,07,28,10,,,,,1.14,0.60,0.97,4*0E
$GPGSV,3,1,09,01,21,059,31,03,49,057,47,04,14,110,34,06,41,271,43,1*6A
$GPGSV,3,2,09,14,46,193,26,17,73,005,47,19,53,321,41,28,,,33,1*51
$GPGSV,3,3,09,41,27,238,29,1*5F
$GPGSV,2,1,06,01,21,059,23,03,49,057,42,04,14,110,20,06,41,271,34,6*60
$GPGSV,2,2,06,14,46,193,21,17,73,005,33,6*6D
$GPGSV,1,1,01,40,06,259,,0*58
$GLGSV,2,1,07,71,37,061,48,72,39,127,26,76,13,203,29,77,36,251,35,1*76
$GLGSV,2,2,07,78,23,316,29,87,49,335,42,88,19,291,35,1*4B
$GLGSV,2,1,06,71,37,061,43,72,39,127,18,76,13,203,16,77,36,251,28,3*73
$GLGSV,2,2,06,78,23,316,36,88,19,291,22,3*71
$GLGSV,1,1,03,65,09,170,,70,05,022,,86,31,061,,0*4F
$GAGSV,2,1,08,02,50,223,20,04,13,052,21,09,24,104,34,11,20,064,30,2*77
$GAGSV,2,2,08,18,31,302,39,30,37,300,36,34,45,283,44,36,62,023,36,2*75
$GAGSV,2,1,06,02,50,223,32,09,24,104,34,18,31,302,32,30,37,300,40,7*75
$GAGSV,2,2,$GAGSV,1,1,02,15,01,260,,25,18,176,,0*79
$GBGSV,2,1,08,07,74,226,35,08,51,242,35,10,70,268,39,11,49,069,43,1*72
$GBGSV,2,2,08,23,23,236,33,28,33,298,42,34,31,087,23,37,21,289,28,1*73
$GBGSV,1,1,04,07,74,226,33,08,51,242,35,10,70,268,32,11,49,069,44,3*75
$GBGSV,1,1,01,03,44,206,,0*41
$GNRMC,035321.00,A,3727.1197206,N,12639.1606281,E,0.035,,220622,,,F,V*1B
$GNVTG,,T,,M,0.035,N,0.064,K,D*3C
$GNGNS,035321.00,3727.1197206,N,12639.1606281,E,FFFF,27,0.60,27.499,17.833,2.0,4095,V*02
$GNGGA,035321.00,3727.1197206,N,12639.1606281,E,5,12,0.60,27.499,M,17.833,M,2.0,4095*50
$GNGSA,A,3,14,19,06,17,04,03,01,,,,,,1.14,0.60,0.97,1*06
$GNGSA,A,3,78,76,72,88,71,87,77,,,,,,1.14,0.60,0.97,2*0C
$GNGSA,A,3,30,09,34,02,11,36,,,,,,,1.14,0.60,0.97,3*05
$GNGSA,A,3,11,23,08,34,37,07,28,10,,,,,1.14,0.60,0.97,4*0E
$GPGSV,3,1,09,01,21,059,33,03,49,057,47,04,14,110,31,06,41,271,41,1*6F
$GPGSV,3,2,09,14,46,193,25,17,73,005,47,19,53,321,43,28,,,32,1*51
$GPGSV,3,3,09,41,27,238,30,1*57
$GPGSV,2,1,06,01,21,059,24,03,49,057,42,04,14,110,20,06,41,271,33,6*60
$GPGSV,2,2,06,14,46,193,21,17,73,005,32,6*6C
$GPGSV,1,1,01,40,06,259,,0*58
$GLGSV,2,1,07,71,37,061,47,72,39,127,25,76,13,203,28,77,36,251,35,1*7B
$GLGSV,2,2,07,78,23,316,32,87,49,335,41,88,19,291,34,1*43
$GLGSV,2,1,06,71,37,061,42,72,39,127,19,76,13,203,14,77,36,251,28,3*71
$GLGSV,2,2,06,78,23,316,36,88,19,291,23,3*70
$GLGSV,1,1,03,65,09,170,,70,05,022,,86,31,061,,0*4F
$GAGSV,2,1,08,02,50,223,19,04,13,052,22,09,24,104,34,11,20,064,30,2*7E
$GAGSV,2,2,08,18,31,302,40,30,37,300,36,34,45,283,43,36,62,023,36,2*7C
$GAGSV,2,1,06,02,50,223,32,09,24,104,34,18,31,302,31,30,37,300,40,7*76
$GAGSV,2,2,06,34,45,283,44,36,62,023,35,7*7C
$GAGSV,1,1,02,15,01,260,,25,18,176,,0*79
$GBGSV,2,1,08,07,74,226,36,08,51,242,35,10,70,268,39,11,49,069,43,1*71
$GBGSV,2,2,08,23,23,236,33,28,33,298,41,34,31,087,23,37,21,289,28,1*70
$GBGSV,1,1,04,07,74,226,32,08,51,242,34,10,70,268,33,11,49,069,43,3*73
$GBGSV,1,1,01,03,44,206,,0*41
$GNRMC,035322.00,A,3727.1197325,N,12639.1606235,E,0.041,,220622,,,F,V*14
$GNVTG,,T,,M,0.041,N,0.076,K,D*3C
$GNGNS,035322.00,3727.1197325,N,12639.1606235,E,FFFF,28,0.60,27.468,17.833,2.0,4095,V*0F
$GNGGA,035322.00,3727.1197325,N,12639.1606235,E,5,12,0.60,27.468,M,17.833,M,2.0,4095*52
$GNGSA,A,3,14,19,06,17,04,03,01,,,,,,1.14,0.60,0.97,1*06
$GNGSA,A,3,78,76,72,88,71,87,77,,,,,,1.14,0.60,0.97,2*0C
$GNGSA,A,3,30,09,34,02,11,36,,,,,,,1.14,0.60,0.97,3*05
$GNGSA,A,3,11,23,08,34,37,07,28,10,,,,,1.14,0.60,0.97,4*0E
$GPGSV,3,1,09,01,21,059,32,03,49,057,46,04,14,110,32,06,41,271,41,1*6C
$GPGSV,3,2,09,14,46,193,24,17,73,005,48,19,53,321,42,28,,,32,1*5E
$GPGSV,3,3,09,41,27,238,29,1*5F
$GPGSV,2,1,06,01,21,059,24,03,49,057,42,04,14,110,19,06,41,271,34,6*6D
$GPGSV,2,2,06,14,46,193,21,17,73,005,33,6*6D
$GPGSV,1,1,01,40,06,259,,0*58
$GLGSV,2,1,07,71,37,061,47,72,39,127,25,76,13,203,28,77,36,251,35,1*7B
$GLGSV,2,2,07,78,23,316,31,87,49,335,41,88,19,291,34,1*40
$GLGSV,2,1,06,71,37,061,43,72,39,127,19,76,13,203,13,77,36,251,28,3*77
$GLGSV,2,2,06,78,23,316,36,88,19,291,22,3*71
$GLGSV,1,1,03,65,09,170,,70,05,022,,86,31,061,,0*4F
$GAGSV,2,1,08,02,50,223,19,04,13,052,22,09,24,104,33,11,20,064,30,2*79
$GAGSV,2,2,08,18,31,302,39,30,37,300,37,34,45,283,43,36,62,023,36,2*73
$GAGSV,2,1,06,02,50,223,33,09,24,104,34,18,31,302,35,30,37,300,40,7*73
$GAGSV,2,2,06,34,45,283,44,36,62,023,34,7*7D
$GAGSV,1,1,02,15,01,260,,25,18,176,,0*79
$GBGSV,2,1,08,07,74,226,36,08,51,242,35,10,70,268,39,11,49,069,44,1*76
$GBGSV,2,2,08,23,23,236,33,28,33,298,43,34,31,087,24,37,21,289,31,1*7D
$GBGSV,1,1,04,07,74,226,32,08,51,242,34,10,70,268,32,11,49,069,44,3*75
$GBGSV,1,1,01,03,44,206,,0*41
$GNRMC,035323.00,A,3727.1197508,N,12639.1606127,E,0.039,,220622,,,F,V*13
$GNVTG,,T,,M,0.039,N,0.072,K,D*37
$GNGNS,035323.00,3727.1197508,N,12639.1606127,E,FFFF,27,0.60,27.428,17.833,1.0,4095,V*0F
$GNGGA,035323.00,3727.1197508,N,12639.1606127,E,5,12,0.60,27.428,M,17.833,M,1.0,4095*5D
$GNGSA,A,3,14,19,06,17,04,03,01,,,,,,1.14,0.60,0.97,1*06
$GNGSA,A,3,78,76,72,88,71,87,77,,,,,,1.14,0.60,0.97,2*0C
$GNGSA,A,3,30,09,34,02,11,36,,,,,,,1.14,0.60,0.97,3*05
$GNGSA,A,3,11,23,08,34,37,07,28,10,,,,,1.14,0.60,0.97,4*0E
$GPGSV,3,1,09,01,21,059,32,03,49,057,46,04,14,110,33,06,41,271,41,1*6D
$GPGSV,3,2,09,14,46,193,23,17,73,005,48,19,53,321,41,28,,,31,1*59
$GPGSV,3,3,09,41,27,238,29,1*5F
$GPGSV,2,1,06,01,21,059,23,03,49,057,42,04,14,110,19,06,41,271,34,6*6A
$GPGSV,2,2,06,14,46,193,21,17,73,005,34,6*6A
$GPGSV,1,1,01,40,06,259,,0*58
$GLGSV,2,1,07,71,37,061,47,72,39,127,24,76,13,203,27,77,36,251,35,1*75
$GLGSV,2,2,07,78,23,316,30,87,49,335,41,88,19,291,35,1*40
$GLGSV,2,1,06,71,37,061,43,72,39,127,20,76,13,203,14,77,36,251,28,3*7A
$GLGSV,2,2,06,78,23,316,36,88,19,291,23,3*70
$GLGSV,1,1,03,65,09,170,,70,05,022,,86,31,061,,0*4F
$GAGSV,2,1,08,02,50,223,20,04,13,052,22,09,24,104,33,11,20,064,30,2*73
$GAGSV,2,2,08,18,31,302,39,30,37,300,37,34,45,283,43,36,62,023,36,2*73
$GAGSV,2,1,06,02,50,223,33,09,24,104,34,18,31,302,34,30,37,300,40,7*72
$GAGSV,2,2,06,34,45,283,44,36,62,023,34,7*7D
$GAGSV,1,1,02,15,01,260,,25,18,176,,0*79
$GBGSV,2,1,08,07,74,226,36,08,51,242,34,10,70,268,39,11,49,069,44,1*77
$GBGSV,2,2,08,23,23,236,33,28,33,298,43,34,31,087,25,37,21,289,31,1*7C
$GBGSV,1,1,04,07,74,226,32,08,51,242,34,10,70,268,32,11,49,069,44,3*75
$GBGSV,1,1,01,03,44,206,,0*41
$GNRMC,035325.00,A,3727.1197824,N,12639.1605978,E,0.024,,220622,,,F,V*1B
$GNVTG,,T,,M,0.024,N,0.044,K,D*3E
$GNGNS,035325.00,3727.1197824,N,12639.1605978,E,FFFF,28,0.60,27.354,17.833,2.0,4095,V*0B
$GNGGA,035325.00,3727.1197824,N,12639.1605978,E,5,12,0.60,27.354,M,17.833,M,2.0,4095*56
$GNGSA,A,3,14,19,06,17,04,03,01,,,,,,1.14,0.60,0.97,1*06
$GNGSA,A,3,78,76,72,88,71,87,77,,,,,,1.14,0.60,0.97,2*0C
$GNGSA,A,3,30,09,34,02,11,36,,,,,,,1.14,0.60,0.97,3*05
$GNGSA,A,3,11,23,08,34,37,07,28,10,,,,,1.14,0.60,0.97,4*0E
$GPGSV,3,1,09,01,21,059,33,03,49,057,46,04,14,110,33,06,41,271,41,1*6C
$GPGSV,3,2,09,14,46,193,22,17,73,005,48,19,53,321,41,28,,,31,1*58
$GPGSV,3,3,09,41,27,238,29,1*5F
$GPGSV,2,1,06,01,21,059,22,03,49,057,42,04,14,110,20,06,41,271,33,6*66
$GPGSV,2,2,06,14,46,193,21,17,73,005,34,6*6A
$GPGSV,1,1,01,40,06,259,,0*58
$GLGSV,2,1,07,71,37,061,48,72,39,127,22,76,13,203,26,77,36,251,35,1*7D
$GLGSV,2,2,07,78,23,316,29,87,49,335,42,88,19,291,34,1*4A
$GLGSV,2,1,06,71,37,061,43,72,39,127,20,76,13,203,14,77,36,251,28,3*7A
$GLGSV,2,2,06,78,23,316,36,88,19,291,23,3*70
$GLGSV,1,1,03,65,09,170,,70,05,022,,86,31,061,,0*4F
$GAGSV,2,1,08,02,50,223,19,04,13,052,22,09,24,104,33,11,20,064,30,2*79
$GAGSV,2,2,08,18,31,302,39,30,37,300,37,34,45,283,43,36,62,024,36,2*74
$GAGSV,2,1,06,02,50,223,33,09,24,104,33,18,31,302,34,30,37,300,40,7*75
$GAGSV,2,2,06,34,45,283,45,36,62,024,33,7*7C
$GAGSV,1,1,02,15,01,260,,25,18,176,,0*79
$GBGSV,2,1,08,07,74,226,36,08,51,242,35,10,70,268,39,11,49,069,44,1*76
$GBGSV,2,2,08,23,23,236,33,28,33,298,43,34,31,087,26,37,21,289,32,1*7C
$GBGSV,1,1,04,07,74,226,32,08,51,242,34,10,70,268,32,11,49,069,44,3*75
$GBGSV,1,1,01,03,44,206,,0*41
$GNRMC,035326.00,A,3727.1197959,N,12639.1605872,E,0.044,,220622,,,F,V*1E
$GNVTG,,T,,M,0.044,N,0.082,K,D*32
$GNGNS,035326.00,3727.1197959,N,12639.1605872,E,FFFF,27,0.60,27.341,17.833,2.0,4095,V*03
$GNGGA,035326.00,3727.1197959,N,12639.1605872,E,5,12,0.60,27.341,M,17.833,M,2.0,4095*51
$GNGSA,A,3,14,19,06,17,04,03,01,,,,,,1.14,0.60,0.97,1*06
$GNGSA,A,3,78,76,72,88,71,87,77,,,,,,1.14,0.60,0.97,2*0C
$GNGSA,A,3,30,09,34,02,11,36,,,,,,,1.14,0.60,0.97,3*05
$GNGSA,A,3,11,23,08,34,37,07,28,10,,,,,1.14,0.60,0.97,4*0E
$GPGSV,3,1,09,01,21,059,34,03,49,057,46,04,14,110,34,06,41,271,41,1*6C
$GPGSV,3,2,09,14,46,193,22,17,73,005,48,19,53,321,41,28,,,31,1*58
$GPGSV,3,3,09,41,27,238,29,1*5F
$GPGSV,2,1,06,01,21,059,23,03,49,057,42,04,14,110,21,06,41,271,34,6*61
$GPGSV,2,2,06,14,46,193,21,17,73,005,35,6*6B
$GPGSV,1,1,01,40,06,259,,0*58
$GLGSV,2,1,07,71,37,061,48,72,39,127,21,76,13,203,26,77,36,251,35,1*7E
$GLGSV,2,2,07,78,23,316,31,87,49,335,42,88,19,291,35,1*42
$GLGSV,2,1,06,71,37,061,43,72,39,127,20,76,13,203,14,77,36,251,28,3*7A
$GLGSV,2,2,06,78,23,316,36,88,19,291,23,3*70
$GLGSV,1,1,03,65,09,170,,70,05,022,,86,31,061,,0*4F
$GAGSV,2,1,08,02,50,223,19,04,13,052,22,09,24,104,34,11,20,064,30,2*7E
$GAGSV,2,2,08,18,31,302,40,30,37,300,37,34,45,283,43,36,62,024,36,2*7A
$GAGSV,2,1,07,02,50,223,32,09,24,104,34,11,20,064,22,18,31,302,34,7*72
$GAGSV,2,2,07,30,37,300,40,34,45,283,45,36,62,024,33,7*4D
$GAGSV,1,1,02,15,01,260,,25,18,176,,0*79
$GBGSV,2,1,08,07,74,226,35,08,51,242,34,10,70,268,39,11,49,069,44,1*74
$GBGSV,2,2,08,23,23,236,33,28,33,298,43,34,31,087,26,37,21,289,32,1*7C
$GBGSV,1,1,04,07,74,226,32,08,51,242,34,10,70,268,32,11,49,069,43,3*72
$GBGSV,1,1,01,03,44,206,,0*41
$GNRMC,035327.00,A,3727.1198048,N,12639.1605814,E,0.048,,220622,,,F,V*15
$GNVTG,,T,,M,0.048,N,0.088,K,D*34
$GNGGA,035327.00,3727.1198048,N,12639.1605814,E,5,12,0.60,27.314,M,17.833,M,2.0,4095*56
$GNGSA,A,3,14,19,06,17,04,03,01,,,,,,1.14,0.60,0.97,1*06
$GNGSA,A,3,78,76,72,88,71,87,77,,,,,,1.14,0.60,0.97,2*0C
$GNGSA,A,3,30,09,34,02,11,36,,,,,,,1.14,0.60,0.97,3*05
$GNGSA,A,3,11,23,08,34,37,07,28,10,,,,,1.14,0.60,0.97,4*0E
$GPGSV,3,1,09,01,21,059,34,03,49,057,46,04,14,110,33,06,41,271,41,1*6B
$GPGSV,3,2,09,14,46,193,22,17,73,005,48,19,53,321,43,28,,,30,1*5B
$GPGSV,3,3,09,41,27,238,30,1*57
$GPGSV,2,1,06,01,21,059,25,03,49,057,42,04,14,110,21,06,41,271,33,6*60
$GPGSV,2,2,06,14,46,193,21,17,73,005,34,6*6A
$GPGSV,1,1,01,40,06,259,,0*58
$GLGSV,2,1,07,71,37,061,47,72,39,127,18,76,13,203,25,77,36,251,35,1*78
$GLGSV,2,2,07,78,23,316,32,87,49,335,41,88,19,291,35,1*42
$GLGSV,2,1,06,71,37,061,43,72,39,127,20,76,13,203,14,77,36,251,28,3*7A
$GLGSV,2,2,06,78,23,316,36,88,19,291,25,3*76
$GLGSV,1,1,03,65,09,170,,70,05,022,,86,31,0$GAGSV,2,1,08,02,50,223,19,04,13,052,22,09,24,104,34,11,20,064,29,2*76
$GAGSV,2,2,08,18,31,302,40,30,37,300,38,34,45,283,43,36,62,024,37,2*74
$GAGSV,2,1,07,02,50,223,32,09,24,104,34,11,20,064,20,18,31,302,33,7*77
$GAGSV,2,2,07,30,37,300,40,34,45,283,45,36,62,024,34,7*4A
$GAGSV,1,1,02,15,01,260,,25,18,176,,0*79
$GBGSV,2,1,08,07,74,226,36,08,51,242,34,10,70,268,38,11,49,069,44,1*76
$GBGSV,2,2,08,23,23,236,34,28,33,298,42,34,31,087,26,37,21,289,33,1*7B
$GBGSV,1,1,04,07,74,226,32,08,51,242,33,10,70,268,32,11,49,069,42,3*74
$GBGSV,1,1,01,03,44,206,,0*41
$GNRMC,035328.00,A,3727.1198121,N,12639.1605784,E,0.039,,220622,,,F,V*14
$GNVTG,,T,,M,0.039,N,0.072,K,D*37
$GNGNS,035328.00,3727.1198121,N,12639.1605784,E,FFFF,28,0.59,27.264,17.833,2.0,4095,V*00
$GNGGA,035328.00,3727.1198121,N,12639.1605784,E,5,12,0.59,27.264,M,17.833,M,2.0,4095*5D
$GNGSA,A,3,14,19,06,17,04,03,01,,,,,,1.10,0.59,0.94,1*0B
$GNGSA,A,3,78,76,72,88,71,87,77,,,,,,1.10,0.59,0.94,2*01
$GNGSA,A,3,30,09,34,02,11,36,,,,,,,1.10,0.59,0.94,3*08
$GNGSA,A,3,11,23,08,34,37,07,28,10,,,,,1.10,0.59,0.94,4*03
$GPGSV,3,1,09,01,21,059,35,03,49,057,47,04,14,110,32,06,41,271,39,1*65
$GPGSV,3,2,09,14,46,193,22,17,73,005,48,19,53,321,43,28,,,29,1*53
$GPGSV,3,3,09,41,27,238,30,1*57
$GPGSV,2,1,06,01,21,059,26,03,49,057,41,04,14,110,21,06,41,271,32,6*61
$GPGSV,2,2,06,14,46,193,21,17,73,005,34,6*6A
$GPGSV,1,1,01,40,06,259,,0*58
$GLGSV,2,1,07,71,37,061,45,72,39,127,17,76,13,203,22,77,36,251,33,1*74
$GLGSV,2,2,07,78,23,316,32,87,49,335,41,88,19,291,35,1*42
$GLGSV,2,1,06,71,37,061,42,72,39,127,20,76,13,203,14,77,36,251,28,3*7B
$GLGSV,2,2,06,78,23,316,36,88,19,291,25,3*76
$GLGSV,1,1,03,65,09,170,,70,05,022,,86,31,061,,0*4F
$GAGSV,2,1,08,02,50,223,19,04,13,052,22,09,24,104,35,11,20,064,29,2*77
$GAGSV,2,2,08,18,31,302,40,30,37,300,39,34,45,283,43,36,62,024,38,2*7A
$GAGSV,2,1,07,02,50,223,31,09,24,104,33,11,20,064,20,18,31,302,33,7*73
$GAGSV,2,2,07,30,37,300,39,34,45,283,46,36,62,024,34,7*47
$GAGSV,1,1,02,15,01,260,,25,18,176,,0*79
$GBGSV,2,1,08,07,74,226,37,08,51,242,33,10,70,268,38,11,49,069,44,1*70
$GBGSV,2,2,08,23,23,236,34,28,33,298,42,34,31,087,26,37,21,289,34,1*7C
$GBGSV,1,1,04,07,74,226,31,08,51,242,33,10,70,268,32,11,49,069,40,3*75
$GBGSV,1,1,01,03,44,206,,0*41
$GNRMC,035329.00,A,3727.1198164,N,12639.1605716,E,0.044,,220622,,,F,V*15
$GNVTG,,T,,M,0.044,N,0.081,K,D*31
$GNGNS,035329.00,3727.1198164,N,12639.1605716,E,FFFF,28,0.60,27.257,17.833,2.0,4095,V*01
$GNGGA,035329.00,3727.1198164,N,12639.1605716,E,5,12,0.60,27.257,M,17.833,M,2.0,4095*5C
$GNGSA,A,3,14,19,06,17,04,03,01,,,,,,1.14,0.60,0.97,1*06
$GNGSA,A,3,78,76,72,88,71,87,77,,,,,,1.14,0.60,0.97,2*0C
$GNGSA,A,3,30,09,34,02,11,36,,,,,,,1.14,0.60,0.97,3*05
$GNGSA,A,3,11,23,08,34,37,07,28,10,,,,,1.14,0.60,0.97,4*0E
$GPGSV,3,1,09,01,21,059,35,03,49,057,48,04,14,110,32,06,41,271,40,1*64
$GPGSV,3,2,09,14,46,193,22,17,73,005,48,19,53,321,43,28,,,29,1*53
$GPGSV,3,3,09,41,27,238,30,1*57
$GPGSV,2,1,06,01,21,059,27,03,49,057,41,04,14,110,21,06,41,271,31,6*63
$GPGSV,2,2,06,14,46,193,21,17,73,005,34,6*6A
$GPGSV,1,1,01,40,06,259,,0*58
$GLGSV,2,1,07,71,37,061,46,72,39,127,19,76,13,203,20,77,36,251,33,1*7B
$GLGSV,2,2,07,78,23,316,32,87,50,337,41,88,19,291,35,1*48
$GLGSV,2,1,06,71,37,061,42,72,39,127,20,76,13,203,14,77,36,251,28,3*7B
$GLGSV,2,2,06,78,23,316,36,88,19,291,26,3*75
$GLGSV,1,1,03,65,09,170,,70,05,022,,86,31,061,,0*4F
$GAGSV,2,1,08,02,50,223,19,04,13,052,23,09,24,104,34,11,20,064,29,2*77
$GAGSV,2,2,08,18,31,302,40,30,37,300,39,34,45,283,43,36,62,024,38,2*7A
$GAGSV,2,1,07,02,50,223,31,09,24,104,33,11,20,064,22,18,31,302,33,7*71
$GAGSV,2,2,07,30,37,300,39,34,45,283,46,36,62,024,34,7*47
$GAGSV,1,1,02,15,01,260,,25,18,176,,0*79
$GBGSV,2,1,08,07,74,226,36,08,51,242,33,10,70,268,38,11,49,069,44,1*71
$GBGSV,2,2,08,23,23,236,34,28,33,298,42,34,31,087,26,37,21,289,33,1*7B
$GBGSV,1,1,04,07,74,226,31,08,51,242,32,10,70,268,32,11,49,069,42,3*76
$GBGSV,1,1,01,03,44,206,,0*41
$GNRMC,035330.00,A,3727.1198262,N,12639.1605673,E,0.030,,220622,,,F,V*19
$GNVTG,,T,,M,0.030,N,0.056,K,D*38
$GNGNS,035330.00,3727.1198262,N,12639.1605673,E,FFFF,28,0.59,27.230,17.833,2.0,4095,V*05
$GNGGA,035330.00,3727.1198262,N,12639.1605673,E,5,12,0.59,27.230,M,17.833,M,2.0,4095*58
$GNGSA,A,3,14,19,06,17,04,03,01,,,,,,1.10,0.59,0.94,1*0B
$GNGSA,A,3,78,76,72,88,71,87,77,,,,,,1.10,0.59,0.94,2*01
$GNGSA,A,3,30,09,34,02,11,36,,,,,,,1.10,0.59,0.94,3*08
$GNGSA,A,3,11,23,08,34,37,07,28,10,,,,,1.10,0.59,0.94,4*03
$GPGSV,3,1,09,01,21,059,35,03,49,057,48,04,14,110,31,06,41,271,40,1*67
$GPGSV,3,2,09,14,46,193,22,17,73,005,48,19,53,321,43,28,,,29,1*53
$GPGSV,3,3,09,41,27,238,31,1*56
$GPGSV,2,1,06,01,21,059,28,03,49,057,41,04,14,110,22,06,41,271,30,6*6E
$GPGSV,2,2,06,14,46,193,21,17,73,005,33,6*6D
$GPGSV,1,1,01,40,06,259,,0*58
$GLGSV,2,1,07,71,37,061,46,72,39,127,20,76,13,203,20,77,36,251,33,1*71
$GLGSV,2,2,07,78,23,316,33,87,50,337,41,88,19,292,35,1*4A
$GAGSV,2,1,08,02,50,223,20,04,13,052,23,09,24,104,34,11,20,064,29,2*7D
$GAGSV,2,2,08,18,31,302,39,30,37,300,39,34,45,283,44,36,62,024,38,2*73
$GNRMC,035331.00,A,3727.1198316,N,12639.1605633,E,0.030,,220622,,,F,V*1E
$GNVTG,,T,,M,0.030,N,0.056,K,D*38
$GNGNS,035331.00,3727.1198316,N,12639.1605633,E,FFFF,28,0.60,27.225,17.833,2.0,4095,V*0C
$GNGGA,035331.00,3727.1198316,N,12639.1605633,E,5,12,0.60,27.225,M,17.833,M,2.0,4095*51
$GNGSA,A,3,14,19,06,17,04,03,01,,,,,,1.14,0.60,0.97,1*06
$GNGSA,A,3,78,76,72,88,71,87,77,,,,,,1.14,0.60,0.97,2*0C
$GNGSA,A,3,30,09,34,02,11,36,,,,,,,1.14,0.60,0.97,3*05
$GNGSA,A,3,11,23,08,34,37,07,28,10,,,,,1.14,0.60,0.97,4*0E
$GPGSV,3,1,09,01,21,059,34,03,49,057,48,04,14,110,31,06,41,271,40,1*66
$GPGSV,3,2,09,14,46,193,22,17,73,005,47,19,53,321,43,28,,,29,1*5C
$GPGSV,3,3,09,41,27,238,30,1*57
$GPGSV,2,1,06,01,21,059,28,03,49,057,40,04,14,110,22,06,41,271,31,6*6E
$GPGSV,2,2,06,14,46,193,21,17,73,005,34,6*6A
$GPGSV,1,1,01,40,06,259,,0*58
$GLGSV,2,1,07,71,37,061,45,72,39,127,20,76,13,203,22,77,36,251,33,1*70
$GLGSV,2,2,07,78,23,316,33,87,50,337,41,88,19,292,35,1*4A
$GLGSV,2,1,06,71,37,061,42,72,39,127,21,76,13,203,15,77,36,251,28,3*7B
$GLGSV,2,2,06,78,23,316,36,88,19,292,26,3*76
$GLGSV,1,1,03,65,09,170,,70,05,022,,86,31,061,,0*4F
$GAGSV,2,1,08,02,50,223,20,04,13,052,23,09,24,104,34,11,20,064,28,2*7C
$GAGSV,2,2,08,18,31,302,39,30,37,300,39,34,45,283,44,36,62,024,38,2*73
$GAGSV,2,1,07,02,50,223,30,09,24,104,32,11,20,064,20,18,31,302,34,7*74
$GAGSV,2,2,07,30,37,300,39,34,45,283,46,36,62,024,34,7*47
$GAGSV,1,1,02,15,01,260,,25,18,176,,0*79
$GBGSV,2,1,08,07,74,226,36,08,51,242,33,10,70,268,38,11,49,069,44,1*71
$GBGSV,2,2,08,23,23,236,34,28,33,298,42,34,31,087,26,37,21,289,34,1*7C
$GNRMC,035332.00,A,3727.1198395,N,12639.1605510,E,0.020,,220622,,,F,V*15
$GNVTG,,T,,M,0.020,N,0.037,K,D*3E
$GNGNS,035332.00,3727.1198395,N,12639.1605510,E,FFFF,28,0.60,27.202,17.833,2.0,4095,V*03
$GNGGA,035332.00,3727.1198395,N,12639.1605510,E,5,12,0.60,27.202,M,17.833,M,2.0,4095*5E
$GNGSA,A,3,14,19,06,17,04,03,01,,,,,,1.14,0.60,0.97,1*06
$GNGSA,A,3,78,76,72,88,71,87,77,,,,,,1.14,0.60,0.97,2*0C
$GNGSA,A,3,30,09,34,02,11,36,,,,,,,1.14,0.60,0.97,3*05
$GNGSA,A,3,11,23,08,34,37,07,28,10,,,,,1.14,0.60,0.97,4*0E
$GPGSV,3,1,09,01,20,059,35,03,49,057,48,04,14,110,32,06,41,271,39,1*6B
$GPGSV,3,2,09,14,46,193,20,17,73,005,47,19,53,321,43,28,,,29,1*5E
$GPGSV,3,3,09,41,27,238,30,1*57
$GPGSV,2,1,06,01,20,059,28,03,49,057,40,04,14,110,22,06,41,271,30,6*6E
$GPGSV,2,2,06,14,46,193,21,17,73,005,33,6*6D
$GPGSV,1,1,01,40,06,259,,0*58
$GLGSV,2,1,07,71,37,061,45,72,39,127,21,76,13,203,22,77,36,251,32,1*70
$GLGSV,2,2,07,78,23,316,33,87,50,337,41,88,19,292,35,1*4A
$GLGSV,2,1,06,71,37,061,42,72,39,127,21,76,13,203,14,77,36,251,28,3*7A
$GLGSV,2,2,06,78,23,316,35,88,19,292,26,3*75
$GLGSV,1,1,03,65,09,170,,70,05,022,,86,31,061,,0*4F
$GAGSV,2,1,08,02,50,223,20,04,13,052,23,09,24,104,34,11,20,064,28,2*7C
$GAGSV,2,2,08,18,31,302,39,30,37,300,40,34,45,283,43,36,62,024,38,2*7A
$GAGSV,2,1,07,02,50,223,29,09,24,104,32,11,20,064,19,18,31,302,34,7*76
$GAGSV,2,2,07,30,37,300,39,34,45,283,45,36,62,024,34,7*44
$GAGSV,1,1,02,15,01,260,,25,18,176,,0*79
$GBGSV,2,1,08,07,74,226,36,08,51,242,33,10,70,268,37,11,49,069,44,1*7E
$GBGSV,2,2,08,23,23,236,34,28,33,298,42,34,31,087,26,37,21,289,33,1*7B
$GNRMC,035333.00,A,3727.1198433,N,12639.1605439,E,0.028,,220622,,,F,V*1D
$GNVTG,,T,,M,0.028,N,0.053,K,D*34
$GNGNS,035333.00,3727.1198433,N,12639.1605439,E,FFFF,28,0.60,27.180,17.833,1.0,4095,V*09
$GNGGA,035333.00,3727.1198433,N,12639.1605439,E,5,12,0.60,27.180,M,17.833,M,1.0,4095*54
$GNGSA,A,3,14,19,06,17,04,03,01,,,,,,1.14,0.60,0.97,1*06
$GNGSA,A,3,78,76,72,88,71,87,77,,,,,,1.14,0.60,0.97,2*0C
$GNGSA,A,3,30,09,34,02,11,36,,,,,,,1.14,0.60,0.97,3*05
$GNGSA,A,3,11,23,08,34,37,07,28,10,,,,,1.14,0.60,0.97,4*0E
$GPGSV,3,1,09,01,20,059,36,03,48,056,49,04,14,110,33,06,41,271,39,1*68
$GPGSV,3,2,09,14,46,193,20,17,73,005,47,19,53,321,43,28,,,29,1*5E
$GPGSV,3,3,09,41,27,238,31,1*56
$GPGSV,2,1,06,01,20,059,28,03,48,056,40,04,14,110,24,06,41,271,30,6*68
$GPGSV,2,2,06,14,46,193,21,17,73,005,33,6*6D
$GPGSV,1,1,01,40,06,259,,0*58
$GLGSV,2,1,07,71,37,061,45,72,39,127,21,76,13,203,21,77,36,251,32,1*73
$GLGSV,2,2,07,78,23,316,34,87,50,337,41,88,19,292,35,1*4D
$GLGSV,2,1,06,71,37,061,41,72,39,127,21,76,13,203,13,77,36,251,28,3*7E
$GLGSV,2,2,06,78,23,316,35,88,19,292,25,3*76
$GLGSV,1,1,03,65,09,170,,70,05,022,,86,31,061,,0*4F
$GAGSV,2,1,08,02,50,223,20,04,13,052,23,09,24,104,34,11,20,064,28,2*7C
$GAGSV,2,2,08,18,31,302,39,30,37,300,40,34,45,283,43,36,62,024,38,2*7A
$GAGSV,2,1,07,02,50,223,29,09,24,104,32,11,20,064,18,18,31,302,33,7*70
$GAGSV,2,2,07,30,37,300,39,34,45,283,45,36,62,024,33,7*43
$GNRMC,035334.00,A,3727.1198465,N,12639.1605363,E,0.060,,220622,,,F,V*1D
$GNVTG,,T,,M,0.060,N,0.112,K,D*3C
$GNGNS,035334.00,3727.1198465,N,12639.1605363,E,FFFF,28,0.59,27.175,17.833,2.0,4095,V*06
$GNGGA,035334.00,3727.1198465,N,12639.1605363,E,5,12,0.59,27.175,M,17.833,M,2.0,4095*5B
$GNGSA,A,3,14,19,06,17,04,03,01,,,,,,1.10,0.59,0.94,1*0B
$GNGSA,A,3,78,76,72,88,71,87,77,,,,,,1.10,0.59,0.94,2*01
$GNGSA,A,3,30,09,34,02,11,36,,,,,,,1.10,0.59,0.94,3*08
$GNGSA,A,3,11,23,08,34,37,07,28,10,,,,,1.10,0.59,0.94,4*03
$GPGSV,3,1,09,01,20,059,36,03,48,056,49,04,15,109,33,06,41,271,40,1*6F
$GPGSV,3,2,09,14,46,193,21,17,73,005,47,19,53,321,44,28,,,30,1*50
$GPGSV,3,3,09,41,27,238,31,1*56
$GPGSV,2,1,06,01,20,059,28,03,48,056,40,04,15,109,25,06,41,271,30,6*60
$GPGSV,2,2,06,14,46,193,21,17,73,005,33,6*6D
$GPGSV,1,1,01,40,06,259,,0*58
$GLGSV,2,1,07,71,37,061,45,72,39,127,20,76,13,203,20,77,36,251,32,1*73
$GLGSV,2,2,07,78,23,316,34,87,50,337,41,88,19,292,35,1*4D
$GLGSV,2,1,06,71,37,061,41,72,39,127,20,76,13,203,12,77,36,251,27,3*71
$GLGSV,2,2,06,78,23,316,35,88,19,292,25,3*76
$GLGSV,1,1,03,65,09,170,,70,05,022,,86,31,061,,0*4F
$GAGSV,2,1,08,02,50,223,21,04,13,052,23,09,24,104,35,11,20,064,28,2*7C
$GAGSV,2,2,08,18,31,302,38,30,37,300,40,34,45,283,44,36,62,024,38,2*7C
$GAGSV,2,1,07,02,50,223,29,09,24,104,31,11,20,064,19,18,31,302,32,7*73
$GAGSV,2,2,07,30,37,300,38,34,45,283,45,36,62,024,34,7*45
$GAGSV,1,1,02,15,01,260,,25,18,176,,0*79
$GNRMC,035335.00,A,3727.1198482,N,12639.1605309,E,0.054,,220622,,,F,V*1E
$GNVTG,,T,,M,0.054,N,0.100,K,D*38
$GNGNS,035335.00,3727.1198482,N,12639.1605309,E,FFFF,28,0.59,27.158,17.833,2.0,4095,V*0D
$GNGGA,035335.00,3727.1198482,N,12639.1605309,E,5,12,0.59,27.158,M,17.833,M,2.0,4095*50
$GNGSA,A,3,14,19,06,17,04,03,01,,,,,,1.10,0.59,0.94,1*0B
$GNGSA,A,3,78,76,72,88,71,87,77,,,,,,1.10,0.59,0.94,2*01
$GNGSA,A,3,30,09,34,02,11,36,,,,,,,1.10,0.59,0.94,3*08
$GNGSA,A,3,11,23,08,34,37,07,28,10,,,,,1.10,0.59,0.94,4*03
$GPGSV,3,1,09,01,20,059,36,03,48,056,48,04,15,109,36,06,41,271,41,1*6A
$GPGSV,3,2,09,14,46,193,20,17,73,005,47,19,53,321,42,28,,,29,1*5F
$GPGSV,3,3,09,41,27,238,30,1*57
$GPGSV,2,1,06,01,20,059,27,03,48,056,40,04,15,109,26,06,41,271,34,6*68
$GPGSV,2,2,06,14,46,193,22,17,73,005,34,6*69
$GPGSV,1,1,01,40,06,259,,0*58
$GLGSV,2,1,07,71,37,061,45,72,39,127,21,76,13,203,19,77,36,251,32,1*78
$GLGSV,2,2,07,78,23,316,26,87,50,337,44,88,19,292,35,1*4B
$GLGSV,2,1,06,71,37,061,41,72,39,127,18,76,13,203,14,77,36,251,28,3*73
$GLGSV,2,2,06,78,23,316,34,88,19,292,25,3*77
$GLGSV,1,1,03,65,09,170,,70,05,022,,86,31,061,,0*4F
$GAGSV,2,1,08,02,50,223,21,04,13,052,24,09,24,104,35,11,20,064,27,2*74
$GAGSV,2,2,08,18,31,302,39,30,37,300,40,34,45,283,43,36,62,024,38,2*7A
$GAGSV,2,1,07,02,50,223,29,09,24,104,32,11,20,064,20,18,31,302,37,7*7F
$GAGSV,2,2,07,30,37,300,39,34,45,283,46,36,62,024,29,7*4B
$GAGSV,1,1,02,15,01,260,,25,18,176,,0*79
$GBGSV,2,1,08,07,74,226,36,08,51,242,34,10,70,268,38,11,49,069,43,1*71
$GBGSV,2,2,08,23,23,236,33,28,33,298,43,34,31,087,23,37,21,289,34,1*7F
$GBGSV,2,1,05,03,44,206,27,07,74,226,30,08,51,242,33,10,70,268,31,3*71
$GBGSV,2,2,05,11,49,069,42,3*45
$GNRMC,035336.00,A,3727.1198581,N,12639.1605152,E,0.051,,220622,,,F,V*16
$GNVTG,,T,,M,0.051,N,0.094,K,D*31
$GNGNS,035336.00,3727.1198581,N,12639.1605152,E,FFFF,29,0.59,27.162,17.833,2.0,4095,V*08
$GNGGA,035336.00,3727.1198581,N,12639.1605152,E,5,12,0.59,27.162,M,17.833,M,2.0,4095*54
$GNGSA,A,3,14,19,06,17,04,03,01,,,,,,1.10,0.59,0.94,1*0B
$GNGSA,A,3,78,76,72,88,71,87,77,,,,,,1.10,0.59,0.94,2*01
$GNGSA,A,3,30,09,34,02,11,36,,,,,,,1.10,0.59,0.94,3*08
$GNGSA,A,3,11,23,08,34,37,07,28,03,10,,,,1.10,0.59,0.94,4*00
$GPGSV,3,1,09,01,20,059,35,03,48,056,48,04,15,109,32,06,41,272,40,1*6F
$GPGSV,3,2,09,14,46,193,20,17,73,005,47,19,53,321,43,28,,,29,1*5E
$GPGSV,3,3,09,41,27,238,30,1*57
$GPGSV,2,1,06,01,20,059,28,03,48,056,40,04,15,109,26,06,41,272,32,6*62
$GPGSV,2,2,06,14,46,193,22,17,73,005,34,6*69
$GPGSV,1,1,01,40,06,259,,0*58
$GLGSV,2,1,07,71,37,061,45,72,39,127,21,76,13,203,20,77,36,251,32,1*72
$GLGSV,2,2,07,78,23,316,35,87,50,337,42,88,19,292,35,1*4F
$GLGSV,2,1,06,71,37,061,41,72,39,127,19,76,13,203,13,77,36,251,28,3*75
$GLGSV,2,2,06,78,23,316,35,88,19,292,26,3*75
$GLGSV,1,1,03,65,09,170,,70,05,022,,86,31,061,,0*4F
$GAGSV,2,1,08,02,50,223,21,04,13,052,25,09,24,104,35,11,20,064,27,2*75
$GAGSV,2,2,08,18,31,302,40,30,37,300,40,34,45,283,44,36,62,024,38,2*73
$GAGSV,2,1,08,02,50,223,29,04,13,052,22,09,24,104,32,11,20,064,20,7*7F
$GNRMC,035337.00,A,3727.1198553,N,12639.1605083,E,0.061,,220622,,,F,V*16
$GNVTG,,T,,M,0.061,N,0.113,K,D*3C
$GNGNS,035337.00,3727.1198553,N,12639.1605083,E,FFFF,29,0.59,27.152,17.833,2.0,4095,V*08
$GNGGA,035337.00,3727.1198553,N,12639.1605083,E,5,12,0.59,27.152,M,17.833,M,2.0,4095*54
$GNGSA,A,3,14,19,06,17,04,03,01,,,,,,1.10,0.59,0.94,1*0B
$GNGSA,A,3,78,76,72,88,71,87,77,,,,,,1.10,0.59,0.94,2*01
$GNGSA,A,3,30,09,34,02,11,36,,,,,,,1.10,0.59,0.94,3*08
$GNGSA,A,3,11,23,08,34,37,07,28,03,10,,,,1.10,0.59,0.94,4*00
$GPGSV,3,1,09,01,20,059,36,03,48,056,49,04,15,109,33,06,41,272,40,1*6C
$GPGSV,3,2,09,14,46,193,20,17,73,005,47,19,53,321,43,28,,,29,1*5E
$GPGSV,3,3,09,41,27,238,31,1*56
$GPGSV,2,1,06,01,20,059,28,03,48,056,41,04,15,109,26,06,41,272,32,6*63
$GPGSV,2,2,06,14,46,193,23,17,73,005,34,6*68
$GPGSV,1,1,01,40,06,259,,0*58
$GLGSV,2,1,07,71,37,061,44,72,39,127,21,76,13,203,20,77,36,251,32,1*73
$GLGSV,2,2,07,78,23,316,33,87,50,337,42,88,19,292,34,1*48
$GLGSV,2,1,06,71,37,061,42,72,39,127,20,76,13,203,13,77,36,251,28,3*7C
$GLGSV,2,2,06,78,23,316,35,88,19,292,26,3*75
$GLGSV,1,1,03,65,09,170,,70,05,022,,86,31,061,,0*4F
$GAGSV,2,1,08,02,50,223,21,04,13,052,26,09,24,104,35,11,20,064,28,2*79
$GAGSV,2,2,08,18,31,302,40,30,37,300,40,34,45,283,43,36,62,024,38,2*74
$GAGSV,2,1,08,02,50,223,29,04,13,052,22,09,24,104,32,11,20,064,20,7*7F
$GAGSV,2,2,08,18,31,302,34,30,37,300,39,34,45,283,46,36,62,024,34,7*75
$GAGSV,1,1,02,15,01,260,,25,18,176,,0*79
$GBGSV,2,1,08,07,74,226,37,08,51,242,33,10,70,268,37,11,49,069,43,1*78
$GBGSV,2,2,08,23,23,236,33,28,33,298,42,34,31,087,23,37,21,289,34,1*7E
$GBGSV,2,1,05,03,44,206,27,07,74,226,30,08,51,242,32,10,70,268,32,3*73
$GBGSV,2,2,05,11,49,069,41,3*46
$GNRMC,035338.00,A,3727.1198640,N,12639.1604968,E,0.073,,220622,,,F,V*16
$GNVTG,,T,,M,0.073,N,0.135,K,D*3B
$GNGNS,035338.00,3727.1198640,N,12639.1604968,E,FFFF,29,0.62,27.153,17.833,2.0,4095,V*02
$GNGGA,035338.00,3727.1198640,N,12639.1604968,E,5,12,0.62,27.153,M,17.833,M,2.0,4095*5E
$GNGSA,A,3,41,19,06,17,04,03,01,,,,,,1.13,0.62,0.95,1*01
$GNGSA,A,3,78,76,72,88,71,87,77,,,,,,1.13,0.62,0.95,2*0B
$GNGSA,A,3,30,09,34,02,11,36,,,,,,,1.13,0.62,0.95,3*02
$GNGSA,A,3,11,23,08,34,37,07,28,03,10,,,,1.13,0.62,0.95,4*0A
$GPGSV,3,1,09,01,20,059,36,03,48,056,48,04,15,109,31,06,41,272,40,1*6F
$GPGSV,3,2,09,14,46,193,19,17,73,005,47,19,53,321,43,28,,,29,1*54
$GPGSV,3,3,09,41,27,238,30,1*57
$GPGSV,2,1,06,01,20,059,28,03,48,056,40,04,15,109,26,06,41,272,32,6*62
$GPGSV,2,2,06,14,46,193,23,17,73,005,34,6*68
$GPGSV,1,1,01,40,06,259,,0*58
$GLGSV,2,1,07,71,37,061,46,72,39,127,22,76,13,203,20,77,36,251,32,1*72
$GLGSV,2,2,07,78,23,316,34,87,50,337,42,88,19,292,34,1*4F
$GLGSV,2,1,06,71,37,061,42,72,39,127,20,76,13,203,14,77,36,251,28,3*7B
$GLGSV,2,2,06,78,23,316,35,88,19,292,26,3*75
$GLGSV,1,1,03,65,09,170,,70,05,022,,86,31,061,,0*4F
$GAGSV,2,1,08,02,50,223,21,04,13,052,26,09,24,104,35,11,20,064,28,2*79
$GAGSV,2,2,08,18,31,302,40,30,37,300,40,34,45,283,43,36,62,024,38,2*74
$GAGSV,2,1,08,02,50,223,30,04,13,052,23,09,24,104,32,11,20,064,19,7*7C
$GAGSV,2,2,08,18,31,302,34,30,37,300,39,34,45,283,46,36,62,024,34,7*75
$GAGSV,1,1,02,15,01,260,,25,18,176,,0*79
$GBGSV,2,1,08,07,74,226,37,08,51,242,33,10,70,268,37,11,49,069,43,1*78
$GBGSV,2,2,08,23,23,236,34,28,33,298,42,34,31,087,25,37,21,289,35,1*7E
$GBGSV,2,1,05,03,44,206,27,07,74,226,30,08,51,242,32,10,70,268,32,3*73
$GBGSV,2,2,05,11,49,069,42,3*45
$GNRMC,035339.00,A,3727.1198607,N,12639.1604876,E,0.088,,220622,,,F,V*1E
$GNVTG,,T,,M,0.088,N,0.163,K,D*3C
$GNGNS,035339.00,3727.1198607,N,12639.1604876,E,FFFF,29,0.68,27.158,17.833,2.0,4095,V*0F
$GNGGA,035339.00,3727.1198607,N,12639.1604876,E,5,12,0.68,27.158,M,17.833,M,2.0,4095*53
$GNGSA,A,3,41,14,19,06,17,04,03,01,,,,,1.21,0.68,1.00,1*02
$GNGSA,A,3,78,72,88,71,87,77,,,,,,,1.21,0.68,1.00,2*0C
$GNGSA,A,3,30,09,34,02,11,36,,,,,,,1.21,0.68,1.00,3*04
$GNGSA,A,3,11,23,08,34,37,07,28,03,10,,,,1.21,0.68,1.00,4*0C
$GPGSV,3,1,09,01,20,059,35,03,48,056,49,04,15,109,30,06,41,272,40,1*6C
$GPGSV,3,2,09,14,46,193,18,17,73,005,47,19,53,321,43,28,,,29,1*55
$GPGSV,3,3,09,41,27,238,31,1*56
$GPGSV,2,1,06,01,20,059,28,03,48,056,41,04,15,109,25,06,41,272,32,6*60
$GPGSV,2,2,06,14,46,193,22,17,73,005,33,6*6E
$GPGSV,1,1,01,40,06,259,,0*58
$GLGSV,2,1,07,71,37,061,45,72,39,127,24,76,13,203,18,77,36,251,32,1*7C
$GLGSV,2,2,07,78,23,316,33,87,50,337,41,88,19,292,34,1*4B
$GLGSV,2,1,06,71,37,061,41,72,39,127,20,76,13,203,14,77,36,251,28,3*78
$GLGSV,2,2,06,78,23,316,35,88,19,292,26,3*75
$GLGSV,1,1,03,65,09,170,,70,05,022,,86,31,061,,0*4F
$GAGSV,2,1,08,02,50,223,22,04,13,052,27,09,24,104,35,11,20,064,28,2*7B
$GAGSV,2,2,08,18,31,302,40,30,37,300,40,34,45,283,44,36,62,024,38,2*73
$GAGSV,2,1,08,02,50,223,30,04,13,052,23,09,24,104,32,11,20,064,19,7*7C
$GAGSV,2,2,08,18,31,302,28,30,37,300,38,34,45,283,46,36,62,024,34,7*79
$GAGSV,1,1,02,15,01,260,,25,18,176,,0*79
$GBGSV,2,1,08,07,74,226,37,08,51,242,33,10,70,268,37,11,49,069,43,1*78
$GBGSV,2,2,08,23,23,236,33,28,33,298,40,34,31,087,25,37,21,289,34,1*7A
$GBGSV,2,1,05,03,44,206,27,07,74,226,31,08,51,242,32,10,70,268,32,3*72
$GBGSV,2,2,05,11,49,069,43,3*44
$GNRMC,035340.00,A,3727.1198878,N,12639.1604735,E,0.031,,220622,,,F,V*1C
$GNVTG,,T,,M,0.031,N,0.057,K,D*38
$GNGNS,035340.00,3727.1198878,N,12639.1604735,E,FFFF,30,0.62,27.163,17.833,2.0,4095,V*05
$GNGGA,035340.00,3727.1198878,N,12639.1604735,E,5,12,0.62,27.163,M,17.833,M,2.0,4095*51
$GNGSA,A,3,41,14,19,06,17,04,03,01,,,,,1.13,0.62,0.95,1*04
$GNGSA,A,3,78,72,88,71,87,77,76,,,,,,1.13,0.62,0.95,2*0B
$GNGSA,A,3,30,09,34,02,11,36,,,,,,,1.13,0.62,0.95,3*02
$GNGSA,A,3,11,23,08,34,37,07,28,03,10,,,,1.13,0.62,0.95,4*0A
$GPGSV,3,1,09,01,20,059,35,03,48,056,48,04,15,109,31,06,41,272,40,1*6C
$GPGSV,3,2,09,14,45,193,18,17,73,005,47,19,53,321,43,28,,,28,1*57
$GPGSV,3,3,09,41,27,238,31,1*56
$GPGSV,2,1,06,01,20,059,28,03,48,056,41,04,15,109,25,06,41,272,32,6*60
$GPGSV,2,2,06,14,45,193,23,17,73,005,34,6*6B
$GPGSV,1,1,01,40,06,259,,0*58
$GLGSV,2,1,07,71,37,061,46,72,39,127,25,76,13,203,18,77,36,251,33,1*7F
$GLGSV,2,2,07,78,23,316,34,87,50,337,43,88,19,292,33,1*49
$GLGSV,2,1,06,71,37,061,42,72,39,127,20,76,13,203,15,77,36,251,27,3*75
$GLGSV,2,2,06,78,23,316,35,88,19,292,26,3*75
$GLGSV,1,1,03,65,09,170,,70,05,022,,86,31,061,,0*4F
$GAGSV,2,1,08,02,50,223,22,04,13,052,27,09,24,104,35,11,20,064,28,2*7B
$GAGSV,2,2,08,18,31,302,40,30,37,300,40,34,45,283,44,36,62,024,38,2*73
$GAGSV,2,1,08,02,50,223,31,04,13,052,23,09,24,104,32,11,20,064,18,7*7C
$GAGSV,2,2,08,18,31,302,34,30,37,300,39,34,45,283,46,36,62,024,33,7*72
$GAGSV,1,1,02,15,01,260,,25,18,176,,0*79
$GBGSV,2,1,08,07,74,226,37,08,51,242,33,10,70,268,37,11,49,069,43,1*78
$GBGSV,2,2,08,23,23,236,34,28,33,298,42,34,31,087,25,37,21,289,35,1*7E
$GBGSV,2,1,05,03,44,206,27,07,74,226,30,08,51,242,33,10,70,268,33,3*73
$GBGSV,2,2,05,11,49,069,43,3*44
$GNRMC,035341.00,A,3727.1198921,N,12639.1604627,E,0.030,,220622,,,F,V*13
$GNVTG,,T,,M,0.030,N,0.055,K,D*3B
$GNGNS,035341.00,3727.1198921,N,12639.1604627,E,FFFF,30,0.62,27.149,17.833,2.0,4095,V*03
$GNGGA,035341.00,3727.1198921,N,12639.1604627,E,5,12,0.62,27.149,M,17.833,M,2.0,4095*57
$GNGSA,A,3,41,14,19,06,17,04,03,01,,,,,1.13,0.62,0.95,1*04
$GNGSA,A,3,78,72,88,71,87,77,76,,,,,,1.13,0.62,0.95,2*0B
$GNGSA,A,3,30,09,34,02,11,36,,,,,,,1.13,0.62,0.95,3*02
$GNGSA,A,3,11,23,08,34,37,07,28,03,10,,,,1.13,0.62,0.95,4*0A
$GPGSV,3,1,09,01,20,059,35,03,48,056,48,04,15,109,32,06,41,272,40,1*6F
$GPGSV,3,2,09,14,45,193,16,17,73,005,47,19,53,321,43,28,,,29,1*58
$GPGSV,3,3,09,41,27,238,31,1*56
$GPGSV,2,1,06,01,20,059,27,03,48,056,40,04,15,109,25,06,41,272,31,6*6D
$GPGSV,2,2,06,14,45,193,23,17,73,005,34,6*6B
$GPGSV,1,1,01,40,06,259,,0*58
$GLGSV,2,1,07,71,37,061,45,72,39,127,25,76,13,203,17,77,36,251,32,1*72
$GLGSV,2,2,07,78,23,316,34,87,50,337,42,88,19,292,32,1*49
$GLGSV,2,1,06,71,37,061,41,72,39,127,20,76,13,203,14,77,36,251,27,3*77
$GLGSV,2,2,06,78,23,316,35,88,19,292,27,3*74
$GLGSV,1,1,03,65,09,170,,70,05,022,,86,31,061,,0*4F
$GAGSV,2,1,08,02,50,223,22,04,13,052,27,09,24,104,35,11,20,064,28,2*7B
$GAGSV,2,2,08,18,31,302,40,30,37,300,40,34,45,283,43,36,62,024,37,2*7B
$GAGSV,2,1,08,02,50,223,30,04,13,052,22,09,24,104,32,11,20,064,17,7*73
$GAGSV,2,2,08,18,31,302,33,30,37,300,39,34,45,283,46,36,62,024,33,7*75
$GAGSV,1,1,02,15,01,260,,25,18,176,,0*79
$GBGSV,2,1,08,07,74,226,37,08,51,242,33,10,70,268,37,11,49,069,43,1*78
$GBGSV,2,2,08,23,23,236,33,28,33,298,42,34,31,087,26,37,21,289,34,1*7B
$GBGSV,2,1,05,03,44,206,27,07,74,226,30,08,51,242,33,10,70,268,33,3*73
$GBGSV,2,2,05,11,49,069,42,3*45
$GNRMC,035342.00,A,3727.1198898,N,12639.1604505,E,0.031,,220622,,,F,V*11
$GNRMC,035343.00,A,3727.1198886,N,12639.1604300,E,0.029,,220622,,,F,V*15
$GNVTG,,T,,M,0.029,N,0.053,K,D*35
$GNGNS,035343.00,3727.1198886,N,12639.1604300,E,FFFF,30,0.64,27.149,17.833,1.0,4095,V*08
$GNGGA,035343.00,3727.1198886,N,12639.1604300,E,5,12,0.64,27.149,M,17.833,M,1.0,4095*5C
$GNGSA,A,3,41,14,19,06,17,04,03,01,,,,,1.17,0.64,0.98,1*0B
$GNGSA,A,3,78,72,88,71,87,77,76,,,,,,1.17,0.64,0.98,2*04
$GNGSA,A,3,30,09,34,02,11,36,,,,,,,1.17,0.64,0.98,3*0D
$GNGSA,A,3,11,23,08,34,37,07,28,03,10,,,,1.17,0.64,0.98,4*05
$GPGSV,3,1,09,01,20,059,35,03,48,056,48,04,15,109,31,06,41,272,39,1*62
$GPGSV,3,2,09,14,45,193,16,17,73,007,47,19,53,321,42,28,,,30,1*53
$GPGSV,3,3,09,41,27,238,31,1*56
$GPGSV,2,1,06,01,20,059,27,03,48,056,40,04,15,109,25,06,41,272,31,6*6D
$GPGSV,2,2,06,14,45,193,23,17,73,007,34,6*69
$GPGSV,1,1,01,40,06,259,,0*58
$GLGSV,2,1,07,71,37,061,45,72,39,127,23,76,13,203,17,77,36,251,32,1*74
$GLGSV,2,2,07,78,23,316,35,87,50,337,41,88,19,292,32,1*4B
$GLGSV,2,1,06,71,37,061,42,72,39,127,20,76,13,203,15,77,36,251,27,3*75
$GLGSV,2,2,06,78,23,316,35,88,19,292,27,3*74
$GLGSV,1,1,03,65,09,170,,70,05,022,,86,31,061,,0*4F
$GAGSV,2,1,08,02,50,223,21,04,13,052,27,09,24,104,35,11,20,064,28,2*78
$GAGSV,2,2,08,18,31,302,40,30,37,300,39,34,45,283,43,36,62,024,38,2*7A
$GAGSV,2,1,07,02,50,223,30,04,13,052,21,09,24,104,31,18,31,302,31,7*72
$GAGSV,2,2,07,30,37,300,39,34,45,283,46,36,62,024,33,7*40
$GAGSV,1,1,02,15,01,260,,25,18,176,,0*79
$GBGSV,2,1,08,07,74,226,37,08,51,242,32,10,70,268,36,11,49,069,43,1*78
$GBGSV,2,2,08,23,23,236,33,28,33,298,42,34,31,087,23,37,21,289,34,1*7E
$GBGSV,2,1,05,03,44,206,27,07,74,226,32,08,51,242,33,10,70,268,34,3*76
$GBGSV,2,2,05,11,49,069,43,3*44
$GNRMC,035344.00,A,3727.1199092,N,12639.1604108,E,0.028,,220622,,,F,V*15
$GNVTG,,T,,M,0.028,N,0.052,K,D*35
$GNGNS,035344.00,3727.1199092,N,12639.1604108,E,FFFF,28,0.64,27.149,17.833,2.0,4095,V*03
$GNGGA,035344.00,3727.1199092,N,12639.1604108,E,5,12,0.64,27.149,M,17.833,M,2.0,4095*5E
$GNGSA,A,3,41,14,19,06,17,04,03,01,,,,,1.17,0.64,0.98,1*0B
$GNGSA,A,3,78,72,88,71,87,77,76,,,,,,1.17,0.64,0.98,2*04
$GNGSA,A,3,30,09,34,02,11,36,,,,,,,1.17,0.64,0.98,3*0D
$GNGSA,A,3,11,23,08,34,37,07,28,10,,,,,1.17,0.64,0.98,4*06
$GPGSV,3,1,09,01,20,059,35,03,48,056,47,04,15,109,30,06,41,272,39,1*6C
$GPGSV,3,2,09,14,45,193,14,17,73,007,47,19,53,321,42,28,,,30,1*51
$GPGSV,3,3,09,41,27,238,31,1*56
$GPGSV,2,1,06,01,20,059,26,03,48,056,41,04,15,109,24,06,41,272,32,6*6F
$GPGSV,2,2,06,14,45,193,23,17,73,007,35,6*68
$GPGSV,1,1,01,40,06,259,,0*58
$GLGSV,2,1,07,71,37,061,47,72,39,127,23,76,13,203,16,77,36,251,33,1*76
$GLGSV,2,2,07,78,23,316,35,87,50,337,42,88,19,292,30,1*4A
$GLGSV,2,1,06,71,37,061,42,72,39,127,20,76,13,203,16,77,36,251,27,3*76
$GLGSV,2,2,06,78,23,316,35,88,19,292,27,3*74
$GLGSV,1,1,03,65,09,170,,70,05,022,,86,31,061,,0*4F
$GAGSV,2,1,08,02,50,223,20,04,13,052,27,09,24,104,35,11,20,064,28,2*79
$GAGSV,2,2,08,18,31,302,39,30,37,300,39,34,45,283,43,36,62,024,37,2*7B
$GAGSV,2,1,07,02,50,223,30,04,13,052,22,09,24,104,30,18,31,302,32,7*73
$GAGSV,2,2,07,30,37,300,39,34,45,283,45,36,62,024,33,7*43
$GAGSV,1,1,02,15,01,260,,25,18,176,,0*79
$GBGSV,2,1,08,07,74,226,37,08,51,242,32,10,70,268,36,11,49,069,43,1*78
$GBGSV,2,2,08,23,23,236,33,28,33,298,42,34,31,087,23,37,21,289,35,1*7F
$GBGSV,1,1,04,07,74,226,32,08,51,242,32,10,70,268,34,11,49,069,43,3*72
$GBGSV,1,1,01,03,44,206,,0*41
$GNRMC,035345.00,A,3727.1199109,N,12639.1603913,E,0.043,,220622,,,F,V*1F
$GNGNS,035345.00,3727.1199109,N,12639.1603913,E,FFFF,28,0.64,27.163,17.833,2.0,4095,V*0C
$GNGGA,035345.00,3727.1199109,N,12639.1603913,E,5,12,0.64,27.163,M,17.833,M,2.0,4095*51
$GNGSA,A,3,41,14,19,06,17,04,03,01,,,,,1.17,0.64,0.98,1*0B
$GNGSA,A,3,78,72,88,71,87,77,76,,,,,,1.17,0.64,0.98,2*04
$GNGSA,A,3,30,09,34,02,11,36,,,,,,,1.17,0.64,0.98,3*0D
$GNGSA,A,3,11,23,08,34,37,07,28,10,,,,,1.17,0.64,0.98,4*06
$GPGSV,3,1,09,01,20,059,35,03,48,056,48,04,15,109,31,06,41,272,39,1*62
$GPGSV,3,2,09,14,45,193,14,17,73,007,47,19,54,322,42,28,,,30,1*55
$GPGSV,3,3,09,41,27,238,31,1*56
$GPGSV,2,1,06,01,20,059,26,03,48,056,41,04,15,109,23,06,41,272,31,6*6B
$GPGSV,2,2,06,14,45,193,22,17,73,007,35,6*69
$GPGSV,1,1,01,40,06,259,,0*58
$GLGSV,2,1,07,71,37,061,46,72,39,127,23,76,13,203,16,77,36,251,33,1*77
$GLGSV,2,2,07,78,23,316,35,87,50,337,42,88,19,292,30,1*4A
$GLGSV,2,1,06,71,37,061,41,72,39,127,20,76,13,203,16,77,36,251,27,3*75
$GLGSV,2,2,06,78,23,316,35,88,19,292,27,3*74
$GLGSV$GAGSV,2,1,08,02,50,223,19,04,13,052,27,09,24,104,35,11,20,064,28,2*73
$GAGSV,2,2,08,18,31,302,39,30,37,300,39,34,45,283,43,36,62,024,37,2*7B
$GAGSV,2,1,07,02,50,223,31,04,13,052,22,09,24,104,31,18,31,302,32,7*73
$GAGSV,2,2,07,30,37,300,39,34,45,283,46,36,62,024,34,7*47
$GAGSV,1,1,02,15,01,260,,25,18,176,,0*79
$GBGSV,2,1,08,07,74,226,37,08,51,242,32,10,70,268,37,11,49,069,43,1*79
$GBGSV,2,2,08,23,23,236,33,28,33,298,42,34,31,087,23,37,21,289,35,1*7F
$GBGSV,1,1,04,07,74,226,31,08,51,242,32,10,70,268,33,11,49,069,42,3*77
$GBGSV,1,1,01,03,44,206,,0*41
$GNRMC,035346.00,A,3727.1199168,N,12639.1603750,E,0.031,,220622,,,F,V*17
$GNVTG,,T,,M,0.031,N,0.057,K,D*38
$GNGNS,035346.00,3727.1199168,N,12639.1603750,E,FFFF,29,0.64,27.170,17.833,2.0,4095,V*02
$GNGGA,035346.00,3727.1199168,N,12639.1603750,E,5,12,0.64,27.170,M,17.833,M,2.0,4095*5E
$GNGSA,A,3,41,14,19,06,17,04,03,01,,,,,1.17,0.64,0.98,1*0B
$GNGSA,A,3,78,72,88,71,87,77,76,,,,,,1.17,0.64,0.98,2*04
$GNGSA,A,3,11,23,08,34,37,07,28,10,,,,,1.17,0.64,0.98,4*06
$GPGSV,3,1,09,01,20,059,35,03,48,056,49,04,15,109,31,06,41,272,39,1*63
$GPGSV,3,2,09,14,45,193,16,17,73,007,47,19,54,322,43,28,,,30,1*56
$GPGSV,3,3,09,41,27,238,31,1*56
$GPGSV,2,1,06,01,20,059,27,03,48,056,41,04,15,109,24,06,41,272,30,6*6C
$GPGSV,2,2,06,14,45,193,22,17,73,007,34,6*68
$GPGSV,1,1,01,40,06,259,,0*58
$GLGSV,2,1,07,71,37,061,45,72,39,127,23,76,13,203,16,77,36,251,32,1*75
$GLGSV,2,2,07,78,23,316,35,87,50,337,41,88,19,292,32,1*4B
$GLGSV,2,1,06,71,37,061,41,72,39,127,20,76,13,203,15,77,36,251,27,3*76
$GLGSV,2,2,06,78,23,316,35,88,19,292,26,3*75
$GLGSV,1,1,03,65,09,170,,70,05,022,,86,31,061,,0*4F
$GAGSV,2,1,08,02,50,223,20,04,13,052,27,09,24,104,35,11,20,064,28,2*79
$GAGSV,2,2,08,18,31,302,39,30,37,300,39,34,45,283,43,36,62,024,38,2*74
$GAGSV,2,1,07,02,50,223,31,04,13,052,23,09,24,104,31,18,31,302,31,7*71
$GAGSV,2,2,07,30,37,300,39,34,45,283,46,36,62,024,34,7*47
$GAGSV,1,1$GBGSV,2,1,08,07,74,226,37,08,51,242,32,10,70,268,37,11,49,069,43,1*79
$GBGSV,2,2,08,23,23,236,33,28,33,298,41,34,31,087,24,37,21,289,35,1*7B
$GBGSV,1,1,04,07,74,226,31,08,51,242,32,10,70,268,33,11,49,069,44,3*71
$GBGSV,1,1,01,03,44,206,,0*41
$GNRMC,035347.00,A,3727.1199273,N,12639.1603594,E,0.016,,220622,,,F,V*10
$GNVTG,,T,,M,0.016,N,0.030,K,D*3C
$GNGNS,035347.00,3727.1199273,N,12639.1603594,E,FFFF,28,0.64,27.173,17.833,2.0,4095,V*02
$GNGGA,035347.00,3727.1199273,N,12639.1603594,E,5,12,0.64,27.173,M,17.833,M,2.0,4095*5F
$GNGSA,A,3,41,14,19,06,17,04,03,01,,,,,1.17,0.64,0.98,1*0B
$GNGSA,A,3,78,72,88,71,87,77,76,,,,,,1.17,0.64,0.98,2*04
$GNGSA,A,3,30,09,34,02,11,36,,,,,,,1.17,0.64,0.98,3*0D
$GNGSA,A,3,11,23,08,34,37,07,28,10,,,,,1.17,0.64,0.98,4*06
$GPGSV,3,1,09,01,20,059,35,03,48,056,48,04,15,109,31,06,41,272,40,1*6C
$GPGSV,3,2,09,14,45,193,16,17,73,007,47,19,54,322,42,28,,,31,1*56
$GPGSV,3,3,09,41,27,238,31,1*56
$GPGSV,2,1,06,01,20,059,26,03,48,056,41,04,15,109,25,06,41,272,32,6*6E
$GPGSV,2,2,06,14,45,193,21,17,73,007,35,6*6A
$GPGSV,1,1,01,40,06,259,,0*58
$GLGSV,2,1,07,71,37,061,47,72,39,127,22,76,13,203,15,77,36,251,32,1*75
$GLGSV,2,2,07,78,23,316,35,87,50,337,42,88,19,292,31,1*4B
$GLGSV,2,1,06,71,37,061,41,72,39,127,20,76,13,203,16,77,36,251,27,3*75
$GLGSV,2,2,06,78,23,316,35,88,19,292,27,3*74
$GLGSV,1,1,03,65,09,170,,70,05,022,,86,31,061,,0*4F
$GAGSV,2,1,08,02,50,223,19,04,13,052,27,09,24,104,35,11,20,064,28,2*73
$GAGSV,2,2,08,18,31,302,39,30,37,300,39,34,45,283,43,36,62,024,37,2*7B
$GAGSV,2,1,07,02,50,223,31,04,13,052,23,09,24,104,31,18,31,302,32,7*72
$GAGSV,2,2,07,30,37,300,40,34,45,283,46,36,62,024,33,7*4E
$GAGSV,1,1,02,15,01,260,,25,18,176,,0*79
$GBGSV,2,1,08,07,74,226,37,08,51,242,32,10,70,268,37,11,49,069,43,1*79
$GBGSV,2,2,08,23,23,236,34,28,33,298,42,34,31,087,24,37,21,289,36,1*7C
$GBGSV,1,1,04,07,74,226,31,08,51,242,33,10,70,268,33,11,49,069,43,3*77
$GBGSV,1,1,01,03,44,206,,0*41
$GNRMC,035348.00,A,3727.1199433,N,12639.1603399,E,0.023,,220622,,,F,V*10
$GNVTG,,T,,M,0.023,N,0.043,K,D*3E
$GNGNS,035348.00,3727.1199433,N,12639.1603399,E,FFFF,28,0.64,27.187,17.833,2.0,4095,V*0F
$GNGGA,035348.00,3727.1199433,N,12639.1603399,E,5,12,0.64,27.187,M,17.833,M,2.0,4095*52
$GNGSA,A,3,41,14,19,06,17,04,03,01,,,,,1.17,0.64,0.98,1*0B
$GNGSA,A,3,78,72,88,71,87,77,76,,,,,,1.17,0.64,0.98,2*04
$GNGSA,A,3,30,09,34,02,11,36,,,,,,,1.17,0.64,0.98,3*0D
$GNGSA,A,3,11,23,08,34,37,07,28,10,,,,,1.17,0.64,0.98,4*06
$GPGSV,3,1,09,01,20,059,35,03,48,056,48,04,15,109,31,06,41,272,40,1*6C
$GPGSV,3,2,09,14,45,193,16,17,73,007,47,19,54,322,42,28,,,32,1*55
$GPGSV,3,3,09,41,27,238,31,1*56
$GPGSV,2,1,06,01,20,059,26,03,48,056,41,04,15,109,25,06,41,272,32,6*6E
$GPGSV,2,2,06,14,45,193,21,17,73,007,35,6*6A
$GPGSV,1,1,01,40,06,259,,0*58
$GLGSV,2,1,07,71,37,061,47,72,39,127,21,76,13,203,14,77,36,251,33,1*76
$GLGSV,2,2,07,78,23,316,36,87,50,337,41,88,19,292,32,1*48
$GLGSV,2,1,06,71,37,061,42,72,39,127,19,76,13,203,17,77,36,251,27,3*7D
$GLGSV,2,2,06,78,23,316,35,88,19,292,27,3*74
$GLGSV,1,1,03,65,09,170,,70,05,022,,86,31,061,,0*4F
$GAGSV,2,1,08,02,50,223,18,04,13,052,27,09,24,104,35,11,20,064,29,2*73
$GAGSV,2,2,08,18,31,302,39,30,37,300,39,34,45,283,43,36,62,024,37,2*7B
$GAGSV,2,1,07,02,50,223,31,04,13,052,23,09,24,104,32,18,31,302,32,7*71
$GAGSV,2,2,07,30,37,300,40,34,45,283,46,36,62,024,33,7*4E
$GAGSV,1,1,02,15,01,260,,25,18,176,,0*79
$GBGSV,2,1,08,07,74,226,37,08,51,242,33,10,70,268,37,11,49,069,43,1*78
$GBGSV,2,2,08,23,23,236,34,28,33,298,42,34,31,087,25,37,21,289,35,1*7E
$GBGSV,1,1,04,07,74,226,31,08,51,242,33,10,70,268,33,11,49,069,43,3*77
$GNRMC,035349.00,A,3727.1199312,N,12639.1603274,E,0.043,,220622,,,F,V*11
$GNVTG,,T,,M,0.043,N,0.079,K,D*31
$GNGNS,035349.00,3727.1199312,N,12639.1603274,E,FFFF,29,0.64,27.192,17.833,2.0,4095,V*0D
$GNGSA,A,3,41,14,19,06,17,04,03,01,,,,,1.17,0.64,0.98,1*0B
$GNGSA,A,3,78,72,88,71,87,77,76,,,,,,1.17,0.64,0.98,2*04
$GNGSA,A,3,30,09,34,02,11,36,,,,,,,1.17,0.64,0.98,3*0D
$GNGSA,A,3,11,23,08,34,37,07,28,10,,,,,1.17,0.64,0.98,4*06
$GPGSV,3,1,09,01,20,059,35,03,48,056,48,04,15,109,31,06,41,272,39,1*62
$GPGSV,3,2,09,14,45,193,16,17,73,007,47,19,54,322,42,28,,,32,1*55
$GPGSV,3,3,09,41,27,238,31,1*56
$GPGSV,2,1,06,01,20,059,26,03,48,056,41,04,15,109,25,06,41,272,33,6*6F
$GPGSV,2,2,06,14,45,193,22,17,73,007,35,6*69
$GPGSV,1,1,01,40,06,259,,0*58
$GLGSV,2,1,07,71,37,061,47,72,39,127,20,76,13,203,15,77,36,251,33,1*76
$GLGSV,2,2,07,78,23,316,36,87,50,337,41,88,19,292,32,1*48
$GLGSV,2,1,06,71,37,061,42,72,39,127,19,76,13,203,17,77,36,251,27,3*7D
$GLGSV,2,2,06,78,23,316,35,88,19,292,26,3*75
$GLGSV,1,1,03,65,09,170,,70,05,022,,86,31,061,,0*4F
$GAGSV,2,1,08,02,50,223,17,04,13,052,27,09,24,104,35,11,20,064,29,2*7C
$GAGSV$GAGSV,2,1,07,02,50,223,31,04,13,052,23,09,24,104,32,18,31,302,33,7*70
$GAGSV,2,2,07,30,37,300,40,34,45,283,45,36,62,024,34,7*4A
$GAGSV,1,1,02,15,01,260,,25,18,176,,0*79
$GBGSV,2,1,08,07,74,226,37,08,51,242,33,10,70,268,37,11,49,069,43,1*78
$GBGSV,2,2,08,23,23,236,34,28,33,298,42,34,31,087,26,37,21,289,35,1*7D
$GBGSV,1,1,04,07,74,226,31,08,51,242,33,10,70,268,34,11,49,069,43,3*70
$GBGSV,1,1,01,03,44,206,,0*41
$GNRMC,035350.00,A,3727.1199409,N,12639.1603124,E,0.027,,220622,,,F,V*10
$GNVTG,,T,,M,0.027,N,0.050,K,D*38
$GNGNS,035350.00,3727.1199409,N,12639.1603124,E,FFFF,28,0.64,27.211,17.833,2.0,4095,V*07
$GNGGA,035350.00,3727.1199409,N,12639.1603124,E,5,12,0.64,27.211,M,17.833,M,2.0,4095*5A
$GNGSA,A,3,41,14,19,06,17,04,03,01,,,,,1.17,0.64,0.98,1*0B
$GNGSA,A,3,78,72,88,71,87,77,76,,,,,,1.17,0.64,0.98,2*04
$GNGSA,A,3,30,09,34,02,11,36,,,,,,,1.17,0.64,0.98,3*0D
$GNGSA,A,3,11,23,08,34,37,07,28,10,,,,,1.17,0.64,0.98,4*06
$GPGSV,3,1,09,01,20,059,35,03,48,056,47,04,15,109,31,06,41,272,40,1*63
$GPGSV,3,2,09,14,45,193,17,17,73,007,47,19,54,322,41,28,,,32,1*57
$GPGSV,3,3,09,41,27,238,31,1*56
$GPGSV,2,1,06,01,20,059,26,03,48,056,41,04,15,109,25,06,41,272,33,6*6F
$GPGSV,2,2,06,14,45,193,22,17,73,007,36,6*6A
$GPGSV,1,1,01,40,06,259,,0*58
$GLGSV,2,1,07,71,37,061,47,72,39,127,19,76,13,203,15,77,36,251,32,1*7D
$GLGSV,2,2,07,78,23,316,36,87,50,337,41,88,19,292,32,1*48
$GLGSV,2,1,06,71,37,061,42,72,39,127,19,76,13,203,18,77,36,251,27,3*72
$GLGSV,2,2,06,78,23,316,35,88,19,292,26,3*75
$GLGSV,1,1,03,65,09,170,,70,05,022,,86,31,061,,0*4F
$GAGSV,2,1,08,02,50,223,16,04,13,052,27,09,24,104,35,11,20,064,28,2*7C
$GAGSV,2,2,08,18,31,302,39,30,37,300,39,34,45,283,43,36,62,024,36,2*7A
$GAGSV,2,1,08,02,50,223,30,04,13,052,23,09,24,104,32,11,20,064,23,7*75
$GAGSV,2,2,08,18,31,302,33,30,37,300,40,34,45,283,45,36,62,024,34,7*7F
$GAGSV,1,1,02,15,01,260,,25,18,176,,0*79
$GBGSV,2,1,08,07,74,226,36,08,51,242,33,10,70,268,37,11,49,069,43,1*79
$GBGSV,2,2,08,23,23,236,33,28,33,298,42,34,31,087,27,37,21,289,35,1*7B
$GBGSV,1,1,04,07,74,226,31,08,51,242,32,10,70,268,34,11,49,069,43,3*71
$GBGSV,1,1,01,03,44,206,,0*41
$GNRMC,035351.00,A,3727.1199424,N,12639.1603002,E,0.068,,220622,,,F,V*10
$GNVTG,,T,,M,0.068,N,0.125,K,D*30
$GNGNS,035351.00,3727.1199424,N,12639.1603002,E,FFFF,28,0.60,27.221,17.833,2.0,4095,V*0B
$GNGGA,035351.00,3727.1199424,N,12639.1603002,E,5,12,0.60,27.221,M,17.833,M,2.0,4095*56
$GNGSA,A,3,41,14,19,06,17,04,03,01,,,,,1.14,0.60,0.97,1*03
$GNGSA,A,3,78,72,88,71,87,77,76,,,,,,1.14,0.60,0.97,2*0C
$GNGSA,A,3,30,09,34,02,11,36,,,,,,,1.14,0.60,0.97,3*05
$GNGSA,A,3,11,23,08,34,37,07,28,10,,,,,1.14,0.60,0.97,4*0E
$GPGSV,3,1,09,01,20,059,35,03,48,056,47,04,15,109,32,06,41,272,40,1*60
$GPGSV,3,2,09,14,45,193,18,17,73,007,47,19,54,322,41,28,,,32,1*58
$GPGSV,3,3,09,41,27,238,31,1*56
$GPGSV,2,1,06,01,20,059,25,03,48,056,41,04,15,109,25,06,41,272,34,6*6B
$GPGSV,2,2,06,14,45,193,23,17,73,007,36,6*6B
$GPGSV,1,1,01,40,06,259,,0*58
$GLGSV,2,1,07,71,37,061,48,72,39,127,19,76,13,203,14,77,36,251,32,1*73
$GLGSV,2,2,07,78,23,316,36,87,50,337,41,88,19,292,31,1*4B
$GLGSV,2,1,06,71,37,061,42,72,39,127,19,76,13,203,17,77,36,251,26,3*7C
$GLGSV,2,2,06,78,23,316,36,88,19,292,26,3*76
$GLGSV,1,1,03,65,09,170,,70,05,022,,86,31,061,,0*4F
$GAGSV,2,1,08,02,50,223,15,04,13,052,27,09,24,104,35,11,20,064,28,2*7F
$GAGSV,2,2,08,18,31,302,40,30,37,300,39,34,45,283,43,36,62,024,35,2*77
$GAGSV,2,1,08,02,50,223,30,04,13,052,24,09,24,104,33,11,20,064,22,7*72
$GAGSV,2,2,08,18,31,302,32,30,37,300,40,34,45,283,45,36,62,024,34,7*7E
$GAGSV,1,1,02,15,01,260,,25,18,176,,0*79
$GBGSV,2,1,08,07,74,226,37,08,51,242,33,10,70,268,36,11,49,069,43,1*79
$GBGSV,2,2,08,23,23,236,34,28,33,298,43,34,31,087,28,37,21,289,36,1*71
$GBGSV,1,1,04,07,74,226,31,08,51,242,32,10,70,268,33,11,49,069,44,3*71
$GBGSV,1,1,01,03,44,206,,0*41
$GNRMC,035352.00,A,3727.1199523,N,12639.1602800,E,0.030,,220622,,,F,V*13
$GNVTG,,T,,M,0.030,N,0.056,K,D*38
$GNGGA,035352.00,3727.1199523,N,12639.1602800,E,5,12,0.64,27.226,M,17.833,M,2.0,4095*5B
$GNGSA,A,3,41,14,19,06,17,04,03,01,,,,,1.17,0.64,0.98,1*0B
$GNGSA,A,3,78,72,88,71,87,77,76,,,,,,1.17,0.64,0.98,2*04
$GNGSA,A,3,30,09,34,02,11,36,,,,,,,1.17,0.64,0.98,3*0D
$GNGSA,A,3,11,23,08,34,37,07,28,10,,,,,1.17,0.64,0.98,4*06
$GPGSV,3,1,09,01,20,059,35,03,48,056,47,04,15,109,32,06,41,272,40,1*60
$GPGSV,3,2,09,14,45,193,18,17,73,007,47,19,54,322,41,28,,,33,1*59
$GPGSV,3,3,09,41,27,238,30,1*57
$GPGSV,2,1,06,01,20,059,25,03,48,056,41,04,15,109,24,06,41,272,34,6*6A
$GPGSV,2,2,06,14,45,193,24,17,73,007,36,6*6C
$GPGSV,1,1,01,40,06,259,,0*58
$GLGSV,2,1,07,71,37,061,48,72,39,127,18,76,13,203,14,77,36,251,32,1*72
$GLGSV,2,2,07,78,23,316,36,87,50,337,41,88,19,292,30,1*4A
$GLGSV,2,1,06,71,37,061,42,72,39,127,19,76,13,203,17,77,36,251,26,3*7C
$GLGSV,2,2,06,78,23,316,36,88,19,292,26,3*76
$GLGSV,1,1,03,65,09,170,,70,05,022,,86,31$GAGSV,2,1,08,02,50,223,15,04,13,052,28,09,24,104,35,11,20,064,28,2*70
$GAGSV,2,2,08,18,31,302,40,30,37,300,39,34,45,283,43,36,62,024,35,2*77
$GAGSV,2,1,08,02,50,223,29,04,13,052,25,09,24,104,33,11,20,064,21,7*78
$GAGSV,2,2,08,18,31,302,32,30,37,300,40,34,45,283,45,36,62,024,34,7*7E
$GAGSV,1,1,02,15,01,260,,25,18,176,,0*79
$GBGSV,2,1,08,07,74,226,37,08,51,242,33,10,70,268,36,11,49,069,43,1*79
$GBGSV,2,2,08,23,23,236,34,28,33,298,43,34,31,087,28,37,21,289,36,1*71
$GBGSV,1,1,04,07,74,226,32,08,51,242,32,10,70,268,33,11,49,069,44,3*72
$GBGSV,1,1,02,03,44,206,,12,05,095,,0*78
$GNRMC,035353.00,A,3727.1199537,N,12639.1602616,E,0.030,,220622,,,F,V*1E
$GNVTG,,T,,M,0.030,N,0.056,K,D*38
$GNGNS,035353.00,3727.1199537,N,12639.1602616,E,FFFF,29,0.64,27.244,17.833,1.0,4095,V*0D
$GNGGA,035353.00,3727.1199537,N,12639.1602616,E,5,12,0.64,27.244,M,17.833,M,1.0,4095*51
$GNGSA,A,3,41,14,19,06,17,04,03,01,,,,,1.17,0.64,0.98,1*0B
$GNGSA,A,3,78,72,88,71,87,77,76,,,,,,1.17,0.64,0.98,2*04
$GNGSA,A,3,30,09,34,02,11,36,,,,,,,1.17,0.64,0.98,3*0D
$GNGSA,A,3,11,23,08,34,37,07,28,10,,,,,1.17,0.64,0.98,4*06
$GPGSV,3,1,09,01,20,059,35,03,48,056,47,04,15,109,33,06,41,272,40,1*61
$GPGSV,3,2,09,14,45,193,19,17,73,007,47,19,54,322,42,28,,,32,1*5A
$GPGSV,3,3,09,41,27,238,31,1*56
$GPGSV,2,1,06,01,20,059,25,03,48,056,41,04,15,109,23,06,41,272,33,6*6A
$GPGSV,2,2,06,14,45,193,24,17,73,007,36,6*6C
$GPGSV,1,1,01,40,06,259,,0*58
$GLGSV,2,1,07,71,37,061,48,72,39,127,18,76,13,203,16,77,36,251,31,1*73
$GLGSV,2,2,07,78,23,316,36,87,50,337,41,88,19,292,29,1*42
$GLGSV,2,1,06,71,37,061,42,72,39,127,20,76,13,203,17,77,36,251,26,3*76
$GLGSV,2,2,06,78,23,316,35,88,19,292,26,3*75
$GLGSV,1,1,03,65,09,170,,70,05,022,,86,31,061,,0*4F
$GAGSV,2,1,08,02,50,223,13,04,13,052,28,09,24,104,36,11,20,064,28,2*75
$GAGSV,2,2,08,18,31,302,40,30,37,300,39,34,45,283,43,36,62,024,35,2*77
$GAGSV,2,1,08,02,50,223,29,04,13,052,25,09,24,104,33,11,20,064,21,7*78
$GAGSV,2,2,08,18,31,302,33,30,37,300,40,34,45,283,45,36,62,024,34,7*7F
$GAGSV,1,1,02,15,01,260,,25,18,176,,0*79
$GBGSV,2,1,08,07,74,226,37,08,51,242,33,10,70,268,37,11,49,069,43,1*78
$GBGSV,2,2,08,23,23,236,34,28,33,298,42,34,31,087,28,37,21,289,36,1*70
$GBGSV,1,1,04,07,74,226,32,08,51,242,32,10,70,268,33,11,49,069,44,3*72
$GBGSV,1,1,02,03,44,206,,12,05,095,,0*78
$GNRMC,035354.00,A,3727.1199469,N,12639.1602489,E,0.042,,220622,,,F,V*12
$GNVTG,,T,,M,0.042,N,0.078,K,D*31
$GNGNS,035354.00,3727.1199469,N,12639.1602489,E,FFFF,29,0.62,27.263,17.833,2.0,4095,V*04
$GNGGA,035354.00,3727.1199469,N,12639.1602489,E,5,12,0.62,27.263,M,17.833,M,2.0,4095*58
$GNGSA,A,3,78,72,88,71,87,77,76,,,,,,1.13,0.62,0.95,2*0B
$GNGSA,A,3,30,09,34,02,11,36,,,,,,,1.13,0.62,0.95,3*02
$GNGSA,A,3,11,23,08,34,37,07,28,10,,,,,1.13,0.62,0.95,4*09
$GPGSV,3,1,09,01,20,059,35,03,48,056,47,04,15,109,33,06,41,272,40,1*61
$GPGSV,3,2,09,14,45,193,18,17,73,007,47,19,54,322,40,28,,,32,1*59
$GPGSV,3,3,09,41,27,238,30,1*57
$GPGSV,2,1,06,01,20,059,25,03,48,056,41,04,15,109,23,06,41,272,35,6*6C
$GPGSV,2,2,06,14,45,193,24,17,73,007,36,6*6C
$GPGSV,1,1,01,40,06,259,,0*58
$GLGSV,2,1,07,71,37,061,48,72,39,127,17,76,13,203,15,77,36,251,31,1*7F
$GLGSV,2,2,07,78,23,316,35,87,50,337,41,88,19,292,27,1*4F
$GLGSV,2,1,06,71,37,061,42,72,39,127,20,76,13,203,18,77,36,251,27,3*78
$GLGSV,2,2,06,78,23,316,35,88,19,292,25,3*76
$GLGSV,1,1,03,65,09,170,,70,05,022,,86,31,061,,0*4F
$GAGSV,2,1,08,02,50,223,14,04,13,052,28,09,24,104,36,11,20,064,28,2*72
$GAGSV,2,2,08,18,31,302,39,30,37,300,38,34,45,283,43,36,62,024,34,2*79
$GAGSV,2,1,08,02,50,223$GNRMC,035355.00,A,3727.1199526,N,12639.1602367,E,0.050,,220622,,,F,V*1D
$GNVTG,,T,,M,0.050,N,0.093,K,D*37
$GNGNS,035355.00,3727.1199526,N,12639.1602367,E,FFFF,29,0.62,27.276,17.833,2.0,4095,V*0C
$GNGSA,A,3,41,14,19,06,17,04,03,01,,,,,1.13,0.62,0.95,1*04
$GNGSA,A,3,78,72,88,71,87,77,76,,,,,,1.13,0.62,0.95,2*0B
$GNGSA,A,3,30,09,34,02,11,36,,,,,,,1.13,0.62,0.95,3*02
$GNGSA,A,3,11,23,08,34,37,07,28,10,,,,,1.13,0.62,0.95,4*09
$GPGSV,3,1,09,01,20,059,35,03,48,056,47,04,15,109,32,06,41,272,40,1*60
$GPGSV,3,2,09,14,45,193,19,17,73,007,47,19,54,322,40,28,,,33,1*59
$GPGSV,3,3,09,41,27,238,29,1*5F
$GPGSV,2,1,06,01,20,059,24,03,48,056,41,04,15,109,22,06,41,272,36,6*6F
$GPGSV,2,2,06,14,45,193,24,17,73,007,36,6*6C
$GPGSV,1,1,01,40,06,259,,0*58
$GLGSV,2,1,07,71,37,061,48,72,39,127,18,76,13,203,15,77,36,251,31,1*70
$GLGSV,2,2,07,78,23,316,35,87,50,337,41,88,19,292,25,1*4D
$GLGSV,2,1,06,71,37,061,42,72,39,127,21,76,13,203,19,77,36,251,27,3*78
$GLGSV,2,2,06,78,23,316,35,88,19,292,25,3*76
$GLGSV,1,1,03,65,09,170,,70,05,022,,86,31,061,,0*4F
$GAGSV,2,1,08,02,50,223,18,04,13,052,28,09,24,104,36,11,20,064,27,2*71
$GAGSV$GAGSV,2,1,08,02,50,223,31,04,13,052,25,09,24,104,34,11,20,064,21,7*76
$GAGSV,2,2,08,18,31,302,36,30,37,300,40,34,45,283,45,36,62,024,34,7*7A
$GAGSV,1,1,02,15,01,260,,25,18,176,,0*79
$GBGSV,2,1,08,07,74,226,36,08,51,242,34,10,70,268,37,11,49,069,41,1*7C
$GBGSV,2,2,08,23,23,236,34,28,33,298,43,34,31,087,28,37,21,289,37,1*70
$GBGSV,1,1,04,07,74,226,31,08,51,242,33,10,70,268,33,11,49,069,43,3*77
$GBGSV,1,1,02,03,44,206,,12,05,095,,0*78
$GNRMC,035356.00,A,3727.1199596,N,12639.1602238,E,0.098,,220622,,,F,V*1A
$GNVTG,,T,,M,0.098,N,0.182,K,D*32
$GNGNS,035356.00,3727.1199596,N,12639.1602238,E,FFFF,29,0.62,27.318,17.833,2.0,4095,V*06
$GNGGA,035356.00,3727.1199596,N,12639.1602238,E,5,12,0.62,27.318,M,17.833,M,2.0,4095*5A
$GNGSA,A,3,41,14,19,06,17,04,03,01,,,,,1.13,0.62,0.95,1*04
$GNGSA,A,3,78,72,88,71,87,77,76,,,,,,1.13,0.62,0.95,2*0B
$GNGSA,A,3,30,09,34,02,11,36,,,,,,,1.13,0.62,0.95,3*02
$GNGSA,A,3,11,23,08,34,37,07,28,10,,,,,1.13,0.62,0.95,4*09
$GPGSV,3,1,09,01,20,059,35,03,48,056,49,04,15,109,30,06,41,272,41,1*6D
$GPGSV,3,2,09,14,45,193,21,17,73,007,46,19,54,322,43,28,,,32,1*51
$GPGSV,3,3,09,41,27,238,30,1*57
$GPGSV,2,1,06,01,20,059,26,03,48,056,40,04,15,109,24,06,41,272,35,6*69
$GPGSV,2,2,06,14,45,193,23,17,73,007,36,6*6B
$GPGSV,1,1,01,40,06,259,,0*58
$GLGSV,2,1,07,71,37,061,46,72,39,127,18,76,13,203,17,77,36,251,31,1*7C
$GLGSV,2,2,07,78,23,316,36,87,50,337,39,88,19,292,28,1*4C
$GLGSV,2,1,06,71,37,061,42,72,39,127,20,76,13,203,19,77,36,251,27,3*79
$GLGSV,2,2,06,78,23,316,35,88,19,292,24,3*77
$GLGSV,1,1,03,65,09,170,,70,05,022,,86,31,061,,0*4F
$GAGSV,2,1,08,02,50,223,20,04,13,052,28,09,24,104,35,11,20,064,27,2*79
$GAGSV,2,2,08,18,31,302,40,30,37,300,39,34,45,283,43,36,62,024,38,2*7A
$GAGSV,2,1,08,02,50,223,31,04,13,052,25,09,24,104,33,11,20,064,22,7*72
$GAGSV,2,2,08,18,31,302,34,30,37,300,40,34,45,283,46,36,62,024,35,7*7A
$GAGSV,1,1,02,15,01,260,,25,18,176,,0*79
$GBGSV,2,1,08,07,74,226,37,08,51,242,34,10,70,268,36,11,49,069,42,1*7F
$GBGSV,2,2,08,23,23,236,34,28,33,298,42,34,31,087,28,37,21,289,35,1*73
$GBGSV,1,1,04,07,74,226,31,08,51,242,33,10,70,268,33,11,49,069,44,3*70
$GBGSV,1,1,02,03,44,206,,12,05,095,,0*78
$GNRMC,035357.00,A,3727.1199608,N,12639.1602124,E,0.054,,220622,,,F,V*11
$GNVTG,,T,,M,0.054,N,0.100,K,D*38
$GNGNS,035357.00,3727.1199608,N,12639.1602124,E,FFFF,29,0.62,27.324,17.833,2.0,4095,V*02
$GNGGA,035357.00,3727.1199608,N,12639.1602124,E,5,12,0.62,27.324,M,17.833,M,2.0,4095*5E
$GNGSA,A,3,41,14,19,06,17,04,03,01,,,,,1.13,0.62,0.95,1*04
$GNGSA,A,3,78,72,88,71,87,77,76,,,,,,1.13,0.62,0.95,2*0B
$GNGSA,A,3,30,09,34,02,11,36,,,,,,,1.13,0.62,0.95,3*02
$GNGSA,A,3,11,23,08,34,37,07,28,10,,,,,1.13,0.62,0.95,4*09
$GPGSV,3,1,09,01,20,059,35,03,48,056,49,04,15,109,33,06,41,272,41,1*6E
$GPGSV,3,2,09,14,45,193,24,17,73,007,46,19,54,322,43,28,,,32,1*54
$GPGSV,3,3,09,41,27,238,30,1*57
$GPGSV,2,1,06,01,20,059,28,03,48,056,40,04,15,109,27,06,41,272,34,6*65
$GPGSV,2,2,06,14,45,193,23,17,73,007,35,6*68
$GPGSV,1,1,01,40,06,259,,0*58
$GLGSV,2,1,07,71,37,061,46,72,39,127,19,76,13,203,18,77,36,251,31,1*72
$GLGSV,2,2,07,78,23,316,34,87,50,337,39,88,19,292,31,1*46
