$GNRMC,035724.00,A,3727.1126108,N,12639.1995496,E,0.007,,220622,,,F,V*19
$GNVTG,,T,,M,0.007,N,0.013,K,D*3D
$GNGNS,035724.00,3727.1126108,N,12639.1995496,E,FFFF,29,0.67,22.187,17.835,2.0,4095,V*01
$GNGSA,A,3,14,19,06,17,04,03,01,,,,,,1.33,0.67,1.15,1*0F
$GNGSA,A,3,77,78,87,88,71,72,76,,,,,,1.33,0.67,1.15,2*05
$GNGSA,A,3,30,09,34,11,02,04,36,,,,,,1.33,0.67,1.15,3*08
$GNGSA,A,3,04,11,08,34,37,07,28,10,,,,,1.33,0.67,1.15,4*02
$GPGSV,2,1,07,01,19,060,27,03,47,055,37,04,15,108,35,06,42,274,31,1*62
$GPGSV,2,2,07,17,74,012,38,19,55,323,34,28,,,30,1*6A
$GPGSV,2,1,07,01,19,060,26,03,47,055,37,04,15,108,33,06,42,274,24,6*66
$GPGSV,2,2,07,09,11,140,20,14,43,192,16,17,74,012,38,6*58
$GPGSV,1,1,04,11,07,255,,12,00,327,,40,06,259,,41,27,238,,0*64
$GLGSV,2,1,07,71,37,059,28,72,40,125,39,76,11,203,19,77,34,249,15,1*71
$GLGSV,2,2,07,78,24,314,40,87,50,339,39,88,20,293,44,1*47
$GNRMC,035725.00,A,3727.1126345,N,12639.1995670,E,0.041,,220622,,,F,V*1B
$GNVTG,,T,,M,0.041,N,0.076,K,D*3C
$GNGNS,035725.00,3727.1126345,N,12639.1995670,E,FFFF,29,0.67,22.295,17.835,2.0,4095,V*01
$GNGGA,035725.00,3727.1126345,N,12639.1995670,E,5,12,0.67,22.295,M,17.835,M,2.0,4095*5D
$GNGSA,A,3,14,19,06,17,04,03,01,,,,,,1.33,0.67,1.15,1*0F
$GNGSA,A,3,77,78,87,88,71,72,76,,,,,,1.33,0.67,1.15,2*05
$GNGSA,A,3,30,09,34,11,02,04,36,,,,,,1.33,0.67,1.15,3*08
$GNGSA,A,3,04,11,08,34,37,07,28,10,,,,,1.33,0.67,1.15,4*02
$GPGSV,2,1,08,01,19,060,27,03,47,055,40,04,15,108,36,06,42,274,33,1*6C
$GPGSV,2,2,08,14,43,192,28,17,74,012,40,19,55,323,35,28,,,31,1*58
$GPGSV,2,1,07,01,19,060,26,03,47,055,37,04,15,108,33,06,42,274,23,6*61
$GPGSV,2,2,07,09,11,140,20,14,43,192,16,17,74,012,37,6*57
$GPGSV,1,1,04,11,07,255,,12,00,327,,40,06,259,,41,27,238,,0*64
$GLGSV,2,1,07,71,37,059,25,72,40,125,41,76,11,203,18,77,34,249,15,1*72
$GLGSV,2,2,07,78,24,314,41,87,50,339,40,88,20,293,45,1*49
$GLGSV,2,1,05,71,37,059,38,72,40,125,40,76,11,203,15,78,24,314,26,3*75
$GLGSV,2,2,05,88,20,293,37,3*41
$GLGSV,1,1,03,65,11,170,,70,04,021,,86,30,063,,0*47
$GAGSV,2,1,08,02,49,222,23,04,13,050,28,09,25,103,35,11,19,066,21,2*79
$GAGSV,2,2,08,18,32,302,33,30,38,298,36,34,46,284,36,36,61,025,30,2*71
$GAGSV,2,1,08,02,49,222,31,04,13,050,20,09,25,103,37,11,19,066,32,7*77
$GAGSV,2,2,08,18,32,302,38,30,38,298,38,34,46,284,39,36,61,025,38,7*76
$GAGSV,1,1,02,15,01,261,,25,16,176,,0*76
$GBGSV,2,1,08,04,35,132,40,07,73,225,42,08,51,243,28,10,69,267,40,1*71
$GBGSV,2,2,08,11,48,071,37,28,34,299,38,34,30,088,34,37,20,288,32,1*72
$GBGSV,2,1,05,04,35,132,39,07,73,225,40,08,51,243,30,10,69,267,40,3*7B
$GBGSV,2,2,05,11,48,071,40,3*4F
$GBGSV,2,1,05,03,44,206,,12,04,096,,13,41,240,,21,22,046,,0*7E
$GBGSV,2,2,05,21,22,046,,0*43
$GNRMC,035726.00,A,3727.1126552,N,12639.1995859,E,0.021,,220622,,,F,V*1B
$GNVTG,,T,,M,0.021,N,0.039,K,D*31
$GNGNS,035726.00,3727.1126552,N,12639.1995859,E,FFFF,28,0.70,22.440,17.835,2.0,4095,V*0E
$GNGGA,035726.00,3727.1126552,N,12639.1995859,E,5,12,0.70,22.440,M,17.835,M,2.0,4095*53
$GNGSA,A,3,14,19,06,17,04,03,01,,,,,,1.37,0.70,1.18,1*00
$GNGSA,A,3,78,87,88,71,72,76,,,,,,,1.37,0.70,1.18,2*0A
$GNGSA,A,3,30,09,34,11,02,04,36,,,,,,1.37,0.70,1.18,3*07
$GNGSA,A,3,04,11,08,34,37,07,28,10,,,,,1.37,0.70,1.18,4*0D
$GPGSV,2,1,08,01,19,060,35,03,47,055,40,04,15,108,39,06,42,274,34,1*67
$GPGSV,2,2,08,14,43,192,29,17,74,012,42,19,55,323,35,28,,,32,1*58
$GPGSV,2,1,07,01,19,060,25,03,47,055,36,04,15,108,33,06,42,274,22,6*62
$GPGSV,2,2,07,09,11,140,22,14,43,192,17,17,74,012,37,6*54
$GPGSV,1,1,04,11,07,255,,12,00,327,,40,06,259,,41,27,238,,0*64
$GLGSV,2,1,07,71,37,059,23,72,40,125,41,76,11,203,16,77,34,249,10,1*7F
$GLGSV,2,2,07,78,24,314,40,87,50,339,40,88,20,293,46,1*4B
$GLGSV,2,1,05,71,37,059,39,72,40,125,40,76,11,203,15,78,24,314,25,3*77
$GLGSV,2,2,05,88,20,293,37,3*41
$GLGSV,1,1,03,65,11,170,,70,04,021,,86,30,063,,0*47
$GAGSV,2,1,08,02,49,222,22,04,13,050,28,09,25,103,35,11,19,066,24,2*7D
$GAGSV,2,2,08,18,32,302,32,30,38,298,36,34,46,284,37,36,61,025,31,2*70
$GAGSV,2,1,08,02,49,222,30,04,13,050,20,09,25,103,37,11,19,066,31,7*75
$GAGSV,2,2,08,18,32,302,38,30,38,298,39,34,46,284,39,36,61,025,39,7*76
$GAGSV,1,1,02,15,01,261,,25,16,176,,0*76
$GBGSV,2,1,08,04,35,132,40,07,73,225,42,08,51,243,27,10,69,267,39,1*70
$GBGSV,2,2,08,11,48,071,38,28,34,299,40,34,30,088,29,37,20,288,31,1*7D
$GBGSV,2,1,05,04,35,132,39,07,73,225,40,08,51,243,31,10,69,267,41,3*7B
$GBGSV,2,2,05,11,48,071,42,3*4D
$GBGSV,2,1,05,03,44,206,,12,04,096,,13,41,240,,21,22,046,,0*7E
$GBGSV,2,2,05,21,22,046,,0*43
$GNRMC,035727.00,A,3727.1126840,N,12639.1996113,E,0.021,,220622,,,F,V*10
$GNVTG,,T,,M,0.021,N,0.039,K,D*31
$GNGNS,035727.00,3727.1126840,N,12639.1996113,E,FFFF,29,0.67,22.649,17.835,2.0,4095,V*09
$GNGSA,A,3,14,19,06,17,04,03,01,,,,,,1.33,0.67,1.15,1*0F
$GNGSA,A,3,77,78,87,88,71,72,76,,,,,,1.33,0.67,1.15,2*05
$GNGSA,A,3,30,09,34,11,02,04,36,,,,,,1.33,0.67,1.15,3*08
$GNGSA,A,3,04,11,08,34,37,07,28,10,,,,,1.33,0.67,1.15,4*02
$GPGSV,2,1,08,01,19,060,32,03,47,055,42,04,15,108,39,06,42,274,34,1*62
$GPGSV,2,2,08,14,43,192,32,17,74,012,42,19,55,323,34,28,,,32,1*53
$GPGSV,2,1,07,01,19,060,25,03,47,055,36,04,15,108,33,06,42,274,22,6*62
$GPGSV,2,2,07,09,11,140,23,14,43,192,16,17,74,012,37,6*54
$GPGSV,1,1,04,11,07,255,,12,00,327,,40,06,259,,41,27,238,,0*64
$GLGSV,2,1,07,71,37,059,20,72,40,125,41,76,11,203,15,77,34,249,12,1*7D
$GLGSV,2,2,07,78,24,314,40,87,50,339,40,88,20,293,45,1*48
$GLGSV,2,1,05,71,37,059,38,72,40,125,40,76,11,203,16,78,24,314,25,3*75
$GLGSV,2,2,05,88,20,293,37,3*41
$GLGSV,1,1,03,65,11,170,,70,04,021,,86,30,063,,0*47
$GAGSV,2,1,08,02,49,222,22,04,13,050,29,09,25,103,35,11,19,066,24,2*7C
$GAGSV$GAGSV,2,1,08,02,49,222,30,04,13,050,19,09,25,103,37,11,19,066,30,7*7E
$GAGSV,2,2,08,18,32,302,38,30,38,298,38,34,46,284,39,36,61,025,39,7*77
$GAGSV,1,1,02,15,01,261,,25,16,176,,0*76
$GBGSV,2,1,08,04,35,132,40,07,73,225,42,08,51,243,26,10,69,267,39,1*71
$GBGSV,2,2,08,11,48,071,37,28,34,299,39,34,30,088,33,37,20,288,31,1*77
$GBGSV,2,1,05,04,35,132,38,07,73,225,40,08,51,243,30,10,69,267,41,3*7B
$GBGSV,2,2,05,11,48,071,42,3*4D
$GBGSV,2,1,05,03,44,206,,12,04,096,,13,41,240,,21,22,046,,0*7E
$GBGSV,2,2,05,21,22,046,,0*43
$GNRMC,035728.00,A,3727.1126963,N,12639.1996320,E,0.021,,220622,,,F,V*1D
$GNVTG,,T,,M,0.021,N,0.040,K,D*3F
$GNGNS,035728.00,3727.1126963,N,12639.1996320,E,FFFF,29,0.67,22.842,17.835,2.0,4095,V*01
$GNGGA,035728.00,3727.1126963,N,12639.1996320,E,5,12,0.67,22.842,M,17.835,M,2.0,4095*5D
$GNGSA,A,3,14,19,06,17,04,03,01,,,,,,1.33,0.67,1.15,1*0F
$GNGSA,A,3,77,78,87,88,71,72,76,,,,,,1.33,0.67,1.15,2*05
$GNGSA,A,3,30,09,34,11,02,04,36,,,,,,1.33,0.67,1.15,3*08
$GNGSA,A,3,04,11,08,34,37,07,28,10,,,,,1.33,0.67,1.15,4*02
$GPGSV,2,1,08,01,19,060,35,03,47,055,42,04,15,108,38,06,42,274,33,1*63
$GPGSV,2,2,08,14,43,192,31,17,74,012,43,19,55,323,34,28,,,32,1*51
$GPGSV,2,1,07,01,19,060,25,03,47,055,36,04,15,108,33,06,42,274,23,6*63
$GPGSV,2,2,07,09,11,140,23,14,43,192,18,17,74,012,37,6*5A
$GPGSV,1,1,04,11,07,255,,12,00,327,,40,06,259,,41,27,238,,0*64
$GLGSV,2,1,07,71,37,059,21,72,40,125,41,76,11,203,16,77,34,249,14,1*79
$GLGSV,2,2,07,78,24,314,40,87,50,339,40,88,20,293,46,1*4B
$GLGSV,2,1,05,71,37,059,38,72,40,125,40,76,11,203,16,78,24,314,23,3*73
$GLGSV,2,2,05,88,20,293,37,3*41
$GLGSV,1,1,03,65,11,170,,70,04,021,,86,30,063,,0*47
$GAGSV,2,1,08,02,49,222,21,04,13,050,29,09,25,103,37,11,19,066,24,2*7D
$GAGSV,2,2,08,18,32,302,32,30,38,298,36,34,46,284,38,36,61,025,31,2*7F
$GAGSV,2,1,08,02,49,222,29,04,13,050,17,09,25,103,37,11,19,066,32,7*7A
$GAGSV,2,2,08,18,32,302,38,30,38,298,38,34,46,284,36,36,61,025,39,7*78
$GAGSV,1,1,02,15,01,261,,25,16,176,,0*76
$GBGSV,2,1,08,04,35,132,40,07,73,225,43,08,51,243,26,10,69,267,40,1*7E
$GBGSV,2,2,08,11,48,071,37,28,34,299,39,34,30,088,33,37,20,288,32,1*74
$GBGSV,2,1,05,04,35,132,39,07,73,225,40,08,51,243,31,10,69,267,41,3*7B
$GBGSV,2,2,05,11,48,071,42,3*4D
$GBGSV,2,1,05,03,44,206,,12,04,096,,13,41,240,,21,22,046,,0*7E
$GBGSV,2,2,05,21,22,046,,0*43
$GNRMC,035729.00,A,3727.1126993,N,12639.1996383,E,0.003,,220622,,,F,V*1A
$GNVTG,,T,,M,0.003,N,0.006,K,D*3D
$GNGNS,035729.00,3727.1126993,N,12639.1996383,E,FFFF,29,0.67,22.987,17.835,2.0,4095,V*0E
$GNGGA,035729.00,3727.1126993,N,12639.1996383,E,5,12,0.67,22.987,M,17.835,M,2.0,4095*52
$GNGSA,A,3,14,19,06,17,04,03,01,,,,,,1.33,0.67,1.15,1*0F
$GNGSA,A,3,77,78,87,88,71,72,76,,,,,,1.33,0.67,1.15,2*05
$GNGSA,A,3,30,09,34,11,02,04,36,,,,,,1.33,0.67,1.15,3*08
$GPGSV,2,1,08,01,19,060,26,03,47,055,43,04,15,108,37,06,42,274,34,1*68
$GPGSV,2,2,08,14,43,192,30,17,74,012,42,19,55,323,35,28,,,32,1*50
$GPGSV,2,1,07,01,19,060,27,03,47,055,37,04,15,108,31,06,42,274,24,6*65
$GPGSV,2,2,07,09,11,140,23,14,43,192,17,17,74,012,37,6*55
$GPGSV,1,1,04,11,07,255,,12,00,327,,40,06,259,,41,27,238,,0*64
$GLGSV,2,1,07,71,37,059,29,72,40,125,40,76,11,203,15,77,34,249,14,1*73
$GLGSV,2,2,07,78,24,314,40,87,50,339,40,88,20,293,46,1*4B
$GLGSV,2,1,05,71,37,059,38,72,40,125,40,76,11,203,16,78,24,314,23,3*73
$GLGSV,2,2,05,88,20,293,36,3*40
$GLGSV,1,1,03,65,11,170,,70,04,021,,86,30,063,,0*47
$GAGSV,2,1,08,02,49,222,21,04,13,050,29,09,25,103,36,11,19,066,24,2*7C
$GAGSV,2,2,08,18,32,302,33,30,38,298,36,34,46,284,38,36,61,025,31,2*7E
$GAGSV,2,1,08,02,49,222,28,04,13,050,14,09,25,103,37,11,19,066,32,7*78
$GAGSV,2,2,08,18,32,302,38,30,38,298,38,34,46,284,40,36,61,025,40,7*77
$GAGSV,1,1,02,15,01,261,,25,16,176,,0*76
$GBGSV,3,1,$GBGSV,3,2,09,10,69,267,40,11,48,071,34,28,34,299,39,34,30,088,33,1*7B
$GBGSV,3,3,09,37,20,288,32,1*4A
$GBGSV,2,1,05,04,35,132,39,07,73,225,42,08,51,243,32,10,69,267,41,3*7A
$GBGSV,2,2,05,11,48,071,39,3*41
$GBGSV,1,1,04,12,04,096,,13,41,240,,21,22,046,,23,22,235,,0*7E
$GNRMC,035730.00,A,3727.1127033,N,12639.1996417,E,0.010,,220622,,,F,V*18
$GNVTG,,T,,M,0.010,N,0.018,K,D*30
$GNGGA,035730.00,3727.1127033,N,12639.1996417,E,5,12,0.67,23.104,M,17.835,M,2.0,4095*50
$GNGSA,A,3,14,19,06,17,04,03,01,,,,,,1.33,0.67,1.15,1*0F
$GNGSA,A,3,77,78,87,88,71,72,76,,,,,,1.33,0.67,1.15,2*05
$GNGSA,A,3,30,09,34,11,02,04,36,,,,,,1.33,0.67,1.15,3*08
$GNGSA,A,3,04,11,08,34,37,07,28,10,,,,,1.33,0.67,1.15,4*02
$GPGSV,2,1,08,01,19,060,35,03,47,055,42,04,15,108,36,06,42,274,34,1*6A
$GPGSV,2,2,08,14,43,192,30,17,74,012,42,19,55,323,35,28,,,32,1*50
$GPGSV,2,1,07,01,19,060,27,03,47,055,36,04,15,108,31,06,42,274,25,6*65
$GPGSV,2,2,07,09,11,140,23,14,43,192,18,17,74,012,36,6*5B
$GPGSV,1,1,04,11,07,255,,12,00,327,,40,06,259,,41,27,238,,0*64
$GLGSV,2,1,07,71,37,059,29,72,40,125,40,76,11,203,13,77,34,249,14,1*75
$GLGSV,2,2,07,78,24,314,39,87,50,339,40,88,20,293,46,1*45
$GLGSV,2,1,05,71,37,059,38,72,40,125,40,76,11,203,16,78,24,314,22,3*72
$GLGSV,2,2,05,88,20,293,36,3*40
$GLGSV,1,1,03,65,11,170,,70,04,021,,86,30$GNRMC,035731.00,A,3727.1127052,N,12639.1996439,E,0.008,,220622,,,F,V*1B
$GNVTG,,T,,M,0.008,N,0.014,K,D*35
$GNGNS,035731.00,3727.1127052,N,12639.1996439,E,FFFF,29,0.70,23.212,17.835,2.0,4095,V*04
$GNGGA,035731.00,3727.1127052,N,12639.1996439,E,5,12,0.70,23.212,M,17.835,M,2.0,4095*58
$GNGSA,A,3,14,19,06,17,04,03,01,,,,,,1.37,0.70,1.18,1*00
$GNGSA,A,3,77,78,87,88,71,72,76,,,,,,1.37,0.70,1.18,2*0A
$GNGSA,A,3,30,09,34,11,02,04,36,,,,,,1.37,0.70,1.18,3*07
$GNGSA,A,3,04,11,08,34,37,07,28,10,,,,,1.37,0.70,1.18,4*0D
$GPGSV,2,1,08,01,19,060,37,03,47,055,41,04,15,108,37,06,42,274,35,1*6B
$GPGSV,2,2,08,14,43,192,30,17,74,012,42,19,55,323,35,28,,,33,1*51
$GPGSV,2,1,07,01,19,060,26,03,47,055,36,04,15,108,33,06,42,274,25,6*66
$GPGSV,2,2,07,09,11,140,24,14,43,192,19,17,74,012,36,6*5D
$GPGSV,1,1,04,11,07,255,,12,00,327,,40,06,259,,41,27,238,,0*64
$GLGSV,2,1,07,71,37,059,29,72,40,125,41,76,11,203,10,77,34,249,12,1*71
$GLGSV,2,2,07,78,24,314,37,87,50,339,39,88,20,293,46,1*45
$GLGSV,2,1,05,71,37,059,38,72,40,125,40,76,11,203,18,78,24,314,23,3*7D
$GLGSV,2,2,05,88,20,293,35,3*43
$GLGSV,1,1,03,65,11,170,,70,04,021,,86,30,063,,0*47
$GAGSV,2,1,08,02,49,222,20,04,13,050,30,09,25,103,37,11,19,066,23,2*73
$GAGSV,2,2,08,18,33,303,34,30,38,298,36,34,46,284,38,36,61,025,30,2*78
$GAGSV,2,1,08,02,49,222,28,04,13,050,11,09,25,103,37,11,19,066,33,7*7C
$GAGSV,2,2,08,18,33,303,38,30,38,298,38,34,46,284,39,36,61,025,40,7*79
$GAGSV,1,1,02,15,02,262,,25,16,176,,0*76
$GBGSV,2,1,08,04,35,132,40,07,73,225,43,08,51,243,26,10,69,267,39,1*70
$GBGSV,2,2,08,11,48,071,36,28,34,299,40,34,30,088,32,37,20,288,32,1*7A
$GBGSV,2,1,05,04,35,132,38,07,73,225,42,08,51,243,32,10,69,267,41,3*7B
$GBGSV,2,2,05,11,48,071,42,3*4D
$GBGSV,2,1,05,03,44,206,,12,04,096,,13,41,240,,21,22,046,,0*7E
$GBGSV,2,2,05,21,22,046,,0*43
$GNRMC,035732.00,A,3727.1127149,N,12639.1996514,E,0.020,,220622,,,F,V*17
$GNVTG,,T,,M,0.020,N,0.038,K,D*31
$GNGNS,035732.00,3727.1127149,N,12639.1996514,E,FFFF,28,0.73,23.302,17.835,2.0,4095,V*00
$GNGGA,035732.00,3727.1127149,N,12639.1996514,E,5,12,0.73,23.302,M,17.835,M,2.0,4095*5D
$GNGSA,A,3,14,19,06,17,04,03,01,,,,,,1.51,0.73,1.32,1*0B
$GNGSA,A,3,78,87,88,71,72,76,,,,,,,1.51,0.73,1.32,2*01
$GNGSA,A,3,30,09,34,11,02,04,36,,,,,,1.51,0.73,1.32,3*0C
$GNGSA,A,3,04,11,08,34,37,07,28,10,,,,,1.51,0.73,1.32,4*06
$GPGSV,2,1,08,01,19,060,36,03,47,055,40,04,15,108,36,06,42,274,35,1*6A
$GPGSV,2,2,08,14,43,192,31,17,74,012,43,19,55,323,34,28,,,32,1*51
$GPGSV,2,1,07,01,19,060,26,03,47,055,36,04,15,108,33,06,42,274,26,6*65
$GPGSV,2,2,07,09,11,140,23,14,43,192,20,17,74,012,36,6*50
$GPGSV,1,1,04,11,07,255,,12,00,327,,40,06,259,,41,27,238,,0*64
$GLGSV,2,1,06,71,37,059,32,72,40,125,40,77,34,249,10,78,24,314,37,1*73
$GLGSV,2,2,06,87,50,339,39,88,20,293,46,1*7F
$GLGSV,2,1,05,71,37,059,36,72,40,125,39,76,11,203,18,78,24,314,22,3*7C
$GLGSV,2,2,05,88,20,293,35,3*43
$GLGSV,1,1,03,65,11,170,,70,04,021,,86,30,063,,0*47
$GAGSV,2,1,08,02,49,222,21,04,13,050,31,09,25,103,37,11,19,066,23,2*73
$GAGSV,2,2,08,18,33,303,30,30,38,298,34,34,46,284,36,36,61,025,31,2*71
$GAGSV,2,1,08,02,49,222,26,04,13,050,13,09,25,103,39,11,19,066,32,7*7F
$GAGSV,2,2,08,18,33,303,36,30,38,298,38,34,46,284,39,36,61,025,40,7*77
$GAGSV,1,1,02,15,02,262,,25,16,176,,0*76
$GBGSV,2,1,08,04,35,132,40,07,73,225,43,08,51,243,26,10,69,267,39,1*70
$GBGSV,2,2,08,11,48,071,36,28,34,299,36,34,30,088,34,37,20,288,33,1*7C
$GBGSV,2,1,05,04,35,132,38,07,73,225,40,08,51,243,31,10,69,267,41,3*7A
$GBGSV,2,2,05,11,48,071,41,3*4E
$GBGSV,2,1,05,03,44,206,,12,04,096,,13,41,240,,21,22,046,,0*7E
$GBGSV,2,2,05,21,22,046,,0*43
$GNRMC,035733.00,A,3727.1121810,N,12639.1989827,E,0.005,,220622,,,R,V*05
$GNVTG,,T,,M,0.005,N,0.009,K,D*34
$GNGNS,035733.00,3727.1121810,N,12639.1989827,E,RRRR,28,0.70,22.436,17.834,1.0,4095,V*01
$GNGGA,035733.00,3727.1121810,N,12639.1989827,E,4,12,0.70,22.436,M,17.834,M,1.0,4095*5D
$GNGSA,A,3,14,19,06,17,04,03,01,,,,,,1.37,0.70,1.18,1*00
$GNGSA,A,3,78,87,88,71,72,76,,,,,,,1.37,0.70,1.18,2*0A
$GNGSA,A,3,30,09,34,11,02,04,36,,,,,,1.37,0.70,1.18,3*07
$GNGSA,A,3,04,11,08,34,37,07,28,10,,,,,1.37,0.70,1.18,4*0D
$GPGSV,2,1,08,01,19,060,32,03,47,055,42,04,15,108,36,06,42,274,35,1*6C
$GPGSV,2,2,08,14,43,192,32,17,74,012,43,19,55,323,35,28,,,32,1*53
$GPGSV,2,1,07,01,19,060,26,03,47,055,36,04,15,108,32,06,42,274,26,6*64
$GPGSV,2,2,07,09,11,140,23,14,43,192,19,17,74,012,36,6*5A
$GPGSV,1,1,04,11,07,255,,12,00,327,,40,06,259,,41,27,238,,0*64
$GLGSV,2,1,05,71,37,059,31,72,40,125,40,78,24,314,38,87,50,339,39,1*7C
$GLGSV,2,2,05,88,20,293,46,1*45
$GLGSV,2,1,05,71,37,059,37,72,40,125,39,76,11,203,18,78,24,314,22,3*7D
$GLGSV,2,2,05,88,20,293,35,3*43
$GLGSV,1,1,04,65,11,170,,70,04,021,,77,34,249,,86,30,063,,0*78
$GAGSV,2,1,08,02,49,222,21,04,13,050,31,09,25,103,36,11,19,066,23,2*72
$GAGSV,2,2,08,18,33,303,32,30,38,298,35,34,46,284,38,36,61,025,31,2*7C
$GAGSV,2,1,08,02,49,222,26,04,13,050,17,09,25,103,38,11,19,066,32,7*7A
$GAGSV,2,2,08,18,33,303,37,30,38,298,37,34,46,284,39,36,61,025,40,7*79
$GAGSV,1,1,02,15,02,262,,25,16,176,,0*76
$GBGSV,2,1,08,04,35,132,40,07,73,225,44,08,51,243,26,10,69,267,40,1*79
$GBGSV,2,2,08,11,48,071,35,28,34,299,37,34,30,088,35,37,20,288,34,1*78
$GBGSV,2,1,05,04,35,132,38,07,73,225,41,08,51,243,31,10,69,267,41,3*7B
$GBGSV,2,2,05,11,48,071,41,3*4E
$GBGSV,2,1,05,03,44,206,,12,04,096,,13,41,240,,21,22,046,,0*7E
$GBGSV,2,2,05,21,22,046,,0*43
$GNRMC,035734.00,A,3727.1121816,N,12639.1989774,E,0.029,,220622,,,R,V*03
$GNVTG,,T,,M,0.029,N,0.054,K,D*32
$GNGNS,035734.00,3727.1121816,N,12639.1989774,E,RRRR,28,0.70,22.416,17.834,2.0,4095,V*08
$GNGGA,035734.00,3727.1121816,N,12639.1989774,E,4,12,0.70,22.416,M,17.834,M,2.0,4095*54
$GNGSA,A,3,14,19,06,17,04,03,01,,,,,,1.37,0.70,1.18,1*00
$GNGSA,A,3,78,87,88,71,72,76,,,,,,,1.37,0.70,1.18,2*0A
$GNGSA,A,3,30,09,34,11,02,04,36,,,,,,1.37,0.70,1.18,3*07
$GNGSA,A,3,04,11,08,34,37,07,28,10,,,,,1.37,0.70,1.18,4*0D
$GPGSV,2,2,08,14,43,192,32,17,74,012,43,19,55,323,35,28,,,32,1*53
$GPGSV,2,1,07,01,19,060,27,03,47,055,36,04,15,108,31,06,42,274,26,6*66
$GPGSV,2,2,07,09,11,140,23,14,43,192,19,17,74,012,36,6*5A
$GPGSV,1,1,04,11,07,255,,12,00,327,,40,06,259,,41,27,238,,0*64
$GLGSV,2,1,05,71,37,059,32,72,40,125,40,78,24,314,37,87,50,339,39,1*70
$GLGSV,2,2,05,88,20,293,46,1*45
$GLGSV,2,1,05,71,37,059,37,72,40,125,40,76,11,203,17,78,24,314,21,3*7F
$GLGSV,2,2,05,88,20,293,36,3*40
$GLGSV,1,1,04,65,11,170,,70,04,021,,77,34,249,,86,30,063,,0*78
$GAGSV,2,1,08,02,49,222,20,04,13,050,31,09,25,103,37,11,19,066,23,2*72
$GAGSV,2,2,08,18,33,303,32,30,38,298,35,34,46,284,38,36,61,025,31,2*7C
$GAGSV,2,1,08,02,49,222,27,04,13,050,19,09,25,103,37,11,19,066,32,7*7A
$GAGSV,2,2,08,18,33,303,37,30,38,298,38,34,46,284,39,36,61,025,40,7*76
$GAGSV,1,1,02,15,02,262,,25,16,176,,0*76
$GBGSV,2,1,08,04,35,132,40,07,73,225,43,08,51,243,27,10,69,267,40,1*7F
$GBGSV,2,2,08,$GBGSV,2,1,05,04,35,132,38,07,73,225,41,08,51,243,31,10,69,267,41,3*7B
$GBGSV,2,2,05,11,48,071,41,3*4E
$GBGSV,2,1,05,03,44,206,,12,04,096,,13,41,240,,21,22,046,,0*7E
$GBGSV,2,2,05,21,22,046,,0*43
$GNRMC,035735.00,A,3727.1121838,N,12639.1989725,E,0.004,,220622,,,R,V*05
$GNVTG,,T,,M,0.004,N,0.007,K,D*3B
$GNGNS,035735.00,3727.1121838,N,12639.1989725,E,RRRR,28,0.70,22.416,17.834,2.0,4095,V*01
$GNGGA,035735.00,3727.1121838,N,12639.1989725,E,4,12,0.70,22.416,M,17.834,M,2.0,4095*5D
$GNGSA,A,3,14,19,06,17,04,03,01,,,,,,1.37,0.70,1.18,1*00
$GNGSA,A,3,78,87,88,71,72,76,,,,,,,1.37,0.70,1.18,2*0A
$GNGSA,A,3,30,09,34,11,02,04,36,,,,,,1.37,0.70,1.18,3*07
$GNGSA,A,3,04,11,08,34,37,07,28,10,,,,,1.37,0.70,1.18,4*0D
$GPGSV,2,1,08,01,19,060,35,03,47,055,43,04,15,108,36,06,42,274,35,1*6A
$GPGSV,2,2,08,14,43,192,32,17,74,012,43,19,55,323,35,28,,,32,1*53
$GPGSV,2,1,07,01,19,060,27,03,47,055,36,04,15,108,31,06,42,274,26,6*66
$GPGSV,2,2,07,09,11,140,23,14,43,192,19,17,74,012,36,6*5A
$GPGSV,1,1,04,11,07,255,,12,00,327,,40,06,259,,41,27,238,,0*64
$GLGSV,2,1,05,71,37,059,33,72,40,125,40,78,24,314,37,87,50,339,39,1*71
$GLGSV,2,2,05,88,20,293,46,1*45
$GLGSV,2,1,05,71,37,059,37,72,40,125,40,76,11,203,17,78,24,314,21,3*7F
$GLGSV,2,2,05,88,20,293,36,3*40
$GLGSV,1,1,04,65,11,170,,70,04,021,,77,34,249,,86,30,063,,0*78
$GAGSV,2,1,08,02,49,222,20,04,13,050,31,09,25,103,37,11,19,066,23,2*72
$GAGSV,2,2,08,18,33,303,32,30,38,298,35,34,46,284,38,36,61,025,31,2*7C
$GAGSV,2,1,08,02,49,222,27,04,13,050,21,09,25,103,37,11,19,066,32,7*71
$GAGSV,2,2,08,18,33,303,36,30,38,298,38,34,46,284,39,36,61,025,40,7*77
$GAGSV,1,1,02,15,02,262,,25,16,176,,0*76
$GBGSV,2,1,08,04,35,132,40,07,73,225,43,08,51,243,27,10,69,267,40,1*7F
$GBGSV,2,2,08,11,48,071,34,28,34,299,37,34,30,088,34,37,20,288,35,1*79
$GBGSV,2,1,05,04,35,132,38,07,73,225,41,08,51,243,31,10,69,267,41,3*7B
$GBGSV,2,2,05,11,48,071,41,3*4E
$GBGSV,2,1,05,03,44,206,,12,04,096,,13,41,240,,21,22,046,,0*7E
$GBGSV,2,2,05,21,22,046,,0*43
$GNRMC,035736.00,A,3727.1121826,N,12639.1989733,E,0.012,,220622,,,R,V*09
$GNVTG,,T,,M,0.012,N,0.021,K,D*38
$GLGSV,2,2,05,88,20,293,36,3*40
$GLGSV,1,1,04,65,11,170,,70,04,021,,77,34,249,,86,30,063,,0*78
$GAGSV,2,1,08,02,49,222,20,04,13,050,31,09,25,103,37,11,19,066,23,2*72
$GAGSV,2,2,08,18,33,303,32,30,38,298,35,34,46,284,38,36,61,025,32,2*7F
$GAGSV,2,1,08,02,49,222,28,04,13,050,21,09,25,103,37,11,19,066,32,7*7E
$GAGSV,2,2,08,18,33,303,36,30,38,298,38,34,46,284,40,36,61,025,40,7*79
$GAGSV,1,1,02,15,02,262,,25,16,176,,0*76
$GBGSV,2,1,08,04,35,132,40,07,73,225,43,08,51,243,27,10,69,267,41,1*7E
$GBGSV,2,2,08,11,48,071,33,28,34,299,37,34,30,088,34,37,20,288,35,1*7E
$GBGSV,2,1,05,04,35,132,38,07,73,225,41,08,51,243,31,10,69,267,41,3*7B
$GBGSV,2,2,05,11,48,071,41,3*4E
$GBGSV,2,1,05,03,44,206,,12,04,096,,13,41,240,,21,22,046,,0*7E
$GBGSV,2,2,05,21,22,046,,0*43
$GNRMC,035737.00,A,3727.1121806,N,12639.1989735,E,0.028,,220622,,,R,V*05
$GNVTG,,T,,M,0.028,N,0.051,K,D*36
$GNGNS,035737.00,3727.1121806,N,12639.1989735,E,RRRR,28,0.70,22.399,17.834,2.0,4095,V*0F
$GNGGA,035737.00,3727.1121806,N,12639.1989735,E,4,12,0.70,22.399,M,17.834,M,2.0,4095*53
$GNGSA,A,3,14,19,06,17,04,03,01,,,,,,1.37,0.70,1.18,1*00
$GNGSA,A,3,78,87,88,71,72,76,,,,,,,1.37,0.70,1.18,2*0A
$GNGSA,A,3,30,09,34,11,02,04,36,,,,,,1.37,0.70,1.18,3*07
$GNGSA,A,3,04,11,08,34,37,07,28,10,,,,,1.37,0.70,1.18,4*0D
$GPGSV,2,1,08,01,19,060,33,03,47,055,43,04,15,108,36,06,42,274,34,1*6D
$GPGSV,2,2,08,14,43,192,32,17,74,012,43,19,55,323,35,28,,,32,1*53
$GPGSV,2,1,07,01,19,060,26,03,47,055,36,04,15,108,31,06,42,274,25,6*64
$GPGSV,2,2,07,09,11,140,21,14,43,192,21,17,74,012,37,6*52
$GPGSV,1,1,04,11,07,255,,12,00,327,,40,06,259,,41,27,238,,0*64
$GLGSV,2,1,05,71,37,059,35,72,40,125,39,78,24,314,37,87,50,339,39,1*79
$GLGSV,2,2,05,88,20,293,46,1*45
$GLGSV,2,1,05,71,37,059,36,72,40,125,39,76,11,203,17,78,24,314,25,3*74
$GLGSV,2,2,05,88,20,293,35,3*43
$GLGSV,1,1,04,65,11,170,,70,04,021,,77,34,249,,86,30,063,,0*78
$GAGSV,2,1,08,02,49,222,21,04,13,050,31,09,25,103,36,11,19,066,24,2*75
$GAGSV,2,2,08,18,33,303,32,30,38,298,35,34,46,284,38,36,61,025,32,2*7F
$GAGSV,2,1,08,02,49,222,29,04,13,050,20,09,25,103,37,11,19,066,31,7*7D
$GAGSV,2,2,08,18,33,303,36,30,38,298,38,34,46,284,40,36,61,025,40,7*79
$GAGSV,1,1,02,15,02,262,,25,16,176,,0*76
$GBGSV,2,1,08,04,35,132,40,07,73,225,44,08,51,243,27,10,69,267,41,1*79
$GBGSV,2,2,08,11,48,071,32,28,34,299,36,34,30,088,33,37,20,288,35,1*79
$GBGSV,2,1,05,04,35,132,38,07,73,225,41,08,51,243,31,10,69,267,41,3*7B
$GBGSV,2,2,05,11,48,071,41,3*4E
$GBGSV,2,1,05,03,44,206,,12,04,096,,13,41,240,,21,22,046,,0*7E
$GBGSV,2,2,05,21,22,046,,0*43
$GNRMC,035738.00,A,3727.1121812,N,12639.1989743,E,0.046,,220622,,,R,V*06
$GNVTG,,T,,M,0.046,N,0.085,K,D*37
$GNGNS,035738.00,3727.1121812,N,12639.1989743,E,RRRR,28,0.73,22.392,17.834,2.0,4095,V*0C
$GNGGA,035738.00,3727.1121812,N,12639.1989743,E,4,12,0.73,22.392,M,17.834,M,2.0,4095*50
$GNGSA,A,3,14,19,06,17,04,03,01,,,,,,1.51,0.73,1.32,1*0B
$GNGSA,A,3,78,87,88,71,72,76,,,,,,,1.51,0.73,1.32,2*01
$GNGSA,A,3,30,09,34,11,02,04,36,,,,,,1.51,0.73,1.32,3*0C
$GNGSA,A,3,04,11,08,34,37,07,28,10,,,,,1.51,0.73,1.32,4*06
$GPGSV,2,1,08,01,19,060,26,03,47,055,43,04,15,108,36,06,42,274,34,1*69
$GPGSV,2,2,08,14,43,192,32,17,74,012,43,19,55,323,35,28,,,33,1*52
$GPGSV,2,1,07,01,19,060,27,03,47,055,36,04,15,108,30,06,42,274,25,6*64
$GPGSV,2,2,07,09,11,140,21,14,43,192,21,17,74,012,37,6*52
$GPGSV,1,1,04,11,07,255,,12,00,327,,40,06,259,,41,27,238,,0*64
$GLGSV,2,1,05,71,37,059,36,72,40,125,39,78,24,314,37,87,50,339,39,1*7A
$GLGSV,2,2,05,88,20,293,46,1*45
$GLGSV,2,1,05,71,37,059,36,72,40,125,39,76,11,203,18,78,24,314,26,3*78
$GLGSV,2,2,05,88,20,293,36,3*40
$GLGSV,1,1,04,65,11,170,,70,04,021,,77,34,249,,86,30,063,,0*78
$GAGSV,2,1,08,02,49,222,22,04,13,050,31,09,25,103,37,11,19,066,24,2*77
$GAGSV,2,2,08,18,33,303,32,30,38,298,35,34,46,284,38,36,61,025,32,2*7F
$GAGSV,2,1,08,02,49,222,30,04,13,050,20,09,25,103,37,11,19,066,31,7*75
$GAGSV,2,2,08,18,33,303,36,30,38,298,38,34,46,284,40,36,61,025,40,7*79
$GAGSV,1,1,02,15,02,262,,25,16,176,,0*76
$GBGSV,3,1,09,03,44,206,27,04,35,132,40,07,73,225,44,08,51,243,26,1*72
$GBGSV,3,2,09,10,69,267,41,11,48,071,30,28,34,299,35,34,30,088,33,1*72
$GBGSV,3,3,09,37,20,288,35,1*4D
$GBGSV,2,1,05,04,35,132,38,07,73,225,41,08,51,243,32,10,69,267,41,3*78
$GBGSV,2,2,05,11,48,071,40,3*4F
$GBGSV,1,1,04,12,04,096,,13,41,240,,21,22,046,,23,22,235,,0*7E
$GNRMC,035739.00,A,3727.1121794,N,12639.1989727,E,0.043,,220622,,,R,V*01
$GNVTG,,T,,M,0.043,N,0.079,K,D*31
$GNGNS,035739.00,3727.1121794,N,12639.1989727,E,RRRR,28,0.70,22.403,17.834,2.0,4095,V*02
$GNGGA,035739.00,3727.1121794,N,12639.1989727,E,4,12,0.70,22.403,M,17.834,M,2.0,4095*5E
$GNGSA,A,3,14,19,06,17,04,03,01,,,,,,1.37,0.70,1.18,1*00
$GNGSA,A,3,78,87,88,71,72,76,,,,,,,1.37,0.70,1.18,2*0A
$GNGSA,A,3,30,09,34,11,02,04,36,,,,,,1.37,0.70,1.18,3*07
$GNGSA,A,3,04,11,08,34,37,07,28,10,,,,,1.37,0.70,1.18,4*0D
$GPGSV,2,1,08,01,19,060,27,03,47,055,43,04,15,108,36,06,42,274,33,1*6F
$GPGSV,2,2,08,14,43,192,31,17,74,012,43,19,55,323,35,28,,,33,1*51
$GPGSV,2,1,07,01,19,060,26,03,47,055,36,04,15,108,31,06,42,274,25,6*64
$GPGSV,2,2,07,09,11,140,21,14,43,192,20,17,74,012,37,6*53
$GPGSV,1,1,04,11,07,255,,12,00,327,,40,06,259,,41,27,238,,0*64
$GLGSV,2,1,05,71,37,059,36,72,40,125,38,78,24,314,37,87,50,339,38,1*7A
$GLGSV,2,2,05,88,20,293,47,1*44
$GLGSV,2,1,05,71,37,059,35,72,40,125,39,76,11,203,17,78,24,314,27,3*75
$GLGSV,2,2,05,88,20,293,35,3*43
$GLGSV,1,1,04,65,11,170,,70,04,021,,77,34,249,,86,30,063,,0*78
$GAGSV,2,1,08,02,49,222,22,04,13,050,30,09,25,103,37,11,19,066,25,2*77
$GAGSV,2,2,08,18,33,303,32,30,38,298,35,34,46,284,38,36,61,025,32,2*7F
$GAGSV,2,1,08,02,49,222,30,04,13,050,21,09,25,103,37,11,19,066,31,7*74
$GAGSV,2,2,08,18,33,303,37,30,38,298,38,34,46,284,40,36,61,025,40,7*78
$GAGSV,1,1,02,15,02,262,,25,16,176,,0*76
$GBGSV,2,1,08,04,35,132,40,07,73,225,44,08,51,243,27,10,69,267,41,1*79
$GBGSV,2,2,08,11,48,071,28,28,34,299,35,34,30,088,33,37,20,288,35,1*71
$GBGSV,2,1,05,04,35,132,38,07,73,225,41,08,51,243,32,10,69,267,41,3*78
$GBGSV,2,2,05,11,48,071,40,3*4F
$GBGSV,2,1,05,03,44,206,,12,04,096,,13,41,240,,21,22,046,,0*7E
$GBGSV,2,2,05,21,22,046,,0*43
$GNRMC,035740.00,A,3727.1121891,N,12639.1989702,E,0.055,,220622,,,R,V*05
$GNVTG,,T,,M,0.055,N,0.101,K,D*38
$GNGNS,035740.00,3727.1121891,N,12639.1989702,E,RRRR,28,0.70,22.394,17.834,2.0,4095,V*08
$GNGGA,035740.00,3727.1121891,N,12639.1989702,E,4,12,0.70,22.394,M,17.834,M,2.0,4095*54
$GNGSA,A,3,14,19,06,17,04,03,01,,,,,,1.37,0.70,1.18,1*00
$GNGSA,A,3,78,87,88,71,72,76,,,,,,,1.37,0.70,1.18,2*0A
$GNGSA,A,3,30,09,34,11,02,04,36,,,,,,1.37,0.70,1.18,3*07
$GNGSA,A,3,04,11,08,34,37,07,28,10,,,,,1.37,0.70,1.18,4*0D
$GPGSV,2,1,08,01,19,060,27,03,47,055,43,04,15,108,36,06,42,274,34,1*68
$GPGSV,2,2,08,14,43,192,31,17,74,012,44,19,55,323,35,28,,,32,1*57
$GPGSV,2,1,07,01,19,060,26,03,47,055,36,04,15,108,31,06,42,274,25,6*64
$GPGSV,2,2,07,09,11,140,21,14,43,192,19,17,74,012,37,6*59
$GPGSV,1,1,04,11,07,255,,12,00,327,,40,06,259,,41,27,238,,0*64
$GLGSV,2,1,05,71,37,059,36,72,40,125,37,78,24,314,36,87,50,339,38,1*74
$GLGSV,2,2,05,88,20,293,46,1*45
$GLGSV,2,1,05,71,37,059,35,72,40,125,39,76,11,203,17,78,24,314,28,3*7A
$GLGSV,2,2,05,88,20,293,35,3*43
$GLGSV,1,1,04,65,11,170,,70,04,021,,77,34,249,,86,30,063,,0*78
$GAGSV,2,1,08,02,49,222,22,04,13,050,31,09,25,103,37,11,19,066,25,2*76
$GAGSV,2,2,08,18,33,303,32,30,38,298,35,34,46,285,38,36,61,025,32,2*7E
$GAGSV,2,1,08,02,49,222,30,04,13,050,20,09,25,103,37,11,19,066,30,7*74
$GAGSV,2,2,08,18,33,303,37,30,38,298,38,34,46,285,39,36,61,025,39,7*79
$GAGSV,1,1,02,15,02,262,,25,16,176,,0*76
$GBGSV,2,1,08,04,35,132,40,07,73,225,44,08,51,243,27,10,69,267,41,1*79
$GBGSV,2,2,08,11,48,071,28,28,34,299,35,34,30,088,33,37,20,288,36,1*72
$GBGSV,2,1,05,04,35,132,38,07,73,225,41,08,51,243,31,10,69,267,41,3*7B
$GBGSV,2,2,05,11,48,071,40,3*4F
$GBGSV,2,1,05,03,44,206,,12,04,096,,13,41,240,,21,22,046,,0*7E
$GBGSV,2,2,05,21,22,046,,0*43
$GNRMC,035741.00,A,3727.1121867,N,12639.1989677,E,0.021,,220622,,,R,V*0D
$GNVTG,,T,,M,0.021,N,0.039,K,D*31
$GNGNS,035741.00,3727.1121867,N,12639.1989677,E,RRRR,28,0.70,22.391,17.834,2.0,4095,V*06
$GNGGA,035741.00,3727.1121867,N,12639.1989677,E,4,12,0.70,22.391,M,17.834,M,2.0,4095*5A
$GNGSA,A,3,14,19,06,17,04,03,01,,,,,,1.37,0.70,1.18,1*00
$GNGSA,A,3,78,87,88,71,72,76,,,,,,,1.37,0.70,1.18,2*0A
$GNGSA,A,3,30,09,34,11,02,04,36,,,,,,1.37,0.70,1.18,3*07
$GNGSA,A,3,04,11,08,34,37,07,28,10,,,,,1.37,0.70,1.18,4*0D
$GPGSV,2,1,08,01,19,060,32,03,47,055,44,04,15,108,36,06,42,274,34,1*6B
$GPGSV,2,2,08,14,43,192,31,17,74,012,44,19,55,323,34,28,,,31,1*55
$GPGSV,2,1,07,01,19,060,26,03,47,055,36,04,15,108,30,06,42,274,25,6*65
$GPGSV,2,2,07,09,11,140,21,14,43,192,19,17,74,012,37,6*59
$GPGSV,1,1,04,11,07,255,,12,00,327,,40,06,259,,41,27,238,,0*64
$GLGSV,2,1,05,71,37,059,37,72,40,125,38,78,24,314,36,87,50,339,38,1*7A
$GLGSV,2,2,05,88,20,293,46,1*45
$GLGSV,2,1,05,71,37,059,35,72,40,125,39,76,11,203,18,78,24,314,29,3*74
$GLGSV,2,2,05,88,20,293,35,3*43
$GLGSV,1,1,04,65,11,170,,70,04,021,,77,34,249,,86,30,063,,0*78
$GAGSV,2,1,08,02,49,222,22,04,13,050,31,09,25,103,37,11,19,066,24,2*77
$GAGSV,2,2,08,18,33,303,32,30,38,298,35,34,46,285,38,36,61,026,33,2*7C
$GAGSV,2,1,08,02,49,222,30,04,13,050,18,09,25,103,37,11,19,066,30,7*7F
$GAGSV,2,2,08,18,33,303,36,30,38,298,38,34,46,285,39,36,61,026,40,7*75
$GAGSV,1,1,02,15,02,262,,25,16,176,,0*76
$GBGSV,2,1,08,04,35,132,40,07,73,225,44,08,51,243,27,10,69,267,41,1*79
$GBGSV,2,2,08,11,48,071,31,28,34,299,34,34,30,088,34,37,20,288,36,1*7C
$GBGSV,2,1,05,04,35,132,37,07,73,225,41,08,51,243,32,10,69,267,41,3*77
$GBGSV,2,2,05,11,48,071,40,3*4F
$GBGSV,2,1,05,03,44,206,,12,04,096,,13,41,240,,21,22,046,,0*7E
$GBGSV,2,2,05,21,22,046,,0*43
$GNRMC,035742.00,A,3727.1127150,N,12639.1993999,E,0.016,,220622,,,R,V*05
$GNVTG,,T,,M,0.016,N,0.030,K,D*3C
$GNGNS,035742.00,3727.1127150,N,12639.1993999,E,RRRR,28,0.70,24.377,17.834,2.0,4095,V*04
$GNGGA,035742.00,3727.1127150,N,12639.1993999,E,4,12,0.70,24.377,M,17.834,M,2.0,4095*58
$GNGSA,A,3,14,19,06,17,04,03,01,,,,,,1.37,0.70,1.18,1*00
$GNGSA,A,3,78,87,88,71,72,76,,,,,,,1.37,0.70,1.18,2*0A
$GNGSA,A,3,30,09,34,11,02,04,36,,,,,,1.37,0.70,1.18,3*07
$GNGSA,A,3,04,11,08,34,37,07,28,10,,,,,1.37,0.70,1.18,4*0D
$GPGSV,2,1,08,01,19,060,32,03,47,055,43,04,15,108,36,06,42,274,34,1*6C
$GPGSV,2,2,08,14,43,192,30,17,74,012,44,19,55,323,35,28,,,31,1*55
$GPGSV,2,1,07,01,19,060,25,03,47,055,36,04,15,108,29,06,42,274,24,6*6F
$GPGSV,2,2,07,09,11,140,21,14,43,192,19,17,74,012,37,6*59
$GPGSV,1,1,04,11,07,255,,12,00,327,,40,06,259,,41,27,238,,0*64
$GLGSV,2,1,05,71,37,059,37,72,40,125,38,78,24,314,36,87,50,339,38,1*7A
$GLGSV,2,2,05,88,20,293,46,1*45
$GLGSV,2,1,05,71,37,059,35,72,40,125,39,76,11,203,18,78,24,314,29,3*74
$GLGSV,2,2,05,88,20,293,36,3*40
$GLGSV,1,1,04,65,11,170,,70,04,021,,77,34,249,,86,30,063,,0*78
$GAGSV,2,1,08,02,49,222,21,04,13,050,31,09,25,103,37,11,19,066,24,2*74
$GAGSV,2,2,08,18,33,303,31,30,38,298,34,34,46,285,38,36,61,026,33,2*7E
$GAGSV,2,1,08,02,49,222,30,04,13,050,17,09,25,103,37,11,19,066,30,7*70
$GAGSV,2,2,08,18,33,303,35,30,38,298,38,34,46,285,39,36,61,026,40,7*76
$GAGSV,1,1,02,15,02,262,,25,16,176,,0*76
$GBGSV,2,1,08,04,35,132,40,07,73,225,44,08,51,243,26,10,69,267,41,1*78
$GBGSV,2,2,08,11,48,071,31,28,34,299,34,34,30,088,33,37,20,288,36,1*7B
$GBGSV,2,1,05,04,35,132,37,07,73,225,41,08,51,243,31,10,69,267,41,3*74
$GBGSV,2,2,05,11,48,071,40,3*4F
$GNRMC,035743.00,A,3727.1127201,N,12639.1994089,E,0.113,,220622,,,R,V*08
$GNVTG,,T,,M,0.113,N,0.208,K,D*31
$GNGNS,035743.00,3727.1127201,N,12639.1994089,E,RRRR,28,0.78,24.473,17.834,1.0,4095,V*05
$GNGGA,035743.00,3727.1127201,N,12639.1994089,E,4,12,0.78,24.473,M,17.834,M,1.0,4095*59
$GNGSA,A,3,14,19,06,17,04,03,01,,,,,,1.42,0.78,1.19,1*0B
$GNGSA,A,3,78,87,88,71,72,76,,,,,,,1.42,0.78,1.19,2*01
$GNGSA,A,3,30,09,34,11,02,04,36,,,,,,1.42,0.78,1.19,3*0C
$GNGSA,A,3,04,11,08,34,37,07,28,10,,,,,1.42,0.78,1.19,4*06
$GPGSV,2,1,08,01,19,060,32,03,47,055,45,04,15,108,40,06,42,274,34,1*6B
$GPGSV,2,2,08,14,43,192,30,17,74,012,45,19,55,323,37,28,,,31,1*56
$GPGSV,2,1,07,01,19,060,25,03,47,055,38,04,15,108,34,06,42,274,23,6*6A
$GPGSV,2,2,07,09,11,140,19,14,43,192,19,17,74,012,37,6*52
$GPGSV,1,1,04,11,07,255,,12,00,327,,40,06,259,,41,27,238,,0*64
$GLGSV,2,1,05,71,37,059,32,72,40,125,40,78,24,314,37,87,50,339,38,1*71
$GLGSV,2,2,05,88,20,293,46,1*45
$GLGSV,2,1,05,71,37,059,33,72,40,125,38,76,11,203,18,78,24,314,29,3*73
$GLGSV,2,2,05,88,20,293,36,3*40
$GLGSV,1,1,04,65,11,170,,70,04,021,,77,34,249,,86,30,063,,0*78
$GAGSV,2,1,08,02,49,222,22,04,13,050,31,09,25,103,39,11,19,066,25,2*78
$GAGSV,2,2,08,18,33,303,32,30,38,298,35,34,46,285,36,36,61,026,33,2*72
$GAGSV,2,1,08,02,49,222,29,04,13,050,17,09,25,103,41,11,19,066,28,7*70
$GAGSV,2,2,08,18,33,303,39,30,38,298,41,34,46,285,39,36,61,026,42,7*76
$GAGSV,1,1,02,15,02,262,,25,16,176,,0*76
$GBGSV,2,1,08,04,35,132,40,07,73,225,42,08,51,243,26,10,69,267,40,1*7F
$GBGSV,2,2,08,11,48,071,27,28,34,299,38,34,30,088,29,37,20,288,35,1*78
$GBGSV,2,1,05,04,35,132,38,07,73,225,42,08,51,243,31,10,69,267,39,3*77
$GBGSV,2,2,05,11,48,071,40,3*4F
$GBGSV,2,1,05,03,44,206,,12,04,096,,13,41,240,,21,22,046,,0*7E
$GBGSV,2,2,05,21,22,046,,0*43
$GNRMC,035744.00,A,3727.1127283,N,12639.1994074,E,0.020,,220622,,,R,V*06
$GNVTG,,T,,M,0.020,N,0.038,K,D*31
$GNGNS,035744.00,3727.1127283,N,12639.1994074,E,RRRR,28,0.73,24.418,17.834,2.0,4095,V*0F
$GNGGA,035744.00,3727.1127283,N,12639.1994074,E,4,12,0.73,24.418,M,17.834,M,2.0,4095*53
$GNGSA,A,3,14,19,06,17,04,03,01,,,,,,1.51,0.73,1.33,1*0A
$GNGSA,A,3,78,87,88,71,72,76,,,,,,,1.51,0.73,1.33,2*00
$GNGSA,A,3,30,09,34,11,02,04,36,,,,,,1.51,0.73,1.33,3*0D
$GNGSA,A,3,04,11,08,34,37,07,28,10,,,,,1.51,0.73,1.33,4*07
$GPGSV,2,1,08,01,19,060,30,03,47,055,43,04,15,108,38,06,42,274,32,1*66
$GPGSV,2,2,08,14,43,192,29,17,74,012,46,19,55,323,37,28,,,32,1*5E
$GPGSV,2,1,07,01,19,060,21,03,47,055,35,04,15,108,34,06,42,274,21,6*61
$GPGSV,2,2,07,09,11,140,18,14,43,192,16,17,74,012,37,6*5C
$GPGSV,1,1,04,11,07,255,,12,00,327,,40,06,259,,41,27,238,,0*64
$GLGSV,2,1,05,71,37,059,35,72,40,125,38,78,24,314,37,87,50,339,38,1*79
$GLGSV,2,2,05,88,20,293,47,1*44
$GLGSV,2,1,05,71,37,059,33,72,40,125,37,76,11,203,19,78,24,314,27,3*73
$GLGSV,2,2,05,88,20,293,34,3*42
$GLGSV,1,1,04,65,11,170,,70,04,021,,77,34,249,,86,30,063,,0*78
$GAGSV,2,1,08,02,49,222,24,04,13,050,31,09,25,103,38,11,19,066,26,2*7C
$GAGSV,2,2,08,18,33,303,31,30,38,298,35,34,46,285,39,36,61,026,33,2*7E
$GAGSV,2,1,08,02,49,222,28,04,13,050,19,09,25,103,41,11,19,066,24,7*73
$GAGSV,2,2,08,18,33,303,36,30,38,298,39,34,46,285,39,36,61,026,43,7*77
$GAGSV,1,1,02,15,02,262,,25,16,176,,0*76
$GBGSV,2,1,08,04,35,132,40,07,73,224,43,08,51,243,26,10,69,267,40,1*7F
$GBGSV,2,2,08,11,48,071,32,28,34,299,32,34,30,088,28,37,20,288,37,1*75
$GBGSV,2,1,05,04,35,132,38,07,73,224,41,08,51,243,32,10,69,267,38,3*77
$GBGSV,2,2,05,11,48,071,41,3*4E
$GBGSV,2,1,05,03,44,206,,12,04,096,,13,41,240,,21,22,046,,0*7E
$GBGSV,2,2,05,21,22,046,,0*43
$GNRMC,035745.00,A,3727.1127346,N,12639.1994070,E,0.017,,220622,,,R,V*0F
$GNVTG,,T,,M,0.017,N,0.031,K,D*3C
$GNGNS,035745.00,3727.1127346,N,12639.1994070,E,RRRR,28,0.70,24.420,17.834,2.0,4095,V*0A
$GNGGA,035745.00,3727.1127346,N,12639.1994070,E,4,12,0.70,24.420,M,17.834,M,2.0,4095*56
$GNGSA,A,3,14,19,06,17,04,03,01,,,,,,1.37,0.70,1.18,1*00
$GNGSA,A,3,78,87,88,71,72,76,,,,,,,1.37,0.70,1.18,2*0A
$GNGSA,A,3,30,09,34,11,02,04,36,,,,,,1.37,0.70,1.18,3*07
$GNGSA,A,3,04,11,08,34,37,07,28,10,,,,,1.37,0.70,1.18,4*0D
$GPGSV,3,1,09,01,19,060,30,03,47,055,44,04,15,108,39,06,42,274,33,1*61
$GPGSV,3,2,09,14,43,192,29,17,74,012,45,19,55,323,34,28,,,32,1*5E
$GPGSV,3,3,09,41,27,238,29,1*5F
$GPGSV,2,1,07,01,19,060,19,03,47,055,34,04,15,108,32,06,42,274,20,6*6C
$GPGSV,2,2,07,09,11,140,17,14,43,192,15,17,74,012,37,6*50
$GPGSV,1,1,03,11,07,255,,12,00,327,,40,06,259,,0*5A
$GLGSV,2,1,05,71,37,059,38,72,40,125,37,78,24,314,39,87,50,339,38,1*75
$GLGSV,2,2,05,88,20,293,48,1*4B
$GLGSV,2,1,05,71,37,059,34,72,40,125,37,76,11,203,19,78,24,314,26,3*75
$GLGSV,2,2,05,88,20,293,34,3*42
$GLGSV,1,1,04,65,11,170,,70,04,021,,77,34,249,,86,30,063,,0*78
$GAGSV,2,1,08,02,49,222,23,04,13,050,32,09,25,103,38,11,19,066,26,2*78
$GAGSV,2,2,08,18,33,303,30,30,38,298,34,34,46,285,40,36,61,026,34,2*77
$GAGSV,2,1,07,02,49,222,30,04,13,050,18,09,25,103,39,18,33,303,35,7*7A
$GAGSV,2,2,07,30,38,298,38,34,46,285,41,36,61,026,41,7*48
$GAGSV,1,1,02,15,02,262,,25,16,176,,0*76
$GBGSV,2,1,08,04,35,132,40,07,73,224,44,08,51,244,27,10,69,267,41,1*7F
$GBGSV,2,2,08,11,48,071,29,28,34,299,32,34,30,088,30,37,20,288,37,1*76
$GBGSV,2,1,05,04,35,132,37,07,73,224,42,08,51,244,32,10,69,267,39,3*7D
$GBGSV,2,2,05,11,48,071,41,3*4E
$GNRMC,035746.00,A,3727.1127394,N,12639.1994061,E,0.001,,220622,,,R,V*04
$GNVTG,,T,,M,0.001,N,0.002,K,D*3B
$GNGNS,035746.00,3727.1127394,N,12639.1994061,E,RRRR,28,0.70,24.430,17.834,2.0,4095,V*07
$GNGGA,035746.00,3727.1127394,N,12639.1994061,E,4,12,0.70,24.430,M,17.834,M,2.0,4095*5B
$GNGSA,A,3,14,19,06,17,04,03,01,,,,,,1.37,0.70,1.18,1*00
$GNGSA,A,3,78,87,88,71,72,76,,,,,,,1.37,0.70,1.18,2*0A
$GNGSA,A,3,30,09,34,11,02,04,36,,,,,,1.37,0.70,1.18,3*07
$GNGSA,A,3,04,11,08,34,37,07,28,10,,,,,1.37,0.70,1.18,4*0D
$GPGSV,3,1,09,01,19,060,31,03,47,055,44,04,15,108,38,06,42,274,32,1*60
$GPGSV,3,2,09,14,43,192,32,17,74,012,45,19,55,323,35,28,,,32,1*55
$GPGSV,3,3,09,41,27,238,27,1*51
$GPGSV,2,1,07,01,19,060,16,03,47,055,35,04,15,108,31,06,42,274,20,6*61
$GPGSV,2,2,07,09,11,140,18,14,43,192,12,17,74,012,37,6*58
$GPGSV,1,1,03,11,07,255,,12,00,327,,40,06,259,,0*5A
$GLGSV,2,1,06,71,37,059,39,72,40,125,38,76,11,203,21,78,24,314,38,1*72
$GLGSV,2,2,06,87,50,339,39,88,20,293,48,1*71
$GLGSV,2,1,05,71,37,059,35,72,40,125,37,76,11,203,20,78,24,314,27,3*7F
$GLGSV,2,2,05,88,20,293,34,3*42
$GLGSV,1,1,04,65,11,170,,70,04,021,,77,34,249,,86,30,063,,0*78
$GAGSV,2,1,08,02,49,222,22,04,13,050,32,09,25,103,38,11,19,066,26,2*79
$GAGSV,2,2,08,18,33,303,31,30,38,298,33,34,46,285,40,36,61,026,34,2*71
$GAGSV,2,1,07,02,49,222,30,04,13,050,17,09,25,103,41,18,33,303,35,7*7A
$GAGSV,2,2,07,30,38,298,40,34,46,285,39,36,61,026,41,7*48
$GAGSV,1,1,02,15,02,262,,25,16,176,,0*76
$GBGSV,3,1,09,03,44,206,26,04,35,132,40,07,73,224,44,08,51,244,27,1*74
$GBGSV,3,2,09,10,69,267,41,11,48,071,31,28,34,299,33,34,30,088,29,1*7E
$GBGSV,3,3,09,37,20,288,37,1*4F
$GBGSV,2,1,05,04,35,132,38,07,73,224,41,08,51,244,31,10,69,267,39,3*72
$GBGSV,2,2,05,11,48,071,41,3*4E
$GNRMC,035747.00,A,3727.1127482,N,12639.1994077,E,0.033,,220622,,,R,V*03
$GNVTG,,T,,M,0.033,N,0.062,K,D*3C
$GNGNS,035747.00,3727.1127482,N,12639.1994077,E,RRRR,28,0.70,24.430,17.834,2.0,4095,V*01
$GNGGA,035747.00,3727.1127482,N,12639.1994077,E,4,12,0.70,24.430,M,17.834,M,2.0,4095*5D
$GNGSA,A,3,41,14,19,06,17,04,03,01,,,,,1.37,0.70,1.18,1*05
$GNGSA,A,3,78,87,88,71,72,76,,,,,,,1.37,0.70,1.18,2*0A
$GNGSA,A,3,30,09,34,11,02,04,36,,,,,,1.37,0.70,1.18,3*07
$GNGSA,A,3,04,11,08,34,37,07,28,10,,,,,1.37,0.70,1.18,4*0D
$GPGSV,3,1,09,01,19,060,27,03,47,055,43,04,15,108,37,06,42,274,30,1*6D
$GPGSV,3,2,09,14,43,192,32,17,74,012,45,19,55,323,32,28,,,30,1*50
$GPGSV,3,3,09,41,27,238,26,1*50
$GPGSV,2,1,07,01,19,060,18,03,47,055,35,04,15,108,32,06,42,274,20,6*6C
$GPGSV,2,2,07,09,11,140,18,14,43,192,11,17,74,012,37,6*5B
$GPGSV,1,1,03,11,07,255,,12,00,327,,40,06,259,,0*5A
$GLGSV,2,1,06,71,37,059,40,72,40,125,38,76,11,203,23,78,24,314,36,1*70
$GLGSV,2,2,06,87,50,339,36,88,20,293,47,1*71
$GLGSV,2,1,05,71,37,059,34,72,40,125,38,76,11,203,21,78,24,314,28,3*7F
$GLGSV,2,2,05,88,20,293,33,3*45
$GLGSV,1,1,04,65,11,170,,70,04,021,,77,34,249,,86,30,063,,0*78
$GAGSV,2,1,08,02,49,222,21,04,13,050,32,09,25,103,39,11,19,066,25,2*78
$GAGSV,2,2,08,18,33,303,35,30,38,298,31,34,46,285,40,36,61,026,34,2*77
$GAGSV,2,1,08,02,49,222,29,04,13,050,16,09,25,103,39,11,19,066,26,7*70
$GAGSV,2,2,08,18,33,303,32,30,38,298,38,34,46,285,39,36,61,026,40,7*71
$GAGSV,1,1,02,15,02,262,,25,16,176,,0*76
$GBGSV,3,1,09,03,44,206,28,04,35,132,39,07,73,224,44,08,51,244,27,1*74
$GBGSV,3,2,09,10,69,266,40,11,48,071,27,28,34,299,33,34,30,088,30,1*71
$GBGSV,3,3,09,37,20,288,37,1*4F
$GBGSV,2,1,05,04,35,132,38,07,73,224,41,08,51,244,31,10,69,266,40,3*7D
$GBGSV,2,2,05,11,48,071,41,3*4E
$GBGSV,1,1,04,12,04,096,,13,41,240,,21,22,046,,23,22,235,,0*7E
$GNRMC,035748.00,A,3727.1127539,N,12639.1994106,E,0.015,,220622,,,R,V*0E
$GNVTG,,T,,M,0.015,N,0.029,K,D*37
$GNGNS,035748.00,3727.1127539,N,12639.1994106,E,RRRR,28,0.70,24.438,17.834,2.0,4095,V*00
$GNGGA,035748.00,3727.1127539,N,12639.1994106,E,4,12,0.70,24.438,M,17.834,M,2.0,4095*5C
$GNGSA,A,3,14,19,06,17,04,03,01,,,,,,1.37,0.70,1.18,1*00
$GNGSA,A,3,78,87,88,71,72,76,,,,,,,1.37,0.70,1.18,2*0A
$GNGSA,A,3,30,09,34,11,02,04,36,,,,,,1.37,0.70,1.18,3*07
$GNGSA,A,3,04,11,08,34,37,07,28,10,,,,,1.37,0.70,1.18,4*0D
$GPGSV,2,1,08,01,19,060,33,03,47,055,41,04,15,108,35,06,42,274,29,1*60
$GPGSV,2,2,08,14,43,192,29,17,74,012,43,19,55,323,32,28,,,29,1*54
$GPGSV,2,1,07,01,19,060,20,03,47,055,36,04,15,108,33,06,42,274,21,6*64
$GPGSV,2,2,07,09,11,140,18,14,43,192,11,17,74,012,38,6*54
$GPGSV,1,1,04,11,07,255,,12,00,327,,40,06,259,,41,27,238,,0*64
$GLGSV,2,1,06,71,37,059,36,72,40,125,37,76,11,203,21,78,24,314,33,1*79
$GLGSV,2,2,06,87,50,339,33,88,20,293,45,1*76
$GLGSV,2,1,05,71,37,059,34,72,40,125,38,76,11,203,21,78,24,314,28,3*7F
$GLGSV,2,2,05,88,20,293,33,3*45
$GLGSV,1,1,04,65,11,170,,70,04,021,,77,34,249,,86,30,063,,0*78
$GAGSV,2,1,08,02,49,222,22,04,13,050,32,09,25,103,40,11,19,066,26,2*76
$GAGSV,2,2,08,18,33,303,35,30,38,298,35,34,46,285,40,36,61,026,34,2*73
$GAGSV,2,1,08,02,49,222,30,04,13,050,18,09,25,103,37,11,19,066,26,7*78
$GAGSV,2,2,08,18,33,303,33,30,38,298,37,34,46,285,38,36,61,026,39,7*70
$GAGSV,1,1,02,15,02,262,,25,16,176,,0*76
$GBGSV,3,1,09,03,44,206,27,04,35,132,39,07,73,224,43,08,51,244,28,1*73
$GBGSV,3,2,09,10,69,266,40,11,48,072,27,28,34,299,30,34,30,088,29,1*79
$GBGSV,3,3,09,37,20,288,35,1*4D
$GBGSV,2,1,05,04,35,132,38,07,73,224,42,08,51,244,32,10,69,266,39,3*73
$GBGSV,2,2,05,11,48,072,41,3*4D
$GBGSV,1,1,04,12,04,096,,13,41,240,,21,22,046,,23,22,235,,0*7E
$GNRMC,035749.00,A,3727.1127554,N,12639.1994097,E,0.018,,220622,,,R,V*00
$GNVTG,,T,,M,0.018,N,0.032,K,D*30
$GNGNS,035749.00,3727.1127554,N,12639.1994097,E,RRRR,28,0.73,24.429,17.834,2.0,4095,V*00
$GNGGA,035749.00,3727.1127554,N,12639.1994097,E,4,12,0.73,24.429,M,17.834,M,2.0,4095*5C
$GNGSA,A,3,14,19,06,17,04,03,01,,,,,,1.52,0.73,1.33,1*09
$GNGSA,A,3,78,87,88,71,72,76,,,,,,,1.52,0.73,1.33,2*03
$GNGSA,A,3,30,09,34,11,02,04,36,,,,,,1.52,0.73,1.33,3*0E
$GNGSA,A,3,04,11,08,34,37,07,28,10,,,,,1.52,0.73,1.33,4*04
$GPGSV,2,1,08,01,19,060,32,03,47,055,42,04,15,108,35,06,42,274,31,1*6B
$GPGSV,2,2,08,14,43,192,30,17,74,012,44,19,55,323,32,28,,,29,1*5B
$GPGSV,2,1,07,01,19,060,21,03,47,055,36,04,15,108,32,06,42,274,22,6*67
$GPGSV,2,2,07,09,11,140,19,14,43,192,09,17,74,012,39,6*5D
$GPGSV,1,1,04,11,07,255,,12,00,327,,40,06,259,,41,27,238,,0*64
$GLGSV,2,1,06,71,37,059,38,72,40,125,39,76,11,203,20,78,24,314,33,1*78
$GLGSV,2,2,06,87,50,339,34,88,20,293,46,1*72
$GLGSV,2,1,05,71,37,059,34,72,40,125,38,76,11,203,20,78,24,314,28,3*7E
$GLGSV,2,2,05,88,20,293,33,3*45
$GLGSV,1,1,04,65,11,170,,70,04,021,,77,34,249,,86,30,063,,0*78
$GAGSV,2,1,08,02,49,222,23,04,13,050,32,09,25,103,40,11,19,066,26,2*77
$GAGSV,2,2,08,18,33,303,36,30,38,298,35,34,46,285,42,36,61,026,35,2*73
$GAGSV,2,1,08,02,49,222,29,04,13,050,20,09,25,103,37,11,19,066,25,7*78
$GAGSV,2,2,08,18,33,303,34,30,38,298,37,34,46,285,38,36,61,026,39,7*77
$GAGSV,1,1,02,15,02,262,,25,16,176,,0*76
$GBGSV,2,1,08,04,35,132,39,07,73,224,43,08,51,244,27,10,69,266,40,1*76
$GBGSV,2,2,08,11,48,072,28,28,34,299,31,34,30,088,28,37,20,288,36,1*7F
$GBGSV,2,1,05,04,35,132,38,07,73,224,43,08,51,244,32,10,69,266,39,3*72
$GBGSV,2,2,05,11,48,072,42,3*4E
$GNRMC,035750.00,A,3727.1127537,N,12639.1994083,E,0.008,,220622,,,R,V*09
$GNVTG,,T,,M,0.008,N,0.015,K,D*34
$GNGNS,035750.00,3727.1127537,N,12639.1994083,E,RRRR,28,0.70,24.443,17.834,2.0,4095,V*07
$GNGGA,035750.00,3727.1127537,N,12639.1994083,E,4,12,0.70,24.443,M,17.834,M,2.0,4095*5B
$GNGSA,A,3,14,19,06,17,04,03,01,,,,,,1.37,0.70,1.18,1*00
$GNGSA,A,3,78,87,88,71,72,76,,,,,,,1.37,0.70,1.18,2*0A
$GNGSA,A,3,30,09,34,11,02,04,36,,,,,,1.37,0.70,1.18,3*07
$GNGSA,A,3,04,11,08,34,37,07,28,10,,,,,1.37,0.70,1.18,4*0D
$GPGSV,2,1,08,01,19,060,27,03,47,055,43,04,15,108,35,06,42,274,31,1*6E
$GPGSV,2,2,08,14,43,192,30,17,74,012,44,19,55,323,30,28,,,29,1*59
$GPGSV,2,1,07,01,19,060,22,03,47,055,36,04,15,108,32,06,42,274,21,6*67
$GPGSV,2,2,07,09,11,140,19,14,43,192,08,17,74,012,38,6*5D
$GPGSV,1,1,04,11,07,255,,12,00,327,,40,06,259,,41,27,238,,0*64
$GLGSV,2,1,06,71,37,059,36,72,40,125,37,76,11,203,21,78,24,314,34,1*7E
$GLGSV,2,2,06,87,50,339,33,88,20,293,47,1*74
$GLGSV,2,1,05,71,37,059,34,72,40,125,37,76,11,203,18,78,24,314,28,3*7A
$GLGSV,2,2,05,88,20,293,34,3*42
$GLGSV,1,1,04,65,11,170,,70,04,021,,77,34,249,,86,30,063,,0*78
$GAGSV,2,1,08,02,49,222,24,04,13,050,32,09,25,103,40,11,19,066,26,2*70
$GAGSV,2,2,08,18,33,303,35,30,38,298,35,34,46,285,41,36,61,026,35,2*73
$GAGSV,2,1,07,02,49,222,30,04,13,050,20,09,25,103,38,18,33,303,35,7*70
$GAGSV,2,2,07,30,38,298,39,34,46,285,38,36,61,026,40,7*46
$GAGSV,1,1,02,15,02,262,,25,16,176,,0*76
$GBGSV,2,1,08,04,35,132,40,07,73,224,44,08,51,244,28,10,69,266,40,1*70
$GBGSV,2,2,08,11,48,072,28,28,34,299,31,34,30,088,29,37,20,288,37,1*7F
$GBGSV,2,1,06,04,35,132,39,07,73,224,43,08,51,244,33,10,69,266,40,3*7F
$GBGSV,2,2,06,11,48,072,43,34,30,088,17,3*7E
$GBGSV,2,1,05,03,44,206,,12,04,096,,13,41,241,,21,22,046,,0*7F
$GBGSV,2,2,05,21,22,046,,0*43
$GNRMC,035751.00,A,3727.1127518,N,12639.1994077,E,0.033,,220622,,,R,V*06
$GNVTG,,T,,M,0.033,N,0.061,K,D*3F
$GNGNS,035751.00,3727.1127518,N,12639.1994077,E,RRRR,27,0.70,24.445,17.834,2.0,4095,V*09
$GNGGA,035751.00,3727.1127518,N,12639.1994077,E,4,12,0.70,24.445,M,17.834,M,2.0,4095*5A
$GNGSA,A,3,14,19,06,17,04,03,01,,,,,,1.37,0.70,1.18,1*00
$GNGSA,A,3,78,87,88,71,72,76,,,,,,,1.37,0.70,1.18,2*0A
$GNGSA,A,3,30,09,34,11,02,04,36,,,,,,1.37,0.70,1.18,3*07
$GNGSA,A,3,04,11,08,34,37,07,28,10,,,,,1.37,0.70,1.18,4*0D
$GPGSV,2,1,08,01,19,060,27,03,47,055,43,04,15,108,34,06,42,274,31,1*6F
$GPGSV,2,2,08,14,43,192,30,17,74,012,44,19,55,323,30,28,,,30,1*51
$GPGSV,2,1,06,01,19,060,20,03,47,055,36,04,15,108,32,06,42,274,19,6*6F
$GPGSV,2,2,06,09,11,140,18,17,74,012,39,6*6C
$GPGSV,1,1,04,11,07,255,,12,00,327,,40,06,259,,41,27,238,,0*64
$GLGSV,2,1,06,71,37,059,39,72,40,125,38,76,11,203,22,78,24,314,34,1*7D
$GLGSV,2,2,06,87,50,339,33,88,20,293,46,1*75
$GLGSV,2,1,05,71,37,059,34,72,40,125,37,76,11,203,17,78,24,314,27,3*7A
$GLGSV,2,2,05,88,20,293,33,3*45
$GLGSV,1,1,04,65,11,170,,70,04,021,,77,34,249,,86,30,063,,0*78
$GAGSV,2,1,08,02,49,222,23,04,13,050,33,09,25,103,40,11,19,066,27,2*77
$GAGSV,2,2,08,18,33,303,35,30,38,298,35,34,46,285,42,36,61,026,35,2*70
$GAGSV,2,1,07,02,49,222,29,04,13,050,21,09,25,103,38,18,33,303,36,7*7A
$GAGSV,2,2,07,30,38,298,40,34,46,285,38,36,61,026,40,7*48
$GAGSV,1,1,02,15,02,262,,25,16,176,,0*76
$GBGSV,2,1,08,04,35,132,40,07,73,224,44,08,51,244,28,10,69,266,40,1*70
$GBGSV,2,2,08,11,48,072,28,28,34,299,31,34,30,088,29,37,20,288,36,1*7E
$GBGSV,2,1,06,04,35,132,40,07,73,224,43,08,51,244,33,10,69,266,40,3*71
$GBGSV,2,2,06,11,48,072,42,34,30,088,16,3*7E
$GBGSV,2,1,05,03,44,206,,12,04,096,,13,41,241,,21,22,046,,0*7F
$GBGSV,2,2,05,21,22,046,,0*43
$GNRMC,035752.00,A,3727.1127541,N,12639.1994075,E,0.033,,220622,,,R,V*0B
$GNVTG,,T,,M,0.033,N,0.060,K,D*3E
$GNGNS,035752.00,3727.1127541,N,12639.1994075,E,RRRR,27,0.70,24.439,17.834,2.0,4095,V*0F
$GNGGA,035752.00,3727.1127541,N,12639.1994075,E,4,12,0.70,24.439,M,17.834,M,2.0,4095*5C
$GNGSA,A,3,14,19,06,17,04,03,01,,,,,,1.37,0.70,1.18,1*00
$GNGSA,A,3,78,87,88,71,72,76,,,,,,,1.37,0.70,1.18,2*0A
$GNGSA,A,3,30,09,34,11,02,04,36,,,,,,1.37,0.70,1.18,3*07
$GNGSA,A,3,04,11,08,34,37,07,28,10,,,,,1.37,0.70,1.18,4*0D
$GPGSV,2,1,08,01,19,060,27,03,47,055,46,04,15,108,37,06,42,274,35,1*6D
$GPGSV,2,2,08,14,43,192,31,17,74,012,46,19,55,323,32,28,,,30,1*50
$GPGSV,2,1,06,01,19,060,20,03,47,055,36,04,15,108,31,06,42,274,19,6*6C
$GPGSV,2,2,06,09,11,140,18,17,74,012,38,6*6D
$GPGSV,1,1,04,11,07,255,,12,00,327,,40,06,259,,41,27,238,,0*64
$GLGSV,2,1,06,71,37,059,40,72,40,125,38,76,11,203,22,78,24,314,34,1*73
$GLGSV,2,2,06,87,50,339,37,88,20,293,47,1*70
$GLGSV,2,1,05,71,37,059,35,72,40,125,37,76,11,203,16,78,24,314,27,3*7A
$GLGSV,2,2,05,88,20,293,34,3*42
$GLGSV,1,1,04,65,11,170,,70,04,021,,77,34,249,,86,30,063,,0*78
$GAGSV,2,1,08,02,49,222,23,04,13,050,32,09,25,103,40,11,19,066,28,2*79
$GAGSV,2,2,08,18,33,303,35,30,38,298,36,34,46,285,41,36,61,026,35,2*70
$GAGSV,2,1,07,02,49,222,28,04,13,050,23,09,25,103,39,18,33,303,37,7*79
$GAGSV,2,2,07,30,38,298,40,34,46,285,40,36,61,026,42,7*45
$GAGSV,1,1,02,15,02,262,,25,16,176,,0*76
$GBGSV,2,1,08,04,35,132,41,07,73,224,45,08,51,244,27,10,69,266,42,1*7D
$GBGSV,2,2,08,11,48,072,27,28,34,299,36,34,30,088,33,37,20,288,38,1*73
$GBGSV,2,1,06,04,35,132,39,07,73,224,43,08,51,244,33,10,69,266,40,3*7F
$GBGSV,2,2,06,11,48,072,42,34,30,088,13,3*7B
$GBGSV,2,1,05,03,44,206,,12,04,096,,13,41,241,,21,22,046,,0*7F
$GBGSV,2,2,05,21,22,046,,0*43
$GNRMC,035753.00,A,3727.1127588,N,12639.1994068,E,0.008,,220622,,,R,V*0B
$GNVTG,,T,,M,0.008,N,0.014,K,D*35
$GNGNS,035753.00,3727.1127588,N,12639.1994068,E,RRRR,28,0.70,24.438,17.834,2.0,4095,V*09
$GNGGA,035753.00,3727.1127588,N,12639.1994068,E,4,12,0.70,24.438,M,17.834,M,2.0,4095*55
$GNGSA,A,3,14,19,06,17,04,03,01,,,,,,1.37,0.70,1.18,1*00
$GNGSA,A,3,78,87,88,71,72,76,,,,,,,1.37,0.70,1.18,2*0A
$GNGSA,A,3,30,09,34,11,02,04,36,,,,,,1.37,0.70,1.18,3*07
$GNGSA,A,3,04,11,08,34,37,07,28,10,,,,,1.37,0.70,1.18,4*0D
$GPGSV,2,1,08,01,19,060,28,03,47,055,45,04,15,108,36,06,42,274,37,1*62
$GPGSV,2,2,08,14,43,192,33,17,74,012,45,19,55,323,32,28,,,33,1*52
$GPGSV,2,1,06,01,19,060,22,03,47,055,36,04,15,108,30,06,42,274,21,6*64
$GPGSV,2,2,06,09,11,140,19,17,74,012,38,6*6C
$GPGSV,1,1,04,11,07,255,,12,00,327,,40,06,259,,41,27,238,,0*64
$GLGSV,2,1,06,71,37,059,42,72,40,125,39,76,11,203,22,78,24,314,33,1*77
$GLGSV,2,2,06,87,50,339,37,88,20,293,47,1*70
$GLGSV,2,1,05,71,37,059,36,72,40,125,38,76,11,203,15,78,24,314,27,3*75
$GLGSV,2,2,05,88,20,293,33,3*45
$GLGSV,1,1,04,65,11,170,,70,04,021,,77,34,249,,86,30,063,,0*78
$GAGSV,2,1,08,02,49,222,23,04,13,050,33,09,25,103,39,11,19,066,27,2*79
$GAGSV,2,2,08,18,33,303,34,30,38,298,34,34,46,285,41,36,61,026,36,2*70
$GAGSV,2,1,07,02,49,222,27,04,13,050,21,09,25,103,37,18,33,303,38,7*75
$GAGSV,2,2,07,30,38,298,40,34,46,285,41,36,61,026,40,7*46
$GAGSV,1,1,02,15,02,262,,25,16,176,,0*76
$GBGSV,2,1,08,04,35,132,41,07,73,224,44,08,51,244,27,10,69,266,41,1*7F
$GBGSV,2,2,08,11,48,072,27,28,34,299,33,34,30,088,35,37,20,288,36,1*7E
$GBGSV,2,1,06,04,35,132,39,07,73,224,43,08,51,244,34,10,69,266,41,3*79
$GBGSV,2,2,06,11,48,072,41,34,30,088,09,3*73
$GBGSV,2,1,05,03,44,206,,12,04,096,,13,41,241,,21,22,046,,0*7F
$GBGSV,2,2,05,21,22,046,,0*43
$GNRMC,035754.00,A,3727.1127600,N,12639.1994094,E,0.046,,220622,,,R,V*06
$GNVTG,,T,,M,0.046,N,0.086,K,D*34
$GNGNS,035754.00,3727.1127600,N,12639.1994094,E,RRRR,27,0.73,24.457,17.834,2.0,4095,V*0B
$GNGGA,035754.00,3727.1127600,N,12639.1994094,E,4,12,0.73,24.457,M,17.834,M,2.0,4095*58
$GNGSA,A,3,14,19,06,17,04,03,01,,,,,,1.52,0.73,1.33,1*09
$GNGSA,A,3,78,87,88,71,72,76,,,,,,,1.52,0.73,1.33,2*03
$GNGSA,A,3,30,09,34,11,02,04,36,,,,,,1.52,0.73,1.33,3*0E
$GNGSA,A,3,04,11,08,34,37,07,28,10,,,,,1.52,0.73,1.33,4*04
$GPGSV,2,1,08,01,19,060,30,03,47,055,45,04,15,108,35,06,42,274,35,1*6A
$GPGSV,2,2,08,14,43,192,31,17,74,012,45,19,55,323,31,28,,,31,1*51
$GPGSV,2,1,06,01,19,060,21,03,47,055,36,04,15,108,29,06,42,274,21,6*6F
$GPGSV,2,2,06,09,11,140,20,17,74,012,38,6*66
$GPGSV,1,1,04,11,07,255,,12,00,327,,40,06,259,,41,27,238,,0*64
$GLGSV,2,1,07,71,37,059,40,72,40,125,38,76,11,203,22,77,34,249,18,1*7B
$GLGSV,2,2,07,78,24,314,33,87,50,339,36,88,20,293,46,1*4E
$GLGSV,2,1,05,71,37,059,36,72,40,125,38,76,11,203,14,78,24,314,28,3*7B
$GLGSV,2,2,05,88,20,293,33,3*45
$GLGSV,1,1,03,65,11,170,,70,04,021,,86,30,063,,0*47
$GAGSV,2,1,08,02,49,222,22,04,13,050,33,09,25,103,39,11,19,066,27,2*78
$GAGSV,2,2,08,18,33,303,35,30,38,298,33,34,46,285,40,36,61,026,36,2*77
$GAGSV,2,1,08,02,49,222,27,04,13,050,21,09,25,103,38,11,19,066,25,7*78
$GAGSV,2,2,08,18,33,303,37,30,38,298,40,34,46,285,40,36,61,026,40,7*75
$GAGSV,1,1,02,15,02,262,,25,16,176,,0*76
$GNRMC,035755.00,A,3727.1127627,N,12639.1994092,E,0.008,,220622,,,R,V*0E
$GNVTG,,T,,M,0.008,N,0.015,K,D*34
$GNGNS,035755.00,3727.1127627,N,12639.1994092,E,RRRR,29,0.66,24.456,17.834,3.0,4095,V*03
$GNGGA,035755.00,3727.1127627,N,12639.1994092,E,4,12,0.66,24.456,M,17.834,M,3.0,4095*5E
$GNGSA,A,3,14,19,06,17,04,03,01,,,,,,1.35,0.66,1.17,1*0A
$GNGSA,A,3,78,87,88,71,72,76,,,,,,,1.35,0.66,1.17,2*00
$GNGSA,A,3,30,09,34,11,02,04,36,,,,,,1.35,0.66,1.17,3*0D
$GNGSA,A,3,03,04,11,08,34,37,07,28,10,,,,1.35,0.66,1.17,4*04
$GPGSV,2,1,08,01,19,060,30,03,47,055,44,04,15,108,33,06,42,274,35,1*6D
$GPGSV,2,2,08,14,43,192,31,17,74,012,45,19,55,323,30,28,,,31,1*50
$GPGSV,2,1,06,01,19,060,22,03,47,055,36,04,15,108,29,06,42,274,22,6*6F
$GPGSV,2,2,06,09,11,140,20,17,74,012,38,6*66
$GPGSV,1,1,04,11,07,255,,12,00,327,,40,06,259,,41,27,238,,0*64
$GLGSV,2,1,07,71,37,059,40,72,40,125,38,76,11,203,23,77,34,249,17,1*75
$GLGSV,2,2,07,78,24,314,33,87,50,339,36,88,20,293,47,1*4F
$GLGSV,2,1,05,71,37,059,36,72,40,125,37,76,11,203,13,78,24,314,27,3*7C
$GLGSV,2,2,05,88,20,293,33,3*45
$GLGSV,1,1,03,65,11,170,,70,04,021,,86,30,063,,0*47
$GAGSV,2,1,08,02,49,222,23,04,13,050,33,09,25,103,39,11,19,066,27,2*79
$GAGSV,2,2,08,18,33,303,35,30,38,298,34,34,46,285,40,36,61,026,36,2*70
$GAGSV,2,1,08,02,49,222,26,04,13,050,22,09,25,103,37,11,19,066,24,7*74
$GAGSV,2,2,08,18,33,303,36,30,38,298,40,34,46,285,38,36,61,026,40,7*7B
$GAGSV,1,1,02,15,02,262,,25,16,176,,0*76
$GBGSV,3,1,09,03,44,206,27,04,35,132,40,07,73,224,44,08,51,244,27,1*75
$GBGSV,3,2,09,10,69,266,41,11,48,072,27,28,34,299,32,34,30,088,29,1*7A
$GBGSV,3,3,09,37,20,288,36,1*4E
$GBGSV,2,1,06,04,35,132,38,07,73,224,43,08,51,244,33,10,69,266,40,3*7E
$GBGSV,2,2,06,11,48,072,41,34,30,088,07,3*7D
$GBGSV,1,1,04,12,04,096,,13,41,241,,21,21,045,,23,22,235,,0*7F
$GNRMC,035756.00,A,3727.1127651,N,12639.1994071,E,0.025,,220622,,,R,V*0E
$GNVTG,,T,,M,0.025,N,0.047,K,D*3C
$GNGNS,035756.00,3727.1127651,N,12639.1994071,E,RRRR,29,0.66,24.468,17.834,4.0,4095,V*06
$GNGGA,035756.00,3727.1127651,N,12639.1994071,E,4,12,0.66,24.468,M,17.834,M,4.0,4095*5B
$GNGSA,A,3,14,19,06,17,04,03,01,,,,,,1.35,0.66,1.17,1*0A
$GNGSA,A,3,78,87,88,71,72,76,,,,,,,1.35,0.66,1.17,2*00
$GNGSA,A,3,30,09,34,11,02,04,36,,,,,,1.35,0.66,1.17,3*0D
$GNGSA,A,3,03,04,11,08,34,37,07,28,10,,,,1.35,0.66,1.17,4*04
$GPGSV,2,1,08,01,19,060,30,03,47,055,44,04,15,108,33,06,42,274,35,1*6D
$GPGSV,2,2,08,14,43,192,31,17,74,012,45,19,55,323,29,28,,,30,1*59
$GPGSV,2,1,06,01,19,060,22,03,47,055,36,04,15,108,30,06,42,274,23,6*66
$GPGSV,2,2,06,09,11,140,19,17,74,012,38,6*6C
$GPGSV,1,1,04,11,07,255,,12,00,327,,40,06,259,,41,27,238,,0*64
$GLGSV,2,1,07,71,37,059,39,72,40,125,38,76,11,203,23,77,34,249,16,1*7A
$GLGSV,2,2,07,78,24,314,33,87,50,339,36,88,20,293,46,1*4E
$GLGSV,2,1,05,71,37,059,35,72,40,125,37,76,11,203,11,78,24,314,27,3*7D
$GLGSV,2,2,05,88,20,293,34,3*42
$GLGSV,1,1,03,65,11,170,,70,04,021,,86,30,063,,0*47
$GAGSV,2,1,08,02,49,222,24,04,13,050,33,09,25,103,40,11,19,066,27,2*70
$GAGSV,2,2,08,18,33,303,35,30,38,298,34,34,46,285,40,36,61,026,36,2*70
$GAGSV,2,1,07,02,49,222,27,04,13,050,23,09,25,103,37,18,33,303,37,7*78
$GAGSV,2,2,07,30,38,298,40,34,46,285,38,36,61,026,40,7*48
$GAGSV,1,1,02,15,02,262,,25,16,176,,0*76
$GBGSV,3,1,09,03,44,206,27,04,35,132,40,07,73,224,44,08,51,244,27,1*75
$GBGSV,3,2,09,10,69,266,41,11,48,072,24,28,34,299,33,34,30,088,34,1*74
$GBGSV,3,3,09,37,20,288,36,1*4E
$GBGSV,2,1,05,04,35,132,39,07,73,224,43,08,51,244,33,10,69,266,39,3*72
$GBGSV,2,2,05,11,48,072,41,3*4D
$GBGSV,1,1,04,12,04,096,,13,41,241,,21,21,045,,23,21,234,,0*7D
$GNRMC,035757.00,A,3727.1127662,N,12639.1994107,E,0.032,,220622,,,R,V*09
$GNVTG,,T,,M,0.032,N,0.060,K,D*3F
$GNGNS,035757.00,3727.1127662,N,12639.1994107,E,RRRR,28,0.70,24.475,17.834,5.0,4095,V*0C
$GNGGA,035757.00,3727.1127662,N,12639.1994107,E,4,12,0.70,24.475,M,17.834,M,5.0,4095*50
$GNGSA,A,3,14,19,06,17,04,03,01,,,,,,1.37,0.70,1.18,1*00
$GNGSA,A,3,78,87,88,71,72,77,76,,,,,,1.37,0.70,1.18,2*0A
$GNGSA,A,3,30,09,34,11,02,04,36,,,,,,1.37,0.70,1.18,3*07
$GNGSA,A,3,04,11,08,34,37,07,28,10,,,,,1.37,0.70,1.18,4*0D
$GPGSV,2,1,08,01,19,060,31,03,47,055,44,04,15,108,32,06,42,274,35,1*6D
$GPGSV,2,2,08,14,43,192,30,17,74,012,45,19,55,323,30,28,,,30,1*50
$GPGSV,1,1,01,14,43,192,17,5*5F
$GPGSV,2,1,06,01,19,060,22,03,47,055,36,04,15,108,31,06,42,274,23,6*67
$GPGSV,2,2,06,09,11,140,19,17,74,012,39,6*6D
$GPGSV,1,1,04,11,07,255,,12,00,327,,40,06,259,,41,27,238,,0*64
$GLGSV,2,1,07,71,37,059,39,72,40,125,38,76,11,203,23,77,34,249,16,1*7A
$GLGSV,2,2,07,78,24,314,33,87,50,339,36,88,20,293,46,1*4E
$GLGSV,2,1,05,71,37,059,35,72,40,125,37,76,11,203,09,78,24,314,27,3*74
$GLGSV,2,2,05,88,20,293,33,3*45
$GLGSV,1,1,03,65,11,170,,70,04,021,,86,30,063,,0*47
$GAGSV,2,1,08,02,49,222,24,04,13,050,33,09,25,103,40,11,19,066,27,2*70
$GAGSV,2,2,08,18,33,303,35,30,38,298,34,34,46,285,41,36,61,026,36,2*71
$GAGSV,2,1,07,02,49,222,27,04,13,050,25,09,25,103,38,18,33,303,37,7*71
$GAGSV,2,2,07,30,38,298,40,34,46,285,38,36,61,026,40,7*48
$GAGSV,1,1,02,15,02,262,,25,16,176,,0*76
$GBGSV,3,1,09,04,35,132,40,07,73,224,44,08,51,244,27,10,69,266,41,1*7E
$GBGSV,3,2,09,11,48,072,23,13,41,241,25,28,34,299,33,34,30,088,29,1*71
$GBGSV,3,3,09,37,20,288,36,1*4E
$GBGSV,2,1,05,04,35,132,39,07,73,224,43,08,51,244,33,10,69,266,39,3*72
$GBGSV,2,2,05,11,48,072,41,3*4D
$GBGSV,1,1,04,03,44,206,,12,04,096,,21,21,045,,23,21,234,,0*7A
$GNRMC,035758.00,A,3727.1127672,N,12639.1994107,E,0.018,,220622,,,R,V*0F
$GNVTG,,T,,M,0.018,N,0.034,K,D*36
$GNGNS,035758.00,3727.1127672,N,12639.1994107,E,RRRR,28,0.70,24.494,17.834,6.0,4095,V*0E
$GNGGA,035758.00,3727.1127672,N,12639.1994107,E,4,12,0.70,24.494,M,17.834,M,6.0,4095*52
$GNGSA,A,3,14,19,06,17,04,03,01,,,,,,1.37,0.70,1.18,1*00
$GNGSA,A,3,78,87,88,71,72,77,76,,,,,,1.37,0.70,1.18,2*0A
$GNGSA,A,3,30,09,34,11,02,04,36,,,,,,1.37,0.70,1.18,3*07
$GNGSA,A,3,04,11,08,34,37,07,28,10,,,,,1.37,0.70,1.18,4*0D
$GPGSV,2,1,08,01,19,060,31,03,47,055,44,04,15,108,30,06,42,274,35,1*6F
$GPGSV,2,2,08,14,43,192,29,17,74,012,45,19,55,323,29,28,,,30,1*50
$GPGSV,2,1,07,01,19,060,21,03,47,055,36,04,15,108,31,06,42,274,22,6*64
$GPGSV,1,1,04,11,07,255,,12,00,327,,40,06,259,,41,27,238,,0*64
$GLGSV,2,1,07,71,37,059,39,72,40,125,38,76,11,203,23,77,34,249,16,1*7A
$GLGSV,2,2,07,78,24,314,33,87,50,339,35,88,20,293,46,1*4D
$GLGSV,2,1,05,71,37,059,35,72,40,125,37,76,11,203,13,78,24,314,27,3*7F
$GLGSV,2,2,05,88,20,293,32,3*44
$GLGSV,1,1,03,65,11,170,,70,04,021,,86,30,063,,0*47
$GAGSV,2,1,08,02,49,222,24,04,13,050,33,09,25,103,40,11,19,066,27,2*70
$GAGSV,2,2,08,18,33,303,35,30,38,298,34,34,46,285,41,36,61,026,36,2*71
$GAGSV,2,1,07,02,49,222,27,04,13,050,25,09,25,103,38,18,33,303,38,7*7E
$GAGSV,2,2,07,30,38,298,41,34,46,285,38,36,61,026,40,7*49
$GAGSV,1,1,02,15,02,262,,25,16,176,,0*76
$GBGSV,3,1,09,04,35,132,40,07,73,224,44,08,51,244,27,10,69,266,41,1*7E
$GBGSV,3,2,09,11,48,072,19,13,41,241,25,28,34,300,34,34,30,088,30,1*76
$GBGSV,3,3,09,37,20,288,37,1*4F
$GBGSV,2,1,05,04,35,132,39,07,73,224,43,08,51,244,33,10,69,266,39,3*72
$GBGSV,2,2,05,11,48,072,41,3*4D
$GBGSV,1,1,04$GNRMC,035759.00,A,3727.1127664,N,12639.1994110,E,0.031,,220622,,,R,V*04
$GNVTG,,T,,M,0.031,N,0.057,K,D*38
$GNGNS,035759.00,3727.1127664,N,12639.1994110,E,RRRR,29,0.70,24.503,17.834,7.0,4095,V*01
$GNGSA,A,3,14,19,06,17,04,03,01,,,,,,1.37,0.70,1.18,1*00
$GNGSA,A,3,78,87,88,71,72,77,76,,,,,,1.37,0.70,1.18,2*0A
$GNGSA,A,3,30,09,34,11,02,04,36,,,,,,1.37,0.70,1.18,3*07
$GNGSA,A,3,04,11,08,34,37,07,28,10,,,,,1.37,0.70,1.18,4*0D
$GPGSV,2,1,08,01,19,060,31,03,47,055,44,04,15,108,29,06,42,274,35,1*67
$GPGSV,2,2,08,14,43,192,29,17,74,012,45,19,55,323,29,28,,,30,1*50
$GPGSV,2,1,07,01,19,060,20,03,47,055,36,04,15,108,33,06,42,274,21,6*64
$GPGSV,2,2,07,09,11,140,20,14,43,192,18,17,74,012,39,6*57
$GPGSV,1,1,04,11,07,255,,12,00,327,,40,06,259,,41,27,238,,0*64
$GLGSV,2,1,07,71,37,059,38,72,40,125,39,76,11,203,23,77,34,249,16,1*7A
$GLGSV,2,2,07,78,24,314,33,87,50,339,35,88,20,293,47,1*4C
$GLGSV,2,1,05,71,37,059,35,72,40,125,38,76,11,203,13,78,24,314,27,3*70
$GLGSV,2,2,05,88,20,293,33,3*45
$GLGSV,1,1,03,65,11,170,,70,04,021,,86,30,063,,0*47
$GAGSV,2,1,08,02,49,222,23,04,13,050,33,09,25,103,41,11,19,066,27,2*76
$GAGSV$GAGSV,2,1,07,02,49,222,28,04,13,050,26,09,25,103,38,18,33,303,38,7*72
$GAGSV,2,2,07,30,38,298,41,34,46,285,38,36,61,026,40,7*49
$GAGSV,1,1,02,15,02,262,,25,16,176,,0*76
$GBGSV,3,1,09,04,35,132,40,07,73,224,45,08,51,244,27,10,69,266,40,1*7E
$GBGSV,3,2,09,11,48,072,21,13,41,241,25,28,34,300,34,34,30,089,29,1*74
