$GNRMC,035610.00,A,3727.1125691,N,12639.1993387,E,0.014,,220622,,,A,V*1F
$GNVTG,,T,,M,0.014,N,0.026,K,A*3C
$GNGNS,035610.00,3727.1125691,N,12639.1993387,E,AAAA,27,0.58,21.529,17.834,,,V*26
$GNGGA,035610.00,3727.1125691,N,12639.1993387,E,1,12,0.58,21.529,M,17.834,M,,*70
$GNGSA,A,3,14,19,06,17,04,03,01,,,,,,1.06,0.58,0.89,1*01
$GNGSA,A,3,78,87,88,71,72,76,,,,,,,1.06,0.58,0.89,2*0B
$GNGSA,A,3,30,09,34,11,02,04,36,,,,,,1.06,0.58,0.89,3*06
$GNGSA,A,3,11,08,34,37,07,28,10,,,,,,1.06,0.58,0.89,4*08
$GPGSV,2,1,08,01,20,060,33,03,48,056,39,04,15,109,44,06,42,273,31,1*60
$GPGSV,2,2,08,09,11,140,16,14,44,193,27,17,74,010,46,19,55,322,33,1*61
$GPGSV,2,1,06,01,20,060,27,03,48,056,33,04,15,109,32,06,42,273,29,6*6E
$GPGSV,2,2,06,14,44,193,25,17,74,010,41,6*6D
$GPGSV,1,1,03,11,07,254,,40,06,259,,41,27,238,,0*57
$GLGSV,2,1,07,70,04,021,03,71,37,060,42,72,39,126,46,78,24,315,34,1*7C
$GLGSV,2,2,07,86,30,062,04,87,50,338,42,88,20,293,48,1*40
$GLGSV,2,1,07,65,10,170,18,71,37,060,34,72,39,126,41,76,12,203,09,3*75
$GLGSV,2,2,07,77,35,250,09,78,24,315,24,88,20,293,39,3*4D
$GAGSV,2,1,08,02,49,222,26,04,13,051,23,09,24,103,45,11,19,065,22,2*70
$GAGSV,2,2,08,18,32,302,38,30,38,298,40,34,46,284,41,36,61,025,35,2*7E
$GAGSV,2,1,08,02,49,222,28,04,13,051,25,09,24,103,43,11,19,065,26,7*7F
$GAGSV,2,2,08,18,32,302,43,30,38,298,40,34,46,284,42,36,61,025,35,7*74
$GAGSV,1,1,02,15,01,261,,25,16,176,,0*76
$GBGSV,3,1,09,04,,,37,07,73,225,46,08,51,243,24,10,69,267,44,1*4B
$GBGSV,3,2,09,11,48,071,38,13,41,240,25,28,33,299,43,34,31,088,25,1*74
$GBGSV,3,3,09,37,20,289,31,1*48
$GBGSV,1,1,04,07,73,225,45,10,69,267,44,11,48,071,40,23,22,235,21,3*72
$GBGSV,1,1,02,03,44,206,,12,04,096,,0*7A
$GNRMC,035611.00,A,3727.1125638,N,12639.1993168,E,0.020,,220622,,,A,V*19
$GNVTG,,T,,M,0.020,N,0.036,K,A*3A
$GNGNS,035611.00,3727.1125638,N,12639.1993168,E,AAAA,27,0.61,21.544,17.834,,,V*26
$GNGGA,035611.00,3727.1125638,N,12639.1993168,E,1,12,0.61,21.544,M,17.834,M,,*70
$GNGSA,A,3,14,19,06,17,04,03,01,,,,,,1.08,0.61,0.89,1*05
$GNGSA,A,3,78,87,88,71,72,76,,,,,,,1.08,0.61,0.89,2*0F
$GNGSA,A,3,30,09,34,11,02,04,36,,,,,,1.08,0.61,0.89,3*02
$GNGSA,A,3,11,08,34,37,07,28,10,,,,,,1.08,0.61,0.89,4*0C
$GPGSV,2,1,08,01,20,060,32,03,48,056,36,04,15,109,43,06,42,273,30,1*68
$GPGSV,2,2,08,09,11,140,18,14,44,193,29,17,74,010,46,19,55,322,32,1*60
$GPGSV,2,1,06,01,20,060,26,03,48,056,34,04,15,109,30,06,42,273,29,6*6A
$GPGSV,2,2,06,14,44,193,24,17,74,010,41,6*6C
$GPGSV,1,1,03,11,07,254,,40,06,259,,41,27,238,,0*57
$GLGSV,2,1,06,70,04,021,04,71,37,060,44,72,39,126,44,78,24,315,35,1*7F
$GLGSV,2,2,06,87,50,338,40,88,20,293,47,1*71
$GLGSV,2,1,07,65,10,170,15,71,37,060,34,72,39,126,40,76,12,203,10,3*71
$GLGSV,2,2,07,77,35,250,08,78,24,315,26,88,20,293,37,3*40
$GLGSV,1,1,01,86,30,062,,0*41
$GAGSV,2,1,08,02,49,222,25,04,13,051,23,09,24,103,44,11,19,065,21,2*71
$GAGSV,2,2,08,18,32,302,38,30,38,298,40,34,46,284,41,36,61,025,35,2*7E
$GAGSV,2,1,08,02,49,222,27,04,13,051,24,09,24,103,42,11,19,065,25,7*73
$GAGSV,2,2,08,18,32,302,41,30,38,298,41,34,46,284,42,36,61,025,35,7*77
$GAGSV,1,1,02,15,01,261,,25,16,176,,0*76
$GBGSV,3,1,09,04,,,41,07,73,225,46,08,51,243,24,10,69,267,44,1*4A
$GBGSV,3,2,09,11,48,071,35,13,41,240,24,28,34,299,43,34,31,088,35,1*7E
$GBGSV,3,3,09,37,20,289,32,1*4B
$GBGSV,1,1,03,07,73,225,44,10,69,267,42,11,48,071,40,3*44
$GBGSV,1,1,03,03,44,206,,12,04,096,,23,22,235,,0*4E
$GNRMC,035612.00,A,3727.1125655,N,12639.1993212,E,0.017,,220622,,,A,V*1B
$GNVTG,,T,,M,0.017,N,0.032,K,A*3A
$GNGNS,035612.00,3727.1125655,N,12639.1993212,E,AAAA,26,0.58,21.585,17.834,,,V*26
$GNGGA,035612.00,3727.1125655,N,12639.1993212,E,1,12,0.58,21.585,M,17.834,M,,*71
$GNGSA,A,3,14,19,06,17,04,03,01,,,,,,1.06,0.58,0.89,1*01
$GNGSA,A,3,78,87,88,71,72,76,,,,,,,1.06,0.58,0.89,2*0B
$GNGSA,A,3,30,09,34,11,02,04,36,,,,,,1.06,0.58,0.89,3*06
$GNGSA,A,3,11,08,34,37,07,28,10,,,,,,1.06,0.58,0.89,4*08
$GPGSV,2,1,08,01,20,060,32,03,48,056,36,04,15,109,43,06,42,273,28,1*61
$GPGSV,2,2,08,09,11,140,20,14,44,193,29,17,74,010,45,19,55,322,30,1*6A
$GPGSV,2,1,05,01,20,060,26,03,48,056,35,04,15,109,32,06,42,273,30,6*62
$GPGSV,2,2,05,17,74,010,41,6*57
$GPGSV,1,1,03,11,07,254,,40,06,259,,41,27,238,,0*57
$GLGSV,2,1,06,70,04,021,06,71,37,060,43,72,39,126,43,78,24,315,34,1*7C
$GLGSV,2,2,06,87,50,338,40,88,20,293,47,1*71
$GLGSV,2,1,07,65,10,170,08,71,37,060,35,72,39,126,40,76,12,203,10,3*7C
$GLGSV,2,2,07,77,35,250,07,78,24,315,26,88,20,293,37,3*4F
$GLGSV,1,1,01,86,30,062,,0*41
$GAGSV,2,1,08,02,49,222,26,04,13,051,24,09,24,103,44,11,19,065,23,2*77
$GAGSV,2,2,08,18,32,302,39,30,38,298,41,34,46,284,42,36,61,025,35,2*7D
$GAGSV,2,1,08,02,49,222,27,04,13,051,24,09,24,103,42,11,19,065,25,7*73
$GAGSV,2,2,08,18,32,302,42,30,38,298,41,34,46,284,42,36,61,025,35,7*74
$GAGSV,1,1,02,15,01,261,,25,16,176,,0*76
$GBGSV,3,1,09,04,,,41,07,73,225,45,08,51,243,22,10,69,267,44,1*4F
$GBGSV,3,2,09,11,48,071,37,13,41,240,23,28,34,299,43,34,30,088,30,1*7F
$GBGSV,3,3,09,37,20,289,31,1*48
$GBGSV,1,1,04,07,73,225,44,08,51,243,25,10,69,267,42,11,48,071,40,3*7D
$GBGSV,1,1,03,03,44,206,,12,04,096,,23,22,235,,0*4E
$GNRMC,035613.00,A,3727.1125563,N,12639.1992881,E,0.002,,220622,,,A,V*19
$GNVTG,,T,,M,0.002,N,0.005,K,A*3A
$GNGNS,035613.00,3727.1125563,N,12639.1992881,E,AAAA,27,0.58,21.641,17.834,,,V*2A
$GNGGA,035613.00,3727.1125563,N,12639.1992881,E,1,12,0.58,21.641,M,17.834,M,,*7C
$GNGSA,A,3,14,19,06,17,04,03,01,,,,,,1.06,0.58,0.89,1*01
$GNGSA,A,3,78,87,88,71,72,76,,,,,,,1.06,0.58,0.89,2*0B
$GNGSA,A,3,30,09,34,11,02,04,36,,,,,,1.06,0.58,0.89,3*06
$GNGSA,A,3,11,08,34,37,07,28,10,,,,,,1.06,0.58,0.89,4*08
$GPGSV,2,1,08,01,20,060,33,03,48,056,37,04,15,109,44,06,42,273,30,1*6F
$GPGSV,2,2,08,09,11,140,22,14,44,193,29,17,74,010,46,19,55,322,31,1*6A
$GPGSV,1,1,01,14,44,193,26,5*5B
$GPGSV,2,1,05,01,20,060,26,03,48,056,34,04,15,109,31,06,42,273,30,6*60
$GPGSV,2,2,05,17,74,010,41,6*57
$GPGSV,1,1,03,11,07,254,,40,06,259,,41,27,238,,0*57
$GLGSV,2,1,06,70,04,021,11,71,37,060,41,72,39,126,43,78,24,315,32,1*7E
$GLGSV,2,2,06,87,50,338,40,88,20,293,47,1*71
$GLGSV,2,1,07,65,10,170,04,71,37,060,35,72,39,126,40,76,12,203,13,3*73
$GLGSV,2,2,07,77,35,250,07,78,24,315,26,88,20,293,37,3*4F
$GLGSV,1,1,01,86,30,062,,0*41
$GAGSV,2,1,08,02,49,222,27,04,13,051,25,09,24,103,45,11,19,065,23,2*76
$GAGSV,2,2,08,18,32,302,39,30,38,298,41,34,46,284,42,36,61,025,35,2*7D
$GAGSV,2,1,08,02,49,222,27,04,13,051,22,09,24,103,41,11,19,065,25,7*76
$GAGSV,2,2,08,18,32,302,42,30,38,298,41,34,46,284,42,36,61,025,35,7*74
$GAGSV,1,1,02,15,01,261,,25,16,176,,0*76
$GBGSV,3,1,09,04,,,40,07,73,225,45,08,51,243,22,10,69,267,44,1*4E
$GBGSV,3,2,09,11,48,071,37,13,41,240,23,28,34,299,43,34,30,088,31,1*7E
$GBGSV,3,3,09,37,20,288,30,1*48
$GBGSV,1,1,04,07,73,225,44,08,51,243,26,10,69,267,42,11,48,071,41,3*7F
$GBGSV,1,1,03,03,44,206,,12,04,096,,23,22,235,,0*4E
$GNRMC,035614.00,A,3727.1125617,N,12639.1992959,E,0.011,,220622,,,A,V*18
$GNVTG,,T,,M,0.011,N,0.020,K,A*3F
$GNGNS,035614.00,3727.1125617,N,12639.1992959,E,AAAA,27,0.59,21.693,17.834,,,V*27
$GNGGA,035614.00,3727.1125617,N,12639.1992959,E,1,12,0.59,21.693,M,17.834,M,,*71
$GNGSA,A,3,14,19,06,17,04,03,01,,,,,,1.07,0.59,0.89,1*01
$GNGSA,A,3,78,87,88,71,72,76,,,,,,,1.07,0.59,0.89,2*0B
$GNGSA,A,3,30,09,34,11,02,04,36,,,,,,1.07,0.59,0.89,3*06
$GNGSA,A,3,11,08,34,37,07,28,10,,,,,,1.07,0.59,0.89,4*08
$GPGSV,2,1,08,01,20,060,33,03,48,056,38,04,15,109,44,06,42,273,30,1*60
$GPGSV,2,2,08,09,11,140,24,14,44,193,29,17,74,010,46,19,55,322,30,1*6D
$GPGSV,1,1,01,09,11,140,27,5*58
$GPGSV,2,1,06,01,20,060,24,03,48,056,35,04,15,109,32,06,42,273,30,6*63
$GPGSV,2,2,06,14,44,193,25,17,74,010,41,6*6D
$GPGSV,1,1,03,11,07,254,,40,06,259,,41,27,238,,0*57
$GLGSV,2,1,06,70,04,021,07,71,37,060,41,72,39,126,43,78,24,315,31,1*7A
$GLGSV,2,2,06,87,50,338,40,88,20,293,47,1*71
$GLGSV,2,1,07,65,10,170,05,71,37,060,35,72,39,126,39,76,12,203,08,3*76
$GLGSV,2,2,07,77,35,250,08,78,24,315,26,88,20,293,37,3*40
$GLGSV,1,1,01,86,30,062,,0*41
$GAGSV,2,1,08,02,49,222,26,04,13,051,26,09,24,103,45,11,19,065,24,2*73
$GAGSV,2,2,08,18,32,302,38,30,38,298,41,34,46,284,43,36,61,025,36,2*7E
$GAGSV,2,1,08,02,49,222,27,04,13,051,22,09,24,103,42,11,19,065,27,7*77
$GAGSV,2,2,08,18,32,302,42,30,38,298,41,34,46,284,42,36,61,025,35,7*74
$GAGSV,1,1,02,15,01,261,,25,16,176,,0*76
$GBGSV,3,1,09,04,,,40,07,73,225,45,08,51,243,22,10,69,267,44,1*4E
$GBGSV,3,2,09,11,48,071,37,13,41,240,24,28,34,299,43,34,30,088,30,1*78
$GBGSV,3,3,09,37,20,288,32,1*4A
$GBGSV,1,1,04,07,73,225,44,08,51,243,26,10,69,267,42,11,48,071,41,3*7F
$GBGSV,1,1,03,03,44,206,,12,04,096,,23,22,235,,0*4E
$GNRMC,035615.00,A,3727.1125656,N,12639.1993226,E,0.002,,220622,,,A,V*1C
$GNVTG,,T,,M,0.002,N,0.004,K,A*3B
$GNGNS,035615.00,3727.1125656,N,12639.1993226,E,AAAA,27,0.59,21.752,17.834,,,V*2D
$GNGGA,035615.00,3727.1125656,N,12639.1993226,E,1,12,0.59,21.752,M,17.834,M,,*7B
$GNGSA,A,3,14,19,06,17,04,03,01,,,,,,1.07,0.59,0.90,1*09
$GNGSA,A,3,78,87,88,71,72,76,,,,,,,1.07,0.59,0.90,2*03
$GNGSA,A,3,30,09,34,11,02,04,36,,,,,,1.07,0.59,0.90,3*0E
$GNGSA,A,3,11,08,34,37,07,28,10,,,,,,1.07,0.59,0.90,4*00
$GPGSV,2,1,08,01,20,060,33,03,48,056,40,04,15,109,43,06,42,273,31,1*69
$GPGSV,2,2,08,09,11,140,25,14,44,193,28,17,74,010,46,19,55,322,31,1*6C
$GPGSV,1,1,01,09,11,140,25,5*5A
$GPGSV,2,1,06,01,20,060,23,03,48,056,36,04,15,109,31,06,42,273,29,6*6C
$GPGSV,2,2,06,14,44,193,24,17,74,010,41,6*6C
$GPGSV,1,1,03,11,07,254,,40,06,259,,41,27,238,,0*57
$GLGSV,2,1,06,70,04,021,07,71,37,060,41,72,39,126,43,78,24,315,31,1*7A
$GLGSV,2,2,06,87,50,338,39,88,20,293,46,1*7E
$GLGSV,2,1,07,65,10,170,06,71,37,060,35,72,39,126,39,76,12,203,13,3*7F
$GLGSV,2,2,07,77,35,250,08,78,24,315,26,88,20,293,37,3*40
$GLGSV,1,1,01,86,30,062,,0*41
$GAGSV,2,1,08,02,49,222,25,04,13,051,25,09,24,103,45,11,19,065,22,2*75
$GAGSV,2,2,08,18,32,302,38,30,38,298,41,34,46,284,42,36,61,025,35,2*7C
$GAGSV,2,1,08,02,49,222,26,04,13,051,22,09,24,103,41,11,19,065,27,7*75
$GAGSV,2,2,08,18,32,302,43,30,38,298,41,34,46,284,42,36,61,025,35,7*75
$GAGSV,1,1,02,15,01,261,,25,16,176,,0*76
$GBGSV,3,1,09,04,,,40,07,73,225,45,08,51,243,22,10,69,267,43,1*49
$GBGSV,3,2,09,11,48,071,36,13,41,240,23,28,34,299,42,34,30,088,18,1*75
$GBGSV,3,3,09,37,20,288,32,1*4A
$GBGSV,1,1,04,07,73,225,44,08,51,243,26,10,69,267,42,11,48,071,42,3*7C
$GBGSV,1,1,03,03,44,206,,12,04,096,,23,22,235,,0*4E
$GNRMC,035616.00,A,3727.1125642,N,12639.1993490,E,0.003,,220622,,,A,V*10
$GNVTG,,T,,M,0.003,N,0.005,K,A*3B
$GNGNS,035616.00,3727.1125642,N,12639.1993490,E,AAAA,27,0.58,21.796,17.834,,,V*29
$GNGGA,035616.00,3727.1125642,N,12639.1993490,E,1,12,0.58,21.796,M,17.834,M,,*7F
$GNGSA,A,3,14,19,06,17,04,03,01,,,,,,1.07,0.58,0.89,1*00
$GNGSA,A,3,78,87,88,71,72,76,,,,,,,1.07,0.58,0.89,2*0A
$GNGSA,A,3,30,09,34,11,02,04,36,,,,,,1.07,0.58,0.89,3*07
$GNGSA,A,3,11,08,34,37,07,28,10,,,,,,1.07,0.58,0.89,4*09
$GPGSV,2,1,08,01,20,060,32,03,48,056,39,04,15,109,43,06,42,273,29,1*6F
$GPGSV,2,2,08,09,11,140,25,14,44,193,27,17,74,010,46,19,55,322,32,1*60
$GPGSV,2,1,07,01,20,060,22,03,48,056,35,04,15,109,31,06,42,273,29,6*6F
$GPGSV,2,2,07,09,11,140,23,14,44,193,23,17,74,010,41,6*57
$GPGSV,1,1,03,11,07,254,,40,06,259,,41,27,238,,0*57
$GLGSV,2,1,06,70,04,021,23,71,37,060,40,72,39,126,43,78,24,315,28,1*75
$GLGSV,2,2,06,87,50,338,39,88,20,293,46,1*7E
$GLGSV,2,1,07,65,10,170,05,71,37,060,35,72,39,126,39,76,12,203,12,3*7D
$GLGSV,2,2,07,77,35,250,07,78,24,315,25,88,20,293,37,3*4C
$GLGSV,1,1,01,86,30,062,,0*41
$GAGSV,2,1,08,02,49,222,25,04,13,051,26,09,24,103,45,11,19,065,22,2*76
$GAGSV,2,2,08,18,32,302,38,30,38,298,41,34,46,284,42,36,61,025,36,2*7F
$GAGSV,2,1,08,02,49,222,26,04,13,051,22,09,24,103,41,11,19,065,28,7*7A
$GAGSV,2,2,08,18,32,302,42,30,38,298,41,34,46,284,42,36,61,025,35,7*74
$GAGSV,1,1,02,15,01,261,,25,16,176,,0*76
$GBGSV,3,1,09,04,,,40,07,73,225,45,08,51,243,22,10,69,267,43,1*49
$GBGSV,3,2,09,11,48,071,37,13,41,240,23,28,34,299,42,34,30,088,22,1*7D
$GBGSV,3,3,09,37,20,288,32,1*4A
$GBGSV,1,1,04,07,73,225,44,08,51,243,26,10,69,267,42,11,48,071,42,3*7C
$GBGSV,1,1,03,03,44,206,,12,04,096,,23,22,235,,0*4E
$GNRMC,035617.00,A,3727.1125544,N,12639.1993650,E,0.015,,220622,,,A,V*1D
$GNVTG,,T,,M,0.015,N,0.028,K,A*33
$GNGNS,035617.00,3727.1125544,N,12639.1993650,E,AAAA,27,0.58,21.831,17.834,,,V*21
$GNGGA,035617.00,3727.1125544,N,12639.1993650,E,1,12,0.58,21.831,M,17.834,M,,*77
$GNGSA,A,3,14,19,06,17,04,03,01,,,,,,1.06,0.58,0.89,1*01
$GNGSA,A,3,78,87,88,71,72,76,,,,,,,1.06,0.58,0.89,2*0B
$GNGSA,A,3,30,09,34,11,02,04,36,,,,,,1.06,0.58,0.89,3*06
$GNGSA,A,3,11,08,34,37,07,28,10,,,,,,1.06,0.58,0.89,4*08
$GPGSV,2,1,08,01,20,060,32,03,48,056,39,04,15,109,43,06,42,273,29,1*6F
$GPGSV,2,2,08,09,11,140,25,14,44,193,27,17,74,010,46,19,55,322,33,1*61
$GPGSV,2,1,07,01,20,060,22,03,48,056,36,04,15,109,32,06,42,273,28,6*6E
$GPGSV,2,2,07,09,11,140,23,14,44,193,22,17,74,010,41,6*56
$GPGSV,1,1,03,11,07,254,,40,06,259,,41,27,238,,0*57
$GLGSV,2,1,06,70,04,021,09,71,37,060,40,72,39,126,43,78,24,315,27,1*72
$GLGSV,2,2,06,87,50,338,40,88,20,293,46,1*70
$GLGSV,2,1,07,65,10,170,03,71,37,060,35,72,39,126,39,76,12,203,12,3*7B
$GLGSV,2,2,07,77,35,250,07,78,24,315,26,88,20,293,38,3*40
$GLGSV,1,1,01,86,30,062,,0*41
$GAGSV,2,1,08,02,49,222,25,04,13,051,25,09,24,103,45,11,19,065,21,2*76
$GAGSV,2,2,08,18,32,302,39,30,38,298,41,34,46,284,42,36,61,025,36,2*7E
$GAGSV,2,1,08,02,49,222,26,04,13,051,20,09,24,103,42,11,19,065,28,7*7B
$GAGSV,2,2,08,18,32,302,42,30,38,298,41,34,46,284,42,36,61,025,35,7*74
$GAGSV,1,1,02,15,01,261,,25,16,176,,0*76
$GBGSV,3,1,09,04,,,40,07,73,225,45,08,51,243,21,10,69,267,43,1*4A
$GBGSV,3,2,09,11,48,071,37,13,41,240,22,28,34,299,42,34,30,088,24,1*7A
$GBGSV,3,3,09,37,20,288,32,1*4A
$GBGSV,1,1,04,07,73,225,44,08,51,243,27,10,69,267,42,11,48,071,43,3*7C
$GBGSV,1,1,03,03,44,206,,12,04,096,,23,22,235,,0*4E
$GNRMC,035618.00,A,3727.1125328,N,12639.1993632,E,0.008,,220622,,,A,V*16
$GNVTG,,T,,M,0.008,N,0.015,K,A*31
$GNGNS,035618.00,3727.1125328,N,12639.1993632,E,AAAA,27,0.58,21.874,17.834,,,V*27
$GNGGA,035618.00,3727.1125328,N,12639.1993632,E,1,12,0.58,21.874,M,17.834,M,,*71
$GNGSA,A,3,14,19,06,17,04,03,01,,,,,,1.06,0.58,0.89,1*01
$GNGSA,A,3,78,87,88,71,72,76,,,,,,,1.06,0.58,0.89,2*0B
$GNGSA,A,3,30,09,34,11,02,04,36,,,,,,1.06,0.58,0.89,3*06
$GNGSA,A,3,11,08,34,37,07,28,10,,,,,,1.06,0.58,0.89,4*08
$GPGSV,2,1,08,01,20,060,33,03,48,056,39,04,15,109,43,06,42,273,28,1*6F
$GPGSV,2,2,08,09,11,140,25,14,44,193,27,17,74,010,45,19,55,322,33,1*62
$GPGSV,2,1,07,01,20,060,20,03,48,056,36,04,15,109,31,06,42,273,28,6*6F
$GPGSV,2,2,07,09,11,140,24,14,44,193,22,17,74,010,41,6*51
$GPGSV,1,1,03,11,07,254,,40,06,259,,41,27,238,,0*57
$GLGSV,2,1,06,70,04,021,12,71,37,060,39,72,39,126,43,78,24,315,26,1*77
$GLGSV,2,2,06,87,50,338,40,88,20,293,46,1*70
$GLGSV,2,1,06,71,37,060,35,72,39,126,39,76,12,203,10,77,35,250,08,3*76
$GLGSV,2,2,06,78,24,315,25,88,20,293,37,3*7B
$GLGSV,1,1,02,65,11,170,,86,30,062,,0*77
$GAGSV,2,1,08,02,49,222,25,04,13,051,25,09,24,103,45,11,19,065,22,2*75
$GAGSV,2,2,08,18,32,302,38,30,38,298,41,34,46,284,42,36,61,025,36,2*7F
$GAGSV,2,1,08,02,49,222,26,04,13,051,19,09,24,103,42,11,19,065,27,7*7E
$GAGSV,2,2,08,18,32,302,42,30,38,298,41,34,46,284,41,36,61,025,36,7*74
$GAGSV,1,1,02,15,01,261,,25,16,176,,0*76
$GBGSV,3,1,09,04,,,39,07,73,225,44,08,51,243,21,10,69,267,42,1*44
$GBGSV,3,2,09,11,48,071,35,13,41,240,22,28,34,299,41,34,30,088,25,1*7A
$GBGSV,3,3,09,37,20,288,31,1*49
$GBGSV,1,1,04,07,73,225,43,08,51,243,27,10,69,267,42,11,48,071,43,3*7B
$GBGSV,1,1,03,03,44,206,,12,04,096,,23,22,235,,0*4E
$GNRMC,035619.00,A,3727.1124976,N,12639.1993564,E,0.012,,220622,,,A,V*1C
$GNVTG,,T,,M,0.012,N,0.022,K,A*3E
$GNGNS,035619.00,3727.1124976,N,12639.1993564,E,AAAA,27,0.58,21.931,17.834,,,V*26
$GNGGA,035619.00,3727.1124976,N,12639.1993564,E,1,12,0.58,21.931,M,17.834,M,,*70
$GNGSA,A,3,14,19,06,17,04,03,01,,,,,,1.07,0.58,0.89,1*00
$GNGSA,A,3,78,87,88,71,72,76,,,,,,,1.07,0.58,0.89,2*0A
$GNGSA,A,3,30,09,34,11,02,04,36,,,,,,1.07,0.58,0.89,3*07
$GNGSA,A,3,11,08,34,37,07,28,10,,,,,,1.07,0.58,0.89,4*09
$GPGSV,2,1,08,01,20,060,33,03,48,056,40,04,15,109,43,06,42,273,29,1*60
$GPGSV,2,2,08,09,11,140,25,14,44,193,27,17,74,010,46,19,55,322,33,1*61
$GPGSV,2,1,07,01,20,060,20,03,48,056,35,04,15,109,30,06,42,273,28,6*6D
$GPGSV,2,2,07,09,11,140,24,14,44,193,21,17,74,010,40,6*53
$GPGSV,1,1,03,11,07,254,,40,06,259,,41,27,238,,0*57
$GLGSV,2,1,05,71,37,060,39,72,39,126,43,78,24,315,26,87,50,338,41,1*70
$GLGSV,2,2,05,88,20,293,46,1*45
$GLGSV,2,1,06,71,37,060,35,72,39,126,39,76,12,203,10,77,35,250,08,3*76
$GLGSV,2,2,06,78,24,315,25,88,20,293,37,3*7B
$GLGSV,1,1,03,65,11,170,,70,04,021,,86,30,062,,0*46
$GAGSV,2,1,08,02,49,222,24,04,13,051,24,09,24,103,44,11,19,065,22,2*74
$GAGSV,2,2,08,18,32,302,39,30,38,298,41,34,46,284,42,36,61,025,36,2*7E
$GAGSV,2,1,08,02,49,222,26,04,13,051,18,09,24,103,42,11,19,065,26,7*7E
$GAGSV,2,2,08,18,32,302,43,30,38,298,41,34,46,284,42,36,61,025,35,7*75
$GAGSV,1,1,02,15,01,261,,25,16,176,,0*76
$GBGSV,3,1,09,04,,,39,07,73,225,45,08,51,243,21,10,69,267,43,1*44
$GBGSV,3,2,09,11,48,071,37,13,41,240,21,28,34,299,41,34,30,088,23,1*7D
$GBGSV,3,3,09,37,20,288,31,1*49
$GBGSV,1,1,04,07,73,225,43,08,51,243,26,10,69,267,42,11,48,071,42,3*7B
$GBGSV,1,1,03,03,44,206,,12,04,096,,23,22,235,,0*4E
$GNRMC,035620.00,A,3727.1124918,N,12639.1993785,E,0.000,,220622,,,A,V*10
$GNVTG,,T,,M,0.000,N,0.001,K,A*3C
$GNGNS,035620.00,3727.1124918,N,12639.1993785,E,AAAA,27,0.58,21.986,17.834,,,V*25
$GNGGA,035620.00,3727.1124918,N,12639.1993785,E,1,12,0.58,21.986,M,17.834,M,,*73
$GNGSA,A,3,14,19,06,17,04,03,01,,,,,,1.07,0.58,0.89,1*00
$GNGSA,A,3,78,87,88,71,72,76,,,,,,,1.07,0.58,0.89,2*0A
$GNGSA,A,3,30,09,34,11,02,04,36,,,,,,1.07,0.58,0.89,3*07
$GNGSA,A,3,11,08,34,37,07,28,10,,,,,,1.07,0.58,0.89,4*09
$GPGSV,3,1,09,01,20,060,33,03,48,056,40,04,15,109,43,06,42,273,31,1*69
$GPGSV,3,2,09,09,11,140,26,14,44,193,28,17,74,010,46,19,55,322,33,1*6D
$GPGSV,3,3,09,41,27,238,26,1*50
$GPGSV,2,1,07,01,20,060,20,03,48,056,35,04,15,109,30,06,42,273,28,6*6D
$GPGSV,2,2,07,09,11,140,23,14,44,193,21,17,74,010,40,6*54
$GPGSV,1,1,02,11,07,254,,40,06,259,,0*6F
$GLGSV,2,1,05,71,37,060,39,72,39,126,43,78,24,315,26,87,50,338,41,1*70
$GLGSV,2,2,05,88,20,293,46,1*45
$GLGSV,2,1,06,71,37,060,34,72,39,126,39,76,12,203,13,77,35,250,08,3*74
$GLGSV,2,2,06,78,24,315,26,88,20,293,36,3*79
$GLGSV,1,1,03,65,11,170,,70,04,021,,86,30,062,,0*46
$GAGSV,2,1,08,02,49,222,24,04,13,051,24,09,24,103,44,11,19,065,22,2*74
$GAGSV,2,2,08,18,32,302,39,30,38,298,41,34,46,284,42,36,61,025,35,2*7D
$GAGSV,2,1,08,02,49,222,27,04,13,051,19,09,24,103,42,11,19,065,27,7*7F
$GAGSV,2,2,08,18,32,302,43,30,38,298,41,34,46,284,42,36,61,025,35,7*75
$GAGSV,1,1,02,15,01,261,,25,16,176,,0*76
$GBGSV,3,1,09,04,,,41,07,73,225,46,08,51,243,21,10,69,267,44,1*4F
$GBGSV,3,2,09,11,48,071,38,13,41,240,20,28,34,299,42,34,30,088,22,1*71
$GBGSV,3,3,09,37,20,288,31,1*49
$GBGSV,1,1,04,07,73,225,43,08,51,243,26,10,69,267,42,11,48,071,42,3*7B
$GBGSV,1,1,03,03,44,206,,12,04,096,,23,22,235,,0*4E
$GNRMC,035621.00,A,3727.1124912,N,12639.1993997,E,0.009,,220622,,,A,V*1F
$GNVTG,,T,,M,0.009,N,0.017,K,A*32
$GNGNS,035621.00,3727.1124912,N,12639.1993997,E,AAAA,27,0.64,22.030,17.834,,,V*2B
$GNGGA,035621.00,3727.1124912,N,12639.1993997,E,1,12,0.64,22.030,M,17.834,M,,*7D
$GNGSA,A,3,14,19,06,17,04,03,01,,,,,,1.11,0.64,0.91,1*01
$GNGSA,A,3,78,87,88,71,72,76,,,,,,,1.11,0.64,0.91,2*0B
$GNGSA,A,3,30,09,34,11,02,04,36,,,,,,1.11,0.64,0.91,3*06
$GNGSA,A,3,11,08,34,37,07,28,10,,,,,,1.11,0.64,0.91,4*08
$GPGSV,2,1,08,01,20,060,32,03,48,056,40,04,15,109,42,06,42,273,31,1*69
$GPGSV,2,2,08,09,11,140,27,14,44,193,30,17,74,010,46,19,55,322,33,1*65
$GPGSV,2,1,07,01,20,060,21,03,48,056,35,04,15,109,30,06,42,273,27,6*63
$GPGSV,2,2,07,09,11,140,23,14,44,193,21,17,74,010,40,6*54
$GPGSV,1,1,03,11,07,254,,40,06,259,,41,27,238,,0*57
$GLGSV,2,1,05,71,37,060,39,72,39,126,43,78,24,315,27,87,50,338,41,1*71
$GLGSV,2,2,05,88,20,293,46,1*45
$GLGSV,2,1,05,71,37,060,33,72,39,126,38,76,12,203,13,78,24,315,27,3*73
$GLGSV,2,2,05,88,20,293,35,3*43
$GLGSV,1,1,04,65,11,170,,70,04,021,,77,35,250,,86,30,062,,0*70
$GAGSV,2,1,08,02,49,222,24,04,13,051,24,09,24,103,45,11,19,065,23,2*74
$GAGSV,2,2,08,18,32,302,39,30,38,298,41,34,46,284,42,36,61,025,35,2*7D
$GAGSV,2,1,08,02,49,222,26,04,13,051,20,09,24,103,42,11,19,065,28,7*7B
$GAGSV,2,2,08,18,32,302,42,30,38,298,42,34,46,284,42,36,61,025,36,7*74
$GAGSV,1,1,02,15,01,261,,25,16,176,,0*76
$GBGSV,3,1,09,04,,,40,07,73,225,46,08,51,243,20,10,69,267,44,1*4F
$GBGSV,3,2,09,11,48,071,37,13,41,240,20,28,34,299,41,34,30,088,23,1*7C
$GBGSV,3,3,09,37,20,288,32,1*4A
$GBGSV,1,1,04,07,73,225,43,08,51,243,26,10,69,267,42,11,48,071,42,3*7B
$GBGSV,1,1,03,03,44,206,,12,04,096,,23,22,235,,0*4E
$GNRMC,035622.00,A,3727.1124932,N,12639.1994157,E,0.009,,220622,,,A,V*1D
$GNVTG,,T,,M,0.009,N,0.016,K,A*33
$GNGNS,035622.00,3727.1124932,N,12639.1994157,E,AAAA,27,0.64,22.085,17.834,,,V*27
$GNGGA,035622.00,3727.1124932,N,12639.1994157,E,1,12,0.64,22.085,M,17.834,M,,*71
$GNGSA,A,3,14,19,06,17,04,03,01,,,,,,1.11,0.64,0.91,1*01
$GNGSA,A,3,78,87,88,71,72,76,,,,,,,1.11,0.64,0.91,2*0B
$GNGSA,A,3,30,09,34,11,02,04,36,,,,,,1.11,0.64,0.91,3*06
$GNGSA,A,3,11,08,34,37,07,28,10,,,,,,1.11,0.64,0.91,4*08
$GPGSV,2,1,08,01,20,060,33,03,48,056,39,04,15,109,42,06,42,273,31,1*66
$GPGSV,2,2,08,09,11,140,27,14,44,193,31,17,74,010,46,19,55,322,34,1*63
$GPGSV,2,1,07,01,20,060,23,03,48,056,36,04,15,109,30,06,42,273,27,6*62
$GPGSV,2,2,07,09,11,140,23,14,44,193,22,17,74,010,40,6*57
$GPGSV,1,1,03,11,07,254,,40,06,259,,41,27,238,,0*57
$GLGSV,2,1,05,71,37,060,39,72,39,126,43,78,24,315,27,87,50,338,41,1*71
$GLGSV,2,2,05,88,20,293,46,1*45
$GLGSV,2,1,05,71,37,060,33,72,39,126,38,76,12,203,10,78,24,315,28,3*7F
$GLGSV,2,2,05,88,20,293,36,3*40
$GLGSV,1,1,04,65,11,170,,70,04,021,,77,35,250,,86,30,062,,0*70
$GAGSV,2,1,08,02,49,222,26,04,13,051,24,09,24,103,45,11,19,065,23,2*76
$GAGSV,2,2,08,18,32,302,39,30,38,298,40,34,46,284,42,36,61,025,35,2*7C
$GAGSV,2,1,08,02,49,222,24,04,13,051,19,09,24,103,42,11,19,065,27,7*7C
$GAGSV,2,2,08,18,32,302,42,30,38,298,42,34,46,284,42,36,61,025,36,7*74
$GAGSV,1,1,02,15,01,261,,25,16,176,,0*76
$GBGSV,3,1,09,04,,,40,07,73,225,46,08,51,243,20,10,69,267,44,1*4F
$GBGSV,3,2,09,11,48,071,37,13,41,240,21,28,34,299,41,34,30,088,23,1*7D
$GBGSV,3,3,09,37,20,288,33,1*4B
$GBGSV,1,1,04,07,73,225,44,08,51,243,26,10,69,267,42,11,48,071,42,3*7C
$GBGSV,1,1,03,03,44,206,,12,04,096,,23,22,235,,0*4E
$GNRMC,035623.00,A,3727.1124956,N,12639.1994284,E,0.009,,220622,,,A,V*13
$GNVTG,,T,,M,0.009,N,0.017,K,A*32
$GNGNS,035623.00,3727.1124956,N,12639.1994284,E,AAAA,27,0.64,22.137,17.834,,,V*21
$GNGGA,035623.00,3727.1124956,N,12639.1994284,E,1,12,0.64,22.137,M,17.834,M,,*77
$GNGSA,A,3,14,19,06,17,04,03,01,,,,,,1.11,0.64,0.91,1*01
$GNGSA,A,3,78,87,88,71,72,76,,,,,,,1.11,0.64,0.91,2*0B
$GNGSA,A,3,30,09,34,11,02,04,36,,,,,,1.11,0.64,0.91,3*06
$GNGSA,A,3,11,08,34,37,07,28,10,,,,,,1.11,0.64,0.91,4*08
$GPGSV,2,1,08,01,20,060,33,03,48,056,39,04,15,109,42,06,42,273,32,1*65
$GPGSV,2,2,08,09,11,140,28,14,44,193,31,17,74,010,46,19,55,322,33,1*6B
$GPGSV,2,1,07,01,20,060,23,03,48,056,37,04,15,109,30,06,42,273,27,6*63
$GPGSV,2,2,07,09,11,140,23,14,44,193,21,17,74,010,40,6*54
$GPGSV,1,1,03,11,07,254,,40,06,259,,41,27,238,,0*57
$GLGSV,2,1,05,71,37,060,39,72,39,126,43,78,24,315,27,87,50,338,41,1*71
$GLGSV,2,2,05,88,20,293,46,1*45
$GLGSV,2,1,05,71,37,060,34,72,39,126,39,76,12,203,12,78,24,315,29,3*7A
$GLGSV,2,2,05,88,20,293,37,3*41
$GLGSV,1,1,04,65,11,170,,70,04,021,,77,35,250,,86,30,062,,0*70
$GAGSV,2,1,08,02,49,222,26,04,13,051,24,09,24,103,45,11,19,065,22,2*77
$GAGSV,2,2,08,18,32,302,39,30,38,298,40,34,46,284,42,36,61,025,35,2*7C
$GAGSV,2,1,08,02,49,222,23,04,13,051,19,09,24,103,42,11,19,065,26,7*7A
$GAGSV,2,2,08,18,32,302,42,30,38,298,42,34,46,284,42,36,61,025,36,7*74
$GAGSV,1,1,02,15,01,261,,25,16,176,,0*76
$GBGSV,3,1,09,04,,,40,07,73,225,45,08,51,243,19,10,69,267,44,1*46
$GBGSV,3,2,09,11,48,071,37,13,41,240,20,28,34,299,42,34,30,088,26,1*7A
$GBGSV,3,3,09,37,20,288,33,1*4B
$GBGSV,1,1,04,07,73,225,44,08,51,243,26,10,69,267,42,11,48,071,43,3*7D
$GBGSV,1,1,03,03,44,206,,12,04,096,,23,22,235,,0*4E
$GNRMC,035624.00,A,3727.1124795,N,12639.1994268,E,0.025,,220622,,,A,V*19
$GNVTG,,T,,M,0.025,N,0.047,K,A*39
$GNGNS,035624.00,3727.1124795,N,12639.1994268,E,AAAA,27,0.70,22.188,17.834,,,V*24
$GNGGA,035624.00,3727.1124795,N,12639.1994268,E,1,12,0.70,22.188,M,17.834,M,,*72
$GNGSA,A,3,14,19,06,17,04,03,01,,,,,,1.15,0.70,0.91,1*00
$GNGSA,A,3,78,87,88,71,72,76,,,,,,,1.15,0.70,0.91,2*0A
$GNGSA,A,3,30,09,34,11,02,04,36,,,,,,1.15,0.70,0.91,3*07
$GNGSA,A,3,11,08,34,37,07,28,10,,,,,,1.15,0.70,0.91,4*09
$GPGSV,2,1,08,01,20,060,33,03,48,056,39,04,15,109,41,06,42,273,32,1*66
$GPGSV,2,2,08,09,11,140,28,14,44,193,30,17,74,010,46,19,55,322,32,1*6B
$GPGSV,2,1,07,01,20,060,22,03,48,056,37,04,15,109,31,06,42,273,28,6*6C
$GPGSV,2,2,07,09,11,140,23,14,44,193,20,17,74,010,40,6*55
$GPGSV,1,1,03,11,07,254,,40,06,259,,41,27,238,,0*57
$GLGSV,2,1,05,71,37,059,40,72,39,126,43,78,24,315,27,87,50,338,41,1*75
$GLGSV,2,2,05,88,20,293,46,1*45
$GLGSV,2,1,05,71,37,059,34,72,39,126,39,76,12,203,13,78,24,315,30,3*79
$GLGSV,2,2,05,88,20,293,37,3*41
$GLGSV,1,1,04,65,11,170,,70,04,021,,77,35,250,,86,30,062,,0*70
$GAGSV,2,1,08,02,49,222,26,04,13,051,24,09,24,103,45,11,19,065,22,2*77
$GAGSV,2,2,08,18,32,302,38,30,38,298,40,34,46,284,42,36,61,025,35,2*7D
$GAGSV,2,1,08,02,49,222,22,04,13,051,19,09,24,103,42,11,19,065,25,7*78
$GAGSV,2,2,08,18,32,302,42,30,38,298,42,34,46,284,42,36,61,025,36,7*74
$GAGSV,1,1,02,15,01,261,,25,16,176,,0*76
$GBGSV,3,1,09,04,,,40,07,73,225,45,08,51,243,19,10,69,267,44,1*46
$GNRMC,035625.00,A,3727.1124692,N,12639.1994139,E,0.004,,220622,,,A,V*1A
$GNVTG,,T,,M,0.004,N,0.008,K,A*31
$GNGNS,035625.00,3727.1124692,N,12639.1994139,E,AAAA,27,0.63,22.240,17.834,,,V*21
$GNGGA,035625.00,3727.1124692,N,12639.1994139,E,1,12,0.63,22.240,M,17.834,M,,*77
$GNGSA,A,3,14,19,06,17,04,03,01,,,,,,1.11,0.63,0.91,1*06
$GNGSA,A,3,78,87,88,71,72,76,,,,,,,1.11,0.63,0.91,2*0C
$GNGSA,A,3,30,09,34,11,02,04,36,,,,,,1.11,0.63,0.91,3*01
$GNGSA,A,3,11,08,34,37,07,28,10,,,,,,1.11,0.63,0.91,4*0F
$GPGSV,2,1,08,01,20,060,32,03,48,056,39,04,15,109,41,06,42,273,33,1*66
$GPGSV,2,2,08,09,11,140,28,14,44,193,30,17,74,010,46,19,55,322,33,1*6A
$GPGSV,2,1,07,01,20,060,21,03,48,056,37,04,15,109,31,06,42,273,28,6*6F
$GPGSV,2,2,07,09,11,140,22,14,44,193,18,17,74,010,40,6*5F
$GPGSV,1,1,03,11,07,254,,40,06,259,,41,27,238,,0*57
$GLGSV,2,1,05,71,37,059,40,72,40,125,43,78,24,315,28,87,50,338,41,1*77
$GLGSV,2,2,05,88,20,293,45,1*46
$GLGSV,2,1,05,71,37,059,34,72,40,125,39,76,12,203,12,78,24,315,30,3*75
$GLGSV,2,2,05,88,20,293,37,3*41
$GLGSV,1,1,04,65,11,170,,70,04,021,,77,35,250,,86,30,062,,0*70
$GAGSV,2,1,08,02,49,222,26,04,13,051,24,09,25,103,45,11,19,065,22,2*76
$GAGSV,2,2,08,18,32,302,38,30,38,298,40,34,46,284,42,36,61,025,34,2*7C
$GAGSV,2,1,08,02,49,222,23,04,13,051,19,09,25,103,42,11,19,065,25,7*78
$GAGSV,2,2,08,18,32,302,42,30,38,298,42,34,46,284,42,36,61,025,36,7*74
$GAGSV,1,1,02,15,01,261,,25,16,176,,0*76
$GBGSV,3,1,09,04,,,40,07,73,225,45,08,51,243,19,10,69,267,44,1*46
$GBGSV,3,2,09,11,48,071,36,13,41,240,18,28,34,299,42,34,30,088,25,1*73
$GBGSV,3,3,09,37,20,288,33,1*4B
$GBGSV,1,1,04,07,73,225,44,08,51,243,24,10,69,267,42,11,48,071,43,3*7F
$GBGSV,1,1,03,03,44,206,,12,04,096,,23,22,235,,0*4E
$GNRMC,035626.00,A,3727.1124789,N,12639.1994230,E,0.004,,220622,,,A,V*18
$GNVTG,,T,,M,0.004,N,0.007,K,A*3E
$GNGNS,035626.00,3727.1124789,N,12639.1994230,E,AAAA,27,0.63,22.281,17.834,,,V*2E
$GNGGA,035626.00,3727.1124789,N,12639.1994230,E,1,12,0.63,22.281,M,17.834,M,,*78
$GNGSA,A,3,14,19,06,17,04,03,01,,,,,,1.11,0.63,0.91,1*06
$GNGSA,A,3,78,87,88,71,72,76,,,,,,,1.11,0.63,0.91,2*0C
$GNGSA,A,3,30,09,34,11,02,04,36,,,,,,1.11,0.63,0.91,3*01
$GNGSA,A,3,11,08,34,37,07,28,10,,,,,,1.11,0.63,0.91,4*0F
$GPGSV,2,1,08,01,20,060,32,03,48,056,39,04,15,109,41,06,42,273,33,1*66
$GPGSV,2,2,08,09,11,140,28,14,44,193,29,17,74,010,46,19,55,322,33,1*62
$GPGSV,2,1,07,01,20,060,22,03,48,056,37,04,15,109,31,06,42,273,29,6*6D
$GPGSV,2,2,07,09,11,140,21,14,44,193,18,17,74,010,40,6*5C
$GPGSV,1,1,03,11,07,254,,40,06,259,,41,27,238,,0*57
$GLGSV,2,1,05,71,37,059,39,72,40,125,43,78,24,315,28,87,50,338,41,1*79
$GLGSV,2,2,05,88,20,293,45,1*46
$GLGSV,2,1,05,71,37,059,33,72,40,125,39,76,12,203,08,78,24,315,29,3*71
$GLGSV,2,2,05,88,20,293,36,3*40
$GLGSV,1,1,04,65,11,170,,70,04,021,,77,35,250,,86,30,062,,0*70
$GAGSV,2,1,08,02,49,222,26,04,13,051,23,09,25,103,45,11,19,065,22,2*71
$GAGSV,2,2,08,18,32,302,38,30,38,298,40,34,46,284,41,36,61,025,34,2*7F
$GAGSV,2,1,08,02,49,222,24,04,13,051,18,09,25,103,42,11,19,065,24,7*7F
$GAGSV,2,2,08,18,32,302,42,30,38,298,42,34,46,284,42,36,61,025,36,7*74
$GAGSV,1,1,02,15,01,261,,25,16,176,,0*76
$GBGSV,3,1,09,04,,,40,07,73,225,45,08,51,243,19,10,69,267,44,1*46
$GBGSV,3,2,09,11,48,071,35,13,41,240,17,28,34,299,42,34,30,088,26,1*7C
$GBGSV,3,3,09,37,20,288,33,1*4B
$GBGSV,1,1,04,07,73,225,44,08,51,243,24,10,69,267,42,11,48,071,43,3*7F
$GBGSV,1,1,03,03,44,206,,12,04,096,,23,22,235,,0*4E
$GNRMC,035627.00,A,3727.1124890,N,12639.1994259,E,0.020,,220622,,,A,V*17
$GNVTG,,T,,M,0.020,N,0.036,K,A*3A
$GNGNS,035627.00,3727.1124890,N,12639.1994259,E,AAAA,27,0.63,22.318,17.834,,,V*26
$GNGGA,035627.00,3727.1124890,N,12639.1994259,E,1,12,0.63,22.318,M,17.834,M,,*70
$GNGSA,A,3,14,19,06,17,04,03,01,,,,,,1.11,0.63,0.91,1*06
$GNGSA,A,3,78,87,88,71,72,76,,,,,,,1.11,0.63,0.91,2*0C
$GNGSA,A,3,30,09,34,11,02,04,36,,,,,,1.11,0.63,0.91,3*01
$GNGSA,A,3,11,08,34,37,07,28,10,,,,,,1.11,0.63,0.91,4*0F
$GPGSV,2,1,08,01,20,060,32,03,48,056,39,04,15,109,41,06,42,273,33,1*66
$GPGSV,2,2,08,09,11,140,28,14,44,193,29,17,74,010,46,19,55,322,35,1*64
$GPGSV,2,1,07,01,20,060,23,03,48,056,37,04,15,109,31,06,42,273,29,6*6C
$GPGSV,2,2,07,09,11,140,21,14,44,193,18,17,74,010,41,6*5D
$GPGSV,1,1,03,11,07,254,,40,06,259,,41,27,238,,0*57
$GLGSV,2,1,05,71,37,059,39,72,40,125,43,78,24,315,27,87,50,338,41,1*76
$GLGSV,2,2,05,88,20,293,45,1*46
$GLGSV,2,1,05,71,37,059,32,72,40,125,39,76,12,203,11,78,24,315,30,3*70
$GLGSV,2,2,05,88,20,293,36,3*40
$GLGSV,1,1,04,65,11,170,,70,04,021,,77,35,250,,86,30,062,,0*70
$GAGSV,2,1,08,02,49,222,26,04,13,051,23,09,25,103,45,11,19,065,22,2*71
$GAGSV,2,2,08,18,32,302,38,30,38,298,40,34,46,284,42,36,61,025,34,2*7C
$GAGSV,2,1,08,02,49,222,25,04,13,051,18,09,25,103,42,11,19,065,25,7*7F
$GAGSV,2,2,08,18,32,302,42,30,38,298,42,34,46,284,42,36,61,025,36,7*74
$GAGSV,1,1,02,15,01,261,,25,16,176,,0*76
$GBGSV,3,1,09,04,,,40,07,73,225,45,08,51,243,17,10,69,267,44,1*48
$GBGSV,3,2,09,11,48,071,35,13,41,240,16,28,34,299,42,34,30,088,26,1*7D
$GBGSV,3,3,09,37,20,288,33,1*4B
$GBGSV,1,1,04,07,73,225,44,08,51,243,24,10,69,267,42,11,48,071,43,3*7F
$GBGSV,1,1,03,03,44,206,,12,04,096,,23,22,235,,0*4E
$GNRMC,035628.00,A,3727.1124928,N,12639.1994359,E,0.011,,220622,,,A,V*19
$GNVTG,,T,,M,0.011,N,0.021,K,A*3E
$GNGNS,035628.00,3727.1124928,N,12639.1994359,E,AAAA,27,0.64,22.361,17.834,,,V*23
$GNGGA,035628.00,3727.1124928,N,12639.1994359,E,1,12,0.64,22.361,M,17.834,M,,*75
$GNGSA,A,3,14,19,06,17,04,03,01,,,,,,1.11,0.64,0.91,1*01
$GNGSA,A,3,78,87,88,71,72,76,,,,,,,1.11,0.64,0.91,2*0B
$GNGSA,A,3,30,09,34,11,02,04,36,,,,,,1.11,0.64,0.91,3*06
$GNGSA,A,3,11,08,34,37,07,28,10,,,,,,1.11,0.64,0.91,4*08
$GPGSV,2,1,08,01,20,060,32,03,48,056,39,04,15,109,41,06,42,273,34,1*61
$GPGSV,2,2,08,09,11,140,28,14,44,193,29,17,74,010,46,19,55,322,35,1*64
$GPGSV,2,1,07,01,20,060,24,03,48,056,37,04,15,109,31,06,42,273,30,6*63
$GPGSV,2,2,07,09,11,140,21,14,44,193,18,17,74,010,41,6*5D
$GPGSV,1,1,03,11,07,254,,40,06,259,,41,27,238,,0*57
$GLGSV,2,1,05,71,37,059,39,72,40,125,43,78,24,315,28,87,50,338,40,1*78
$GLGSV,2,2,05,88,20,293,44,1*47
$GLGSV,2,1,05,71,37,059,34,72,40,125,38,76,12,203,14,78,24,315,31,3*73
$GLGSV,2,2,05,88,20,293,36,3*40
$GLGSV,1,1,04,65,11,170,,70,04,021,,77,35,250,,86,30,062,,0*70
$GAGSV,2,1,08,02,49,222,26,04,13,051,23,09,25,103,45,11,19,065,23,2*70
$GAGSV,2,2,08,18,32,302,38,30,38,298,41,34,46,284,42,36,61,025,34,2*7D
$GAGSV,2,1,08,02,49,222,25,04,13,051,20,09,25,103,42,11,19,065,25,7*74
$GAGSV,2,2,08,18,32,302,42,30,38,298,42,34,46,284,42,36,61,025,36,7*74
$GAGSV,1,1,02,15,01,261,,25,16,176,,0*76
$GBGSV,3,1,09,04,,,41,07,73,225,45,08,51,243,17,10,69,267,44,1*49
$GBGSV,3,2,09,11,48,071,35,13,41,240,17,28,34,299,42,34,30,088,25,1*7F
$GBGSV,3,3,09,37,20,288,31,1*49
$GBGSV,1,1,04,07,73,225,44,08,51,243,23,10,69,267,42,11,48,071,43,3*78
$GBGSV,1,1,03,03,44,206,,12,04,096,,23,22,235,,0*4E
$GNRMC,035629.00,A,3727.1125049,N,12639.1994433,E,0.015,,220622,,,A,V*18
$GNVTG,,T,,M,0.015,N,0.027,K,A*3C
$GNGNS,035629.00,3727.1125049,N,12639.1994433,E,AAAA,27,0.65,22.397,17.834,,,V*2E
$GNGGA,035629.00,3727.1125049,N,12639.1994433,E,1,12,0.65,22.397,M,17.834,M,,*78
$GNGSA,A,3,14,19,06,17,04,03,01,,,,,,1.14,0.65,0.94,1*00
$GNGSA,A,3,78,87,88,71,72,76,,,,,,,1.14,0.65,0.94,2*0A
$GNGSA,A,3,30,09,34,11,02,04,36,,,,,,1.14,0.65,0.94,3*07
$GNGSA,A,3,11,08,34,37,07,28,10,,,,,,1.14,0.65,0.94,4*09
$GPGSV,2,1,08,01,20,060,32,03,48,056,38,04,15,109,40,06,42,273,35,1*60
$GPGSV,2,2,08,09,11,140,28,14,44,193,29,17,74,010,46,19,55,322,36,1*67
$GPGSV,2,1,07,01,20,060,25,03,48,056,36,04,15,109,31,06,42,273,31,6*62
$GPGSV,2,2,07,09,11,140,20,14,44,193,19,17,74,010,41,6*5D
$GPGSV,1,1,03,11,07,254,,40,06,259,,41,27,238,,0*57
$GLGSV,2,1,06,71,37,059,38,72,40,125,44,76,11,203,18,78,24,315,27,1*7D
$GLGSV,2,2,06,87,50,338,40,88,20,293,44,1*72
$GLGSV,2,1,05,71,37,059,34,72,40,125,38,76,11,203,15,78,24,315,31,3*71
$GLGSV,2,2,05,88,20,293,36,3*40
$GLGSV,1,1,04,65,11,170,,70,04,021,,77,35,250,,86,30,062,,0*70
$GAGSV,2,1,08,02,49,222,26,04,13,051,24,09,25,103,44,11,19,065,23,2*76
$GAGSV,2,2,08,18,32,302,38,30,38,298,41,34,46,284,42,36,61,025,34,2*7D
$GAGSV,2,1,08,02,49,222,25,04,13,051,21,09,25,103,43,11,19,065,25,7*74
$GAGSV,2,2,08,18,32,302,42,30,38,298,42,34,46,284,42,36,61,025,36,7*74
$GAGSV,1,1,02,15,01,261,,25,16,176,,0*76
$GBGSV,3,1,09,04,,,40,07,73,225,45,08,51,243,17,10,69,267,44,1*48
$GBGSV,3,2,09,11,48,071,35,13,41,240,17,28,34,299,42,34,30,088,26,1*7C
$GBGSV,3,3,09,37,20,288,31,1*49
$GBGSV,1,1,04,07,73,225,44,08,51,243,24,10,69,267,42,11,48,071,44,3*78
$GBGSV,1,1,03,03,44,206,,12,04,096,,23,22,235,,0*4E
$GNRMC,035630.00,A,3727.1125128,N,12639.1994517,E,0.009,,220622,,,A,V*1C
$GNVTG,,T,,M,0.009,N,0.017,K,A*32
$GNGNS,035630.00,3727.1125128,N,12639.1994517,E,AAAA,27,0.65,22.441,17.834,,,V*2B
$GNGGA,035630.00,3727.1125128,N,12639.1994517,E,1,12,0.65,22.441,M,17.834,M,,*7D
$GNGSA,A,3,14,19,06,17,04,03,01,,,,,,1.14,0.65,0.94,1*00
$GNGSA,A,3,78,87,88,71,72,76,,,,,,,1.14,0.65,0.94,2*0A
$GNGSA,A,3,30,09,34,11,02,04,36,,,,,,1.14,0.65,0.94,3*07
$GNGSA,A,3,11,08,34,37,07,28,10,,,,,,1.14,0.65,0.94,4*09
$GPGSV,2,1,08,01,20,060,32,03,48,056,39,04,15,109,40,06,42,273,35,1*61
$GPGSV,2,2,08,09,11,140,28,14,44,193,29,17,74,010,47,19,55,322,36,1*66
$GPGSV,2,1,07,01,20,060,25,03,48,056,36,04,15,109,31,06,42,273,31,6*62
$GPGSV,2,2,07,09,11,140,20,14,44,193,20,17,74,010,40,6*56
$GPGSV,1,1,03,11,07,254,,40,06,259,,41,27,238,,0*57
$GLGSV,2,1,06,71,37,059,37,72,40,125,44,76,11,203,17,78,24,315,27,1*7D
$GLGSV,2,2,06,87,50,338,40,88,20,293,43,1*75
$GLGSV,2,1,05,71,37,059,34,72,40,125,38,76,11,203,14,78,24,315,31,3*70
$GLGSV,2,2,05,88,20,293,36,3*40
$GLGSV,1,1,04,65,11,170,,70,04,021,,77,34,249,,86,30,062,,0*79
$GAGSV,2,1,08,02,49,222,26,04,13,051,25,09,25,103,44,11,19,065,23,2*77
$GAGSV,2,2,08,18,32,302,38,30,38,298,41,34,46,284,42,36,61,025,34,2*7D
$GAGSV,2,1,08,02,49,222,25,04,13,051,23,09,25,103,43,11,19,065,24,7*77
$GAGSV,2,2,08,18,32,302,42,30,38,298,42,34,46,284,42,36,61,025,36,7*74
$GAGSV,1,1,02,15,01,261,,25,16,176,,0*76
$GBGSV,3,1,09,04,,,40,07,73,225,45,08,51,243,17,10,69,267,44,1*48
$GBGSV,3,2,09,11,48,071,35,13,41,240,19,28,34,299,42,34,30,088,26,1*72
$GBGSV,3,3,09,37,20,288,31,1*49
$GNRMC,035631.00,A,3727.1125080,N,12639.1994488,E,0.039,,220622,,,A,V*1A
$GNVTG,,T,,M,0.039,N,0.071,K,A*31
$GNGNS,035631.00,3727.1125080,N,12639.1994488,E,AAAA,27,0.65,22.488,17.834,,,V*2B
$GNGGA,035631.00,3727.1125080,N,12639.1994488,E,1,12,0.65,22.488,M,17.834,M,,*7D
$GNGSA,A,3,14,19,06,17,04,03,01,,,,,,1.14,0.65,0.94,1*00
$GNGSA,A,3,78,87,88,71,72,76,,,,,,,1.14,0.65,0.94,2*0A
$GNGSA,A,3,30,09,34,11,02,04,36,,,,,,1.14,0.65,0.94,3*07
$GNGSA,A,3,11,08,34,37,07,28,10,,,,,,1.14,0.65,0.94,4*09
$GPGSV,2,1,08,01,20,060,32,03,48,056,39,04,15,109,40,06,42,273,34,1*60
$GPGSV,2,2,08,09,11,140,28,14,44,193,28,17,74,010,47,19,55,322,36,1*67
$GPGSV,2,1,07,01,20,060,25,03,48,056,37,04,15,109,31,06,42,273,30,6*62
$GPGSV,2,2,07,09,11,140,21,14,44,193,20,17,74,010,40,6*57
$GPGSV,1,1,03,11,07,254,,40,06,259,,41,27,238,,0*57
$GLGSV,2,1,06,71,37,059,37,72,40,125,44,76,11,203,15,78,24,314,27,1*7E
$GLGSV,2,2,06,87,50,338,40,88,20,293,43,1*75
$GLGSV,2,1,05,71,37,059,33,72,40,125,38,76,11,203,11,78,24,314,31,3*73
$GLGSV,2,2,05,88,20,293,36,3*40
$GLGSV,1,1,04,65,11,170,,70,04,021,,77,34,249,,86,30,062,,0*79
$GAGSV,2,1,08,02,49,222,26,04,13,051,25,09,25,103,44,11,19,065,24,2*70
$GAGSV,2,2,08,18,32,302,38,30,38,298,41,34,46,284,42,36,61,025,34,2*7D
$GAGSV,2,1,08,02,49,222,25,04,13,051,25,09,25,103,42,11,19,065,24,7*70
$GAGSV,2,2,08,18,32,302,42,30,38,298,42,34,46,284,42,36,61,025,36,7*74
$GAGSV,1,1,02,15,01,261,,25,16,176,,0*76
$GBGSV,3,1,09,04,,,40,07,73,225,45,08,51,243,18,10,69,267,44,1*47
$GBGSV,3,2,09,11,48,071,35,13,41,240,19,28,34,299,42,34,30,088,27,1*73
$GBGSV,3,3,09,37,20,288,31,1*49
$GBGSV,1,1,04,07,73,225,44,08,51,243,24,10,69,267,42,11,48,071,44,3*78
$GBGSV,1,1,03,03,44,206,,12,04,096,,23,22,235,,0*4E
$GNRMC,035632.00,A,3727.1124959,N,12639.1994295,E,0.019,,220622,,,A,V*1D
$GNVTG,,T,,M,0.019,N,0.035,K,A*33
$GNGNS,035632.00,3727.1124959,N,12639.1994295,E,AAAA,27,0.65,22.547,17.834,,,V*2C
$GNGGA,035632.00,3727.1124959,N,12639.1994295,E,1,12,0.65,22.547,M,17.834,M,,*7A
$GNGSA,A,3,14,19,06,17,04,03,01,,,,,,1.14,0.65,0.94,1*00
$GNGSA,A,3,78,87,88,71,72,76,,,,,,,1.14,0.65,0.94,2*0A
$GNGSA,A,3,30,09,34,11,02,04,36,,,,,,1.14,0.65,0.94,3*07
$GNGSA,A,3,11,08,34,37,07,28,10,,,,,,1.14,0.65,0.94,4*09
$GPGSV,2,1,08,01,20,060,32,03,48,056,38,04,15,109,40,06,42,273,35,1*60
$GPGSV,2,2,08,09,11,140,27,14,44,193,28,17,74,010,47,19,55,322,37,1*69
$GPGSV,2,1,07,01,20,060,26,03,48,056,37,04,15,109,31,06,42,273,30,6*61
$GPGSV,2,2,07,09,11,140,21,14,44,193,20,17,74,010,40,6*57
$GPGSV,1,1,03,11,07,254,,40,06,259,,41,27,238,,0*57
$GLGSV,2,1,06,71,37,059,37,72,40,125,44,76,11,203,15,78,24,314,27,1*7E
$GLGSV,2,2,06,87,50,338,40,88,20,293,43,1*75
$GLGSV,2,1,05,71,37,059,33,72,40,125,37,76,11,203,10,78,24,314,31,3*7D
$GLGSV,2,2,05,88,20,293,37,3*41
$GLGSV,1,1,04,65,11,170,,70,04,021,,77,34,249,,86,30,062,,0*79
$GAGSV,2,1,08,02,49,222,26,04,13,051,25,09,25,103,44,11,19,065,23,2*77
$GAGSV,2,2,08,18,32,302,38,30,38,298,41,34,46,284,42,36,61,025,34,2*7D
$GAGSV,2,1,08,02,49,222,25,04,13,051,25,09,25,103,42,11,19,065,24,7*70
$GAGSV,2,2,08,18,32,302,42,30,38,298,41,34,46,284,42,36,61,025,36,7*77
$GAGSV,1,1,02,15,01,261,,25,16,176,,0*76
$GBGSV,3,1,09,04,,,40,07,73,225,45,08,51,243,17,10,69,267,44,1*48
$GBGSV,3,2,09,11,48,071,34,13,41,240,20,28,34,299,42,34,30,088,28,1*77
$GBGSV,3,3,09,37,20,288,31,1*49
$GBGSV,1,1,04,07,73,225,44,08,51,243,24,10,69,267,42,11,48,071,44,3*78
$GBGSV,1,1,03,03,44,206,,12,04,096,,23,22,235,,0*4E
$GNRMC,035633.00,A,3727.1124882,N,12639.1994176,E,0.023,,220622,,,A,V*1C
$GNVTG,,T,,M,0.023,N,0.042,K,A*3A
$GNGNS,035633.00,3727.1124882,N,12639.1994176,E,AAAA,27,0.65,22.596,17.834,,,V*28
$GNGGA,035633.00,3727.1124882,N,12639.1994176,E,1,12,0.65,22.596,M,17.834,M,,*7E
$GNGSA,A,3,14,19,06,17,04,03,01,,,,,,1.14,0.65,0.94,1*00
$GNGSA,A,3,78,87,88,71,72,76,,,,,,,1.14,0.65,0.94,2*0A
$GNGSA,A,3,30,09,34,11,02,04,36,,,,,,1.14,0.65,0.94,3*07
$GNGSA,A,3,11,08,34,37,07,28,10,,,,,,1.14,0.65,0.94,4*09
$GPGSV,2,1,08,01,20,060,31,03,48,056,38,04,15,109,40,06,42,273,35,1*63
$GPGSV,2,2,08,09,11,140,27,14,44,193,28,17,74,010,47,19,55,322,37,1*69
$GPGSV,2,1,07,01,20,060,26,03,48,056,36,04,15,109,31,06,42,273,30,6*60
$GPGSV,2,2,07,09,11,140,20,14,44,193,19,17,74,010,40,6*5C
$GPGSV,1,1,03,11,07,254,,40,06,259,,41,27,238,,0*57
$GLGSV,2,1,07,71,37,059,37,72,40,125,44,76,11,203,17,77,34,249,18,1*76
$GLGSV,2,2,07,78,24,314,28,87,50,338,39,88,20,293,43,1*4F
$GLGSV,2,1,05,71,37,059,34,72,40,125,38,76,11,203,10,78,24,314,31,3*75
$GLGSV,2,2,05,88,20,293,37,3*41
$GLGSV,1,1,03,65,11,170,,70,04,021,,86,30,062,,0*46
$GAGSV,2,1,08,02,49,222,26,04,13,051,26,09,25,103,44,11,19,065,23,2*74
$GAGSV,2,2,08,18,32,302,38,30,38,298,41,34,46,284,42,36,61,025,34,2*7D
$GAGSV,2,1,08,02,49,222,25,04,13,051,26,09,25,103,42,11,19,065,24,7*73
$GAGSV,2,2,08,18,32,302,42,30,38,298,41,34,46,284,42,36,61,025,37,7*76
$GAGSV,1,1,02,15,01,261,,25,16,176,,0*76
$GBGSV,3,1,09,04,,,40,07,73,225,45,08,51,243,16,10,69,267,44,1*49
$GBGSV,3,2,09,11,48,071,35,13,41,240,19,28,34,299,42,34,30,088,29,1*7D
$GBGSV,3,3,09,37,20,288,32,1*4A
$GBGSV,1,1,04,07,73,225,44,08,51,243,25,10,69,267,42,11,48,071,44,3*79
$GNRMC,035634.00,A,3727.1124747,N,12639.1994062,E,0.004,,220622,,,A,V*1C
$GNVTG,,T,,M,0.004,N,0.007,K,A*3E
$GNGNS,035634.00,3727.1124747,N,12639.1994062,E,AAAA,27,0.65,22.655,17.834,,,V*21
$GNGGA,035634.00,3727.1124747,N,12639.1994062,E,1,12,0.65,22.655,M,17.834,M,,*77
$GNGSA,A,3,14,19,06,17,04,03,01,,,,,,1.14,0.65,0.94,1*00
$GNGSA,A,3,78,87,88,71,72,76,,,,,,,1.14,0.65,0.94,2*0A
$GNGSA,A,3,30,09,34,11,02,04,36,,,,,,1.14,0.65,0.94,3*07
$GNGSA,A,3,11,08,34,37,07,28,10,,,,,,1.14,0.65,0.94,4*09
$GPGSV,3,1,09,01,20,060,30,03,48,056,39,04,15,109,40,06,42,273,35,1*63
$GPGSV,3,2,09,09,11,140,26,14,44,193,28,17,74,010,47,19,55,322,37,1*68
$GPGSV,3,3,09,41,27,238,27,1*51
$GPGSV,2,1,07,01,20,060,26,03,48,056,37,04,15,109,31,06,42,273,29,6*69
$GPGSV,2,2,07,09,11,140,19,14,44,193,19,17,74,010,40,6*56
$GPGSV,1,1,02,11,07,254,,40,06,259,,0*6F
$GLGSV,2,1,07,71,37,059,37,72,40,125,44,76,11,203,18,77,34,249,17,1*76
$GLGSV,2,2,07,78,24,314,27,87,50,338,39,88,20,293,43,1*40
$GLGSV,2,1,05,71,37,059,34,72,40,125,38,76,11,203,10,78,24,314,32,3*76
$GLGSV,2,2,05,88,20,293,37,3*41
$GLGSV,1,1,03,65,11,170,,70,04,021,,86,30,062,,0*46
$GAGSV,2,1,08,02,49,222,27,04,13,051,25,09,25,103,44,11,19,065,24,2*71
$GAGSV,2,2,08,18,32,302,38,30,38,298,41,34,46,284,42,36,61,025,33,2*7A
$GAGSV,2,1,08,02,49,222,25,04,13,051,27,09,25,103,43,11,19,065,24,7*73
$GAGSV,2,2,08,18,32,302,42,30,38,298,41,34,46,284,42,36,61,025,37,7*76
$GAGSV,1,1,02,15,01,261,,25,16,176,,0*76
$GBGSV,3,1,09,04,,,40,07,73,225,45,08,51,243,15,10,69,267,44,1*4A
$GBGSV,3,2,09,11,48,071,35,13,41,240,17,28,34,299,42,34,30,088,32,1*79
$GBGSV,3,3,09,37,20,288,31,1*49
$GBGSV,1,1,04,07,73,225,44,08,51,243,24,10,69,267,42,11,48,071,44,3*78
$GBGSV,1,1,03,03,44,206,,12,04,096,,23,22,235,,0*4E
$GNRMC,035635.00,A,3727.1124546,N,12639.1993919,E,0.010,,220622,,,A,V*19
$GNVTG,,T,,M,0.010,N,0.019,K,A*34
$GNGNS,035635.00,3727.1124546,N,12639.1993919,E,AAAA,27,0.63,22.725,17.834,,,V*21
$GNGGA,035635.00,3727.1124546,N,12639.1993919,E,1,12,0.63,22.725,M,17.834,M,,*77
$GNGSA,A,3,14,19,06,17,04,03,01,,,,,,1.11,0.63,0.91,1*06
$GNGSA,A,3,78,87,88,71,72,76,,,,,,,1.11,0.63,0.91,2*0C
$GNGSA,A,3,30,09,34,11,02,04,36,,,,,,1.11,0.63,0.91,3*01
$GNGSA,A,3,11,08,34,37,07,28,10,,,,,,1.11,0.63,0.91,4*0F
$GPGSV,3,1,09,01,20,060,30,03,48,056,39,04,15,109,40,06,42,273,35,1*63
$GPGSV,3,2,09,09,11,140,26,14,44,193,28,17,74,010,47,19,55,322,37,1*68
$GPGSV,3,3,09,41,27,238,27,1*51
$GPGSV,2,1,07,01,20,060,26,03,48,056,37,04,15,109,31,06,42,273,29,6*69
$GPGSV,2,2,07,09,11,140,18,14,44,193,18,17,74,010,40,6*56
$GPGSV,1,1,02,11,07,254,,40,06,259,,0*6F
$GLGSV,2,1,07,71,37,059,37,72,40,125,44,76,11,203,19,77,34,249,16,1*76
$GLGSV,2,2,07,78,24,314,27,87,50,338,39,88,20,293,44,1*47
$GLGSV,2,1,05,71,37,059,34,72,40,125,38,76,11,203,09,78,24,314,32,3*7E
$GLGSV,2,2,05,88,20,293,37,3*41
$GLGSV,1,1,03,65,11,170,,70,04,021,,86,30,062,,0*46
$GAGSV,2,1,08,02,49,222,27,04,13,051,25,09,25,103,45,11,19,065,25,2*71
$GAGSV,2,2,08,18,32,302,38,30,38,298,41,34,46,284,42,36,61,025,33,2*7A
$GAGSV,2,1,08,02,49,222,25,04,13,051,27,09,25,103,43,11,19,065,23,7*74
$GAGSV,2,2,08,18,32,302,42,30,38,298,41,34,46,284,42,36,61,025,37,7*76
$GAGSV,1,1,02,15,01,261,,25,16,176,,0*76
$GBGSV,3,1,09,04,,,40,07,73,225,45,08,51,243,13,10,69,267,44,1*4C
$GBGSV,3,2,09,11,48,071,35,13,41,240,15,28,34,299,42,34,30,088,31,1*78
$GBGSV,3,3,09,37,20,288,31,1*49
$GBGSV,1,1,04,07,73,225,44,08,51,243,24,10,69,267,42,11,48,071,44,3*78
$GBGSV,1,1,03,03,44,206,,12,04,096,,23,22,235,,0*4E
$GNRMC,035636.00,A,3727.1124374,N,12639.1993774,E,0.015,,220622,,,A,V*1D
$GNVTG,,T,,M,0.015,N,0.028,K,A*33
$GNGNS,035636.00,3727.1124374,N,12639.1993774,E,AAAA,27,0.63,22.804,17.834,,,V*2C
$GNGGA,035636.00,3727.1124374,N,12639.1993774,E,1,12,0.63,22.804,M,17.834,M,,*7A
$GNGSA,A,3,14,19,06,17,04,03,01,,,,,,1.11,0.63,0.91,1*06
$GNGSA,A,3,78,87,88,71,72,76,,,,,,,1.11,0.63,0.91,2*0C
$GNGSA,A,3,30,09,34,11,02,04,36,,,,,,1.11,0.63,0.91,3*01
$GNGSA,A,3,11,08,34,37,07,28,10,,,,,,1.11,0.63,0.91,4*0F
$GPGSV,3,1,09,01,20,060,29,03,48,056,39,04,15,109,42,06,42,273,35,1*69
$GPGSV,3,2,09,09,11,140,25,14,44,193,28,17,74,010,47,19,55,322,36,1*6A
$GPGSV,3,3,09,41,27,238,27,1*51
$GPGSV,2,1,07,01,20,060,27,03,48,056,37,04,15,109,30,06,42,273,30,6*61
$GPGSV,2,2,07,09,11,140,18,14,44,193,18,17,74,010,40,6*56
$GPGSV,1,1,02,11,07,254,,40,06,259,,0*6F
$GLGSV,2,1,07,71,37,059,37,72,40,125,44,76,11,203,21,77,34,249,16,1*7D
$GLGSV,2,2,07,78,24,314,27,87,50,338,40,88,20,293,44,1*49
$GLGSV,2,1,05,71,37,059,34,72,40,125,38,76,11,203,10,78,24,314,32,3*76
$GLGSV,2,2,05,88,20,293,38,3*4E
$GLGSV,1,1,03,65,11,170,,70,04,021,,86,30,062,,0*46
$GAGSV,2,1,08,02,49,222,27,04,13,051,24,09,25,103,45,11,19,065,26,2*73
$GAGSV,2,2,08,18,32,302,38,30,38,298,41,34,46,284,42,36,61,025,33,2*7A
$GAGSV,2,1,08,02,49,222,25,04,13,051,28,09,25,103,43,11,19,065,23,7*7B
$GAGSV,2,2,08,18,32,302,42,30,38,298,41,34,46,284,42,36,61,025,37,7*76
$GAGSV,1,1,02,15,01,261,,25,16,176,,0*76
$GBGSV,3,1,09,04,,,40,07,73,225,45,08,51,243,12,10,69,267,44,1*4D
$GNRMC,035637.00,A,3727.1124257,N,12639.1993673,E,0.041,,220622,,,A,V*1B
$GNVTG,,T,,M,0.041,N,0.076,K,A*39
$GNGNS,035637.00,3727.1124257,N,12639.1993673,E,AAAA,28,0.55,22.878,17.834,,,V*2A
$GNGGA,035637.00,3727.1124257,N,12639.1993673,E,1,12,0.55,22.878,M,17.834,M,,*73
$GNGSA,A,3,14,19,06,17,04,03,01,,,,,,0.98,0.55,0.81,1*02
$GNGSA,A,3,77,78,87,88,71,72,76,,,,,,0.98,0.55,0.81,2*08
$GNGSA,A,3,30,09,34,11,02,04,36,,,,,,0.98,0.55,0.81,3*05
$GNGSA,A,3,11,08,34,37,07,28,10,,,,,,0.98,0.55,0.81,4*0B
$GPGSV,2,1,08,01,20,060,28,03,48,056,39,04,15,109,40,06,42,273,36,1*69
$GPGSV,2,2,08,09,11,140,24,14,44,193,28,17,74,010,47,19,55,322,37,1*6A
$GPGSV,2,1,07,01,20,060,26,03,48,056,37,04,15,109,30,06,42,273,29,6*68
$GPGSV,2,2,07,09,11,140,18,14,44,193,17,17,74,010,40,6*59
$GPGSV,1,1,03,11,07,254,,40,06,259,,41,27,238,,0*57
$GLGSV,2,1,07,71,37,059,37,72,40,125,44,76,11,203,21,77,34,249,16,1*7D
$GLGSV,2,2,07,78,24,314,27,87,50,338,40,88,20,293,44,1*49
$GLGSV,2,1,05,71,37,059,33,72,40,125,38,76,11,203,09,78,24,314,32,3*79
$GLGSV,2,2,05,88,20,293,38,3*4E
$GLGSV,1,1,03,65,11,170,,70,04,021,,86,30,062,,0*46
$GAGSV,2,1,08,02,49,222,27,04,13,051,24,09,25,103,45,11,19,065,27,2*72
$GAGSV,2,2,08,18,32,302,38,30,38,298,41,34,46,284,42,36,61,025,33,2*7A
$GAGSV,2,1,08,02,49,222,25,04,13,051,28,09,25,103,43,11,19,065,23,7*7B
$GAGSV,2,2,08,18,32,302,42,30,38,298,41,34,46,284,42,36,61,025,37,7*76
$GAGSV,1,1,02,15,01,261,,25,16,176,,0*76
$GBGSV,2,1,08,04,,,40,07,73,225,45,08,51,243,14,10,69,267,44,1*4B
$GBGSV,2,2,08,11,48,071,35,28,34,299,42,34,30,088,34,37,20,288,29,1*77
$GBGSV,1,1,04,07,73,225,44,08,51,243,23,10,69,267,42,11,48,071,43,3*78
$GBGSV,1,1,04,03,44,206,,12,04,096,,13,41,240,,23,22,235,,0*78
$GNRMC,035638.00,A,3727.1124104,N,12639.1993549,E,0.015,,220622,,,A,V*1A
$GNVTG,,T,,M,0.015,N,0.028,K,A*33
$GNGNS,035638.00,3727.1124104,N,12639.1993549,E,AAAA,28,0.55,22.961,17.834,,,V*23
$GNGGA,035638.00,3727.1124104,N,12639.1993549,E,1,12,0.55,22.961,M,17.834,M,,*7A
$GNGSA,A,3,14,19,06,17,04,03,01,,,,,,0.98,0.55,0.81,1*02
$GNGSA,A,3,77,78,87,88,71,72,76,,,,,,0.98,0.55,0.81,2*08
$GNGSA,A,3,30,09,34,11,02,04,36,,,,,,0.98,0.55,0.81,3*05
$GNGSA,A,3,11,08,34,37,07,28,10,,,,,,0.98,0.55,0.81,4*0B
$GPGSV,2,1,08,01,20,060,28,03,48,056,39,04,15,109,40,06,42,273,36,1*69
$GPGSV,2,2,08,09,11,140,24,14,44,193,29,17,74,010,47,19,55,322,37,1*6B
$GPGSV,2,1,07,01,20,060,27,03,48,056,37,04,15,109,30,06,42,273,29,6*69
$GPGSV,2,2,07,09,11,140,18,14,44,193,17,17,74,010,40,6*59
$GPGSV,1,1,03,11,07,254,,40,06,259,,41,27,238,,0*57
$GLGSV,2,1,07,71,37,059,37,72,40,125,44,76,11,203,22,77,34,249,16,1*7E
$GLGSV,2,2,07,78,24,314,27,87,50,338,39,88,20,293,44,1*47
$GLGSV,2,1,05,71,37,059,33,72,40,125,38,76,11,203,09,78,24,314,32,3*79
$GLGSV,2,2,05,88,20,293,38,3*4E
$GLGSV,1,1,03,65,11,170,,70,04,021,,86,30,062,,0*46
$GAGSV,2,1,08,02,49,222,27,04,13,051,24,09,25,103,45,11,19,065,27,2*72
$GAGSV,2,2,08,18,32,302,39,30,38,298,41,34,46,284,42,36,61,025,33,2*7B
$GAGSV,2,1,08,02,49,222,26,04,13,051,27,09,25,103,43,11,19,065,23,7*77
$GAGSV,2,2,08,18,32,302,42,30,38,298,41,34,46,284,42,36,61,025,37,7*76
$GAGSV,1,1,02,15,01,261,,25,16,176,,0*76
$GBGSV,2,1,08,04,,,40,07,73,225,45,08,51,243,16,10,69,267,44,1*49
$GBGSV,2,2,08,11,48,071,35,28,34,299,42,34,30,088,34,37,20,288,28,1*76
$GBGSV,1,1,04,07,73,225,44,08,51,243,23,10,69,267,42,11,48,071,43,3*78
$GBGSV,1,1,04,03,44,206,,12,04,096,,13,41,240,,23,22,235,,0*78
$GNRMC,035639.00,A,3727.1124049,N,12639.1993493,E,0.019,,220622,,,A,V*19
$GNVTG,,T,,M,0.019,N,0.036,K,A*30
$GNGNS,035639.00,3727.1124049,N,12639.1993493,E,AAAA,28,0.55,23.025,17.834,,,V*24
$GNGGA,035639.00,3727.1124049,N,12639.1993493,E,1,12,0.55,23.025,M,17.834,M,,*7D
$GNGSA,A,3,14,19,06,17,04,03,01,,,,,,0.98,0.55,0.81,1*02
$GNGSA,A,3,77,78,87,88,71,72,76,,,,,,0.98,0.55,0.81,2*08
$GNGSA,A,3,30,09,34,11,02,04,36,,,,,,0.98,0.55,0.81,3*05
$GNGSA,A,3,11,08,34,37,07,28,10,,,,,,0.98,0.55,0.81,4*0B
$GPGSV,2,1,08,01,20,060,27,03,48,056,39,04,15,109,41,06,42,273,36,1*67
$GPGSV,2,2,08,09,11,140,22,14,44,193,29,17,74,010,47,19,55,322,37,1*6D
$GPGSV,2,1,07,01,20,060,28,03,48,056,37,04,15,109,30,06,42,273,29,6*66
$GPGSV,2,2,07,09,11,140,17,14,44,193,16,17,74,010,40,6*57
$GPGSV,1,1,03,11,07,254,,40,06,259,,41,27,238,,0*57
$GLGSV,2,1,07,71,37,059,36,72,40,125,44,76,11,203,22,77,34,249,16,1*7F
$GLGSV,2,2,07,78,24,314,27,87,50,338,39,88,20,293,44,1*47
$GLGSV,2,1,05,71,37,059,32,72,40,125,37,76,11,203,10,78,24,314,33,3*7E
$GLGSV,2,2,05,88,20,293,38,3*4E
$GLGSV,1,1,03,65,11,170,,70,04,021,,86,30,063,,0*47
$GAGSV,2,1,08,02,49,222,27,04,13,051,24,09,25,103,44,11,19,065,27,2*73
$GAGSV,2,2,08,18,32,302,39,30,38,298,41,34,46,284,42,36,61,025,33,2*7B
$GAGSV,2,1,08,02,49,222,26,04,13,051,27,09,25,103,43,11,19,065,23,7*77
$GAGSV,2,2,08,18,32,302,42,30,38,298,41,34,46,284,42,36,61,025,37,7*76
$GAGSV,1,1,02,15,01,261,,25,16,176,,0*76
$GBGSV,2,1,08,04,,,40,07,73,225,45,08,51,243,17,10,69,267,44,1*48
$GBGSV,2,2,08,11,48,071,35,28,34,299,42,34,30,088,33,37,20,288,28,1*71
$GBGSV,1,1,04,07,73,225,44,08,51,243,23,10,69,267,42,11,48,071,43,3*78
$GBGSV,1,1,04,03,44,206,,12,04,096,,13,41,240,,23,22,235,,0*78
$GNRMC,035640.00,A,3727.1123897,N,12639.1993345,E,0.026,,220622,,,A,V*1B
$GNVTG,,T,,M,0.026,N,0.048,K,A*35
$GNGNS,035640.00,3727.1123897,N,12639.1993345,E,AAAA,28,0.55,23.090,17.834,,,V*24
$GNGGA,035640.00,3727.1123897,N,12639.1993345,E,1,12,0.55,23.090,M,17.834,M,,*7D
$GNGSA,A,3,14,19,06,17,04,03,01,,,,,,0.98,0.55,0.81,1*02
$GNGSA,A,3,77,78,87,88,71,72,76,,,,,,0.98,0.55,0.81,2*08
$GNGSA,A,3,30,09,34,11,02,04,36,,,,,,0.98,0.55,0.81,3*05
$GNGSA,A,3,11,08,34,37,07,28,10,,,,,,0.98,0.55,0.81,4*0B
$GPGSV,2,1,08,01,20,060,29,03,48,056,39,04,15,109,41,06,42,273,35,1*6A
$GPGSV,2,2,08,09,11,140,21,14,44,193,28,17,74,010,47,19,55,322,37,1*6F
$GPGSV,2,1,07,01,20,060,28,03,48,056,37,04,15,109,31,06,42,273,29,6*67
$GPGSV,2,2,07,09,11,140,17,14,44,193,16,17,74,010,40,6*57
$GPGSV,1,1,03,11,07,254,,40,06,259,,41,27,238,,0*57
$GLGSV,2,1,07,71,37,059,37,72,40,125,44,76,11,203,22,77,34,249,16,1*7E
$GLGSV,2,2,07,78,24,314,27,87,50,339,39,88,20,293,44,1*46
$GLGSV,2,1,05,71,37,059,33,72,40,125,38,76,11,203,07,78,24,314,33,3*76
$GLGSV,2,2,05,88,20,293,38,3*4E
$GLGSV,1,1,03,65,11,170,,70,04,021,,86,30,063,,0*47
$GAGSV,2,1,08,02,49,222,26,04,13,051,25,09,25,103,44,11,19,065,27,2*73
$GAGSV,2,2,08,18,32,302,38,30,38,298,41,34,46,284,42,36,61,025,32,2*7B
$GAGSV,2,1,08,02,49,222,27,04,13,051,27,09,25,103,43,11,19,065,23,7*76
$GAGSV,2,2,08,18,32,302,41,30,38,298,41,34,46,284,42,36,61,025,37,7*75
$GAGSV,1,1,02,15,01,261,,25,16,176,,0*76
$GBGSV,2,1,08,04,,,40,07,73,225,45,08,51,243,17,10,69,267,44,1*48
$GBGSV,2,2,08,11,48,071,35,28,34,299,42,34,30,088,33,37,20,288,28,1*71
$GBGSV,1,1,04,07,73,225,44,08,51,243,24,10,69,267,42,11,48,071,43,3*7F
$GBGSV,1,1,04,03,44,206,,12,04,096,,13,41,240,,23,22,235,,0*78
$GNRMC,035641.00,A,3727.1123786,N,12639.1993203,E,0.006,,220622,,,A,V*14
$GNVTG,,T,,M,0.006,N,0.011,K,A*3B
$GNGNS,035641.00,3727.1123786,N,12639.1993203,E,AAAA,28,0.55,23.146,17.834,,,V*23
$GNGGA,035641.00,3727.1123786,N,12639.1993203,E,1,12,0.55,23.146,M,17.834,M,,*7A
$GNGSA,A,3,14,19,06,17,04,03,01,,,,,,0.98,0.55,0.81,1*02
$GNGSA,A,3,77,78,87,88,71,72,76,,,,,,0.98,0.55,0.81,2*08
$GNGSA,A,3,30,09,34,11,02,04,36,,,,,,0.98,0.55,0.81,3*05
$GNGSA,A,3,11,08,34,37,07,28,10,,,,,,0.98,0.55,0.81,4*0B
$GPGSV,2,1,08,01,20,060,30,03,48,056,39,04,15,109,41,06,42,273,35,1*62
$GPGSV,2,2,08,09,11,140,19,14,44,193,28,17,74,010,47,19,55,322,37,1*64
$GPGSV,2,1,07,01,20,060,27,03,48,056,37,04,15,109,30,06,42,273,29,6*69
$GPGSV,2,2,07,09,11,140,17,14,44,193,15,17,74,010,40,6*54
$GPGSV,1,1,03,11,07,254,,40,06,259,,41,27,238,,0*57
$GLGSV,2,1,07,71,37,059,37,72,40,125,44,76,11,203,23,77,34,249,16,1*7F
$GLGSV,2,2,07,78,24,314,27,87,50,339,40,88,20,293,44,1*48
$GLGSV,2,1,05,71,37,059,33,72,40,125,37,76,11,203,10,78,24,314,33,3*7F
$GLGSV,2,2,05,88,20,293,38,3*4E
$GLGSV,1,1,03,65,11,170,,70,04,021,,86,30,063,,0*47
$GAGSV,2,1,08,02,49,222,26,04,13,051,24,09,25,103,44,11,19,065,27,2*72
$GAGSV,2,2,08,18,32,302,38,30,38,298,41,34,46,284,42,36,61,025,32,2*7B
$GAGSV,2,1,08,02,49,222,28,04,13,051,27,09,25,103,43,11,19,065,22,7*78
$GAGSV,2,2,08,18,32,302,41,30,38,298,41,34,46,284,42,36,61,025,37,7*75
$GAGSV,1,1,02,15,01,261,,25,16,176,,0*76
$GBGSV,2,1,08,04,,,40,07,73,225,45,08,51,243,17,10,69,267,44,1*48
$GBGSV,2,2,08,11,48,071,35,28,34,299,42,34,30,088,34,37,20,288,28,1*76
$GBGSV,1,1,04,07,73,225,44,08,51,243,24,10,69,267,42,11,48,071,42,3*7E
$GBGSV,1,1,04,03,44,206,,12,04,096,,13,41,240,,23,22,235,,0*78
$GNRMC,035642.00,A,3727.1123574,N,12639.1992964,E,0.019,,220622,,,A,V*1D
$GNVTG,,T,,M,0.019,N,0.035,K,A*33
$GNGNS,035642.00,3727.1123574,N,12639.1992964,E,AAAA,28,0.55,23.211,17.834,,,V*25
$GNGGA,035642.00,3727.1123574,N,12639.1992964,E,1,12,0.55,23.211,M,17.834,M,,*7C
$GNGSA,A,3,14,19,06,17,04,03,01,,,,,,0.98,0.55,0.81,1*02
$GNGSA,A,3,77,78,87,88,71,72,76,,,,,,0.98,0.55,0.81,2*08
$GNGSA,A,3,30,09,34,11,02,04,36,,,,,,0.98,0.55,0.81,3*05
$GNGSA,A,3,11,08,34,37,07,28,10,,,,,,0.98,0.55,0.81,4*0B
$GPGSV,2,1,08,01,20,060,30,03,48,056,39,04,15,109,40,06,42,273,35,1*63
$GPGSV,2,2,08,09,11,140,17,14,44,193,27,17,74,010,47,19,55,322,37,1*65
$GPGSV,2,1,07,01,20,060,27,03,48,056,37,04,15,109,31,06,42,273,29,6*68
$GPGSV,2,2,07,09,11,140,18,14,44,193,16,17,74,010,40,6*58
$GPGSV,1,1,03,11,07,254,,40,06,259,,41,27,238,,0*57
$GLGSV,2,1,07,71,37,059,39,72,40,125,45,76,11,203,23,77,34,249,16,1*70
$GLGSV,2,2,07,78,24,314,26,87,50,339,40,88,20,293,44,1*49
$GLGSV,2,1,05,71,37,059,33,72,40,125,38,76,11,203,11,78,24,314,33,3*71
$GLGSV,2,2,05,88,20,293,38,3*4E
$GLGSV,1,1,03,65,11,170,,70,04,021,,86,30,063,,0*47
$GAGSV,2,1,08,02,49,222,26,04,13,051,25,09,25,103,44,11,19,065,26,2*72
$GAGSV,2,2,08,18,32,302,38,30,38,298,41,34,46,284,42,36,61,025,32,2*7B
$GAGSV,2,1,08,02,49,222,28,04,13,051,28,09,25,103,43,11,19,065,22,7*77
$GAGSV,2,2,08,18,32,302,41,30,38,298,41,34,46,284,42,36,61,025,37,7*75
$GAGSV,1,1,02,15,01,261,,25,16,176,,0*76
$GBGSV,2,1,08,04,,,40,07,73,225,45,08,51,243,17,10,69,267,44,1*48
$GNRMC,035643.00,A,3727.1123215,N,12639.1992747,E,0.009,,220622,,,A,V*12
$GNVTG,,T,,M,0.009,N,0.017,K,A*32
$GNGNS,035643.00,3727.1123215,N,12639.1992747,E,AAAA,29,0.53,23.268,17.834,,,V*22
$GNGGA,035643.00,3727.1123215,N,12639.1992747,E,1,12,0.53,23.268,M,17.834,M,,*7A
$GNGSA,A,3,14,19,06,17,04,03,01,,,,,,0.97,0.53,0.81,1*0B
$GNGSA,A,3,77,78,87,88,71,72,76,,,,,,0.97,0.53,0.81,2*01
$GNGSA,A,3,30,09,34,11,02,04,36,,,,,,0.97,0.53,0.81,3*0C
$GNGSA,A,3,04,11,08,34,37,07,28,10,,,,,0.97,0.53,0.81,4*06
$GPGSV,2,1,08,01,19,060,30,03,48,056,39,04,15,109,40,06,42,273,35,1*69
$GPGSV,2,2,08,09,11,140,14,14,44,193,27,17,74,010,47,19,55,322,37,1*66
$GPGSV,2,1,07,01,19,060,27,03,48,056,37,04,15,109,31,06,42,273,29,6*62
$GPGSV,2,2,07,09,11,140,20,14,44,193,16,17,74,010,40,6*53
$GPGSV,1,1,03,11,07,254,,40,06,259,,41,27,238,,0*57
$GLGSV,2,1,07,71,37,059,40,72,40,125,45,76,11,203,23,77,34,249,16,1*7E
$GLGSV,2,2,07,78,24,314,27,87,50,339,40,88,20,293,45,1*49
$GLGSV,2,1,05,71,37,059,33,72,40,125,38,76,11,203,09,78,24,314,33,3*78
$GLGSV,2,2,05,88,20,293,38,3*4E
$GLGSV,1,1,03,65,11,170,,70,04,021,,86,30,063,,0*47
$GAGSV,2,1,08,02,49,222,26,04,13,051,25,09,25,103,44,11,19,065,26,2*72
$GAGSV,2,2,08,18,32,302,39,30,38,298,40,34,46,284,42,36,61,025,32,2*7B
$GAGSV,2,1,08,02,49,222,28,04,13,051,28,09,25,103,43,11,19,065,22,7*77
$GAGSV,2,2,08,18,32,302,42,30,38,298,41,34,46,284,42,36,61,025,37,7*76
$GAGSV,1,1,02,15,01,261,,25,16,176,,0*76
$GBGSV,2,1,08,04,35,132,40,07,73,225,45,08,51,243,17,10,69,267,44,1*7E
$GBGSV,2,2,08,11,48,071,37,28,34,299,43,34,30,088,32,37,20,288,30,1*7A
$GBGSV,1,1,04,04,35,132,39,07,73,225,44,10,69,267,42,11,48,071,43,3*78
$GBGSV,1,1,04,03,44,206,,12,04,096,,13,41,240,,23,22,235,,0*78
$GNRMC,035644.00,A,3727.1122764,N,12639.1992544,E,0.009,,220622,,,A,V*16
$GNVTG,,T,,M,0.009,N,0.016,K,A*33
$GNGNS,035644.00,3727.1122764,N,12639.1992544,E,AAAA,28,0.53,23.314,17.834,,,V*2D
$GNGGA,035644.00,3727.1122764,N,12639.1992544,E,1,12,0.53,23.314,M,17.834,M,,*74
$GNGSA,A,3,14,19,06,17,04,03,01,,,,,,0.97,0.53,0.81,1*0B
$GNGSA,A,3,77,78,87,88,71,72,76,,,,,,0.97,0.53,0.81,2*01
$GNGSA,A,3,30,09,34,11,02,04,36,,,,,,0.97,0.53,0.81,3*0C
$GNGSA,A,3,04,11,08,34,37,07,28,10,,,,,0.97,0.53,0.81,4*06
$GPGSV,2,1,07,01,19,060,31,03,47,055,39,04,15,109,40,06,42,273,34,1*6A
$GPGSV,2,2,07,14,44,193,27,17,74,010,47,19,55,322,37,1*50
$GPGSV,2,1,07,01,19,060,27,03,47,055,37,04,15,109,31,06,42,273,29,6*6E
$GPGSV,2,2,07,09,11,140,20,14,44,193,16,17,74,010,40,6*53
$GPGSV,1,1,03,11,07,254,,40,06,259,,41,27,238,,0*57
$GLGSV,2,1,07,71,37,059,40,72,40,125,45,76,11,203,22,77,34,249,16,1*7F
$GLGSV,2,2,07,78,24,314,27,87,50,339,40,88,20,293,44,1*48
$GLGSV,2,1,05,71,37,059,34,72,40,125,38,76,11,203,06,78,24,314,33,3*70
$GLGSV,2,2,05,88,20,293,38,3*4E
$GLGSV,1,1,03,65,11,170,,70,04,021,,86,30,063,,0*47
$GAGSV,2,1,08,02,49,222,25,04,13,051,25,09,25,103,44,11,19,065,26,2*71
$GAGSV,2,2,08,18,32,302,39,30,38,298,40,34,46,284,42,36,61,025,32,2*7B
$GAGSV,2,1,08,02,49,222,29,04,13,051,28,09,25,103,43,11,19,065,23,7*77
$GAGSV,2,2,08,18,32,302,42,30,38,298,41,34,46,284,41,36,61,025,36,7*74
$GAGSV,1,1,02,15,01,261,,25,16,176,,0*76
$GBGSV,2,1,08,04,35,132,40,07,73,225,45,08,51,243,17,10,69,267,44,1*7E
$GBGSV,2,2,08,11,48,071,36,28,34,299,43,34,30,088,33,37,20,288,30,1*7A
$GBGSV,1,1,04,04,35,132,39,07,73,225,43,10,69,267,42,11,48,071,43,3*7F
$GBGSV,1,1,04,03,44,206,,12,04,096,,13,41,240,,23,22,235,,0*78
$GNRMC,035645.00,A,3727.1122371,N,12639.1992352,E,0.014,,220622,,,A,V*1A
$GNVTG,,T,,M,0.014,N,0.027,K,A*3D
$GNGNS,035645.00,3727.1122371,N,12639.1992352,E,AAAA,29,0.53,23.366,17.834,,,V*29
$GNGGA,035645.00,3727.1122371,N,12639.1992352,E,1,12,0.53,23.366,M,17.834,M,,*71
$GNGSA,A,3,14,19,06,17,04,03,01,,,,,,0.97,0.53,0.81,1*0B
$GNGSA,A,3,77,78,87,88,71,72,76,,,,,,0.97,0.53,0.81,2*01
$GNGSA,A,3,30,09,34,11,02,04,36,,,,,,0.97,0.53,0.81,3*0C
$GNGSA,A,3,04,11,08,34,37,07,28,10,,,,,0.97,0.53,0.81,4*06
$GPGSV,2,1,07,01,19,060,32,03,47,055,39,04,15,108,40,06,42,273,35,1*69
$GPGSV,2,2,07,14,44,193,28,17,74,010,47,19,55,322,37,1*5F
$GPGSV,2,1,07,01,19,060,28,03,47,055,36,04,15,108,31,06,42,273,29,6*61
$GPGSV,2,2,07,09,11,140,20,14,44,193,16,17,74,010,40,6*53
$GPGSV,1,1,03,11,07,254,,40,06,259,,41,27,238,,0*57
$GLGSV,2,1,07,71,37,059,39,72,40,125,45,76,11,203,22,77,34,249,15,1*72
$GLGSV,2,2,07,78,24,314,28,87,50,339,40,88,20,293,44,1*47
