$GNRMC,033357.00,A,3727.0336568,N,12639.1565654,E,0.035,,210622,,,F,V*12
$GNVTG,,T,,M,0.035,N,0.065,K,D*3D
$GNGNS,033357.00,3727.0336568,N,12639.1565654,E,FFFF,17,0.93,13.466,17.834,2.0,4095,V*07
$GNGGA,033357.00,3727.0336568,N,12639.1565654,E,5,12,0.93,13.466,M,17.834,M,2.0,4095*56
$GNGSA,A,3,14,03,06,19,17,,,,,,,,2.00,0.93,1.76,1*07
$GNGSA,A,3,85,75,71,70,,,,,,,,,2.00,0.93,1.76,2*04
$GNGSA,A,3,13,15,,,,,,,,,,,2.00,0.93,1.76,3*0D
$GNGSA,A,3,07,10,28,03,13,33,,,,,,,2.00,0.93,1.76,4*01
$GPGSV,2,1,07,03,55,071,43,06,34,261,35,14,56,200,47,17,66,343,45,1*64
$GPGSV,2,2,07,19,44,313,43,28,,,37,41,27,238,43,1*6D
$GPGSV,1,1,04,03,55,071,44,06,34,261,32,14,56,200,35,17,66,343,40,6*63
$GLGSV,2,1,06,70,38,080,25,71,26,139,45,75,22,206,34,76,43,270,36,1*71
$GLGSV,2,2,06,77,20,324,21,85,41,043,48,1*79
$GLGSV,2,1,05,71,26,139,37,75,22,206,38,76,43,270,30,77,20,324,21,3*78
$GLGSV,2,2,05,85,41,043,37,3*44
$GAGSV,1,1,03,13,58,292,37,15,51,041,40,18,64,084,47,2*42
$GAGSV,1,1,03,13,58,292,41,15,51,041,45,18,64,084,47,7*43
$GBGSV,3,1,09,02,,,34,03,44,206,39,07,78,236,38,10,70,281,42,1*4A
$GBGSV,3,2,09,13,39,231,41,27,,,41,28,67,013,46,33,45,108,43,1*47
$GBGSV,3,3,09,37,,,43,1*7C
$GBGSV,1,1,04,03,44,206,37,07,78,236,36,10,70,281,40,13,39,231,40,3*7C
$GNRMC,033358.00,A,3727.0336616,N,12639.1565425,E,0.021,,210622,,,F,V*16
$GNVTG,,T,,M,0.021,N,0.039,K,D*31
$GNGNS,033358.00,3727.0336616,N,12639.1565425,E,FFFF,17,0.93,13.648,17.834,2.0,4095,V*08
$GNGGA,033358.00,3727.0336616,N,12639.1565425,E,5,12,0.93,13.648,M,17.834,M,2.0,4095*59
$GNGSA,A,3,14,03,06,19,17,,,,,,,,2.00,0.93,1.76,1*07
$GNGSA,A,3,85,75,71,70,,,,,,,,,2.00,0.93,1.76,2*04
$GNGSA,A,3,13,15,,,,,,,,,,,2.00,0.93,1.76,3*0D
$GNGSA,A,3,07,10,28,03,13,33,,,,,,,2.00,0.93,1.76,4*01
$GPGSV,2,1,07,03,55,071,41,06,34,261,35,14,56,200,46,17,66,343,45,1*67
$GPGSV,2,2,07,19,44,313,41,28,,,37,41,27,238,42,1*6E
$GPGSV,1,1,04,03,55,071,43,06,34,261,33,14,56,200,36,17,66,343,40,6*66
$GLGSV,2,1,06,70,38,080,25,71,26,139,45,75,22,206,31,76,43,270,37,1*75
$GLGSV,2,2,06,77,20,324,22,85,41,043,48,1*7A
$GLGSV,2,1,05,71,26,139,37,75,22,206,38,76,43,270,30,77,20,324,20,3*79
$GLGSV,2,2,05,85,41,043,37,3*44
$GAGSV,1,1,03,13,58,292,37,15,51,041,40,18,64,084,47,2*42
$GAGSV,1,1,03,13,58,292,41,15,51,041,45,18,64,084,46,7*42
$GBGSV,3,1,09,02,,,35,03,44,206,39,07,78,236,38,10,70,281,41,1*48
$GBGSV,3,2,09,13,39,231,41,27,,,41,28,67,013,46,33,45,108,42,1*46
$GBGSV,3,3,09,37,,,43,1*7C
$GBGSV,1,1,04,03,44,206,37,07,78,236,35,10,70,281,40,13,39,231,40,3*7F
$GNRMC,033359.00,A,3727.0336586,N,12639.1565248,E,0.020,,210622,,,F,V*11
$GNVTG,,T,,M,0.020,N,0.036,K,D*3F
$GNGNS,033359.00,3727.0336586,N,12639.1565248,E,FFFF,17,0.93,13.830,17.834,2.0,4095,V*0F
$GNGGA,033359.00,3727.0336586,N,12639.1565248,E,5,12,0.93,13.830,M,17.834,M,2.0,4095*5E
$GNGSA,A,3,14,03,06,19,17,,,,,,,,2.00,0.93,1.76,1*07
$GNGSA,A,3,85,75,71,70,,,,,,,,,2.00,0.93,1.76,2*04
$GNGSA,A,3,13,15,,,,,,,,,,,2.00,0.93,1.76,3*0D
$GNGSA,A,3,07,10,28,03,13,33,,,,,,,2.00,0.93,1.76,4*01
$GPGSV,2,1,07,03,55,071,40,06,34,261,35,14,56,200,45,17,66,343,44,1*64
$GPGSV,2,2,07,19,44,313,40,28,,,36,41,27,238,41,1*6D
$GPGSV,1,1,04,03,55,071,42,06,34,261,32,14,56,200,35,17,66,343,40,6*65
$GLGSV,2,1,06,70,38,080,23,71,26,139,44,75,22,206,30,76,43,270,37,1*73
$GLGSV,2,2,06,77,20,324,22,85,41,043,48,1*7A
$GLGSV,2,1,05,71,26,139,36,75,22,206,38,76,43,270,29,77,20,324,18,3*7B
$GLGSV,2,2,05,85,41,043,37,3*44
$GAGSV,1,1,03,13,58,292,37,15,51,041,40,18,64,084,47,2*42
$GAGSV,1,1,03,13,58,292,40,15,51,041,44,18,64,084,44,7*40
$GBGSV,3,1,09,02,,,35,03,44,206,39,07,78,236,39,10,70,281,41,1*49
$GBGSV,3,2,09,13,39,231,41,27,,,40,28,67,013,46,33,45,108,43,1*46
$GBGSV,3,3,09,37,,,43,1*7C
$GBGSV,1,1,04,03,44,206,36,07,78,236,35,10,70,281,40,13,39,231,40,3*7E
$GNRMC,033400.00,A,3727.0336586,N,12639.1565035,E,0.024,,210622,,,F,V*16
$GNVTG,,T,,M,0.024,N,0.045,K,D*3F
$GNGNS,033400.00,3727.0336586,N,12639.1565035,E,FFFF,17,0.93,14.074,17.834,2.0,4095,V*03
$GNGGA,033400.00,3727.0336586,N,12639.1565035,E,5,12,0.93,14.074,M,17.834,M,2.0,4095*52
$GNGSA,A,3,14,03,06,19,17,,,,,,,,2.00,0.93,1.76,1*07
$GNGSA,A,3,85,75,71,70,,,,,,,,,2.00,0.93,1.76,2*04
$GNGSA,A,3,13,15,,,,,,,,,,,2.00,0.93,1.76,3*0D
$GNGSA,A,3,07,10,28,03,13,33,,,,,,,2.00,0.93,1.76,4*01
$GPGSV,2,1,07,03,55,071,40,06,34,261,34,14,56,200,45,17,66,343,44,1*65
$GPGSV,2,2,07,19,44,313,40,28,,,36,41,27,238,41,1*6D
$GPGSV,1,1,04,03,55,071,43,06,34,261,32,14,56,200,35,17,66,343,40,6*64
$GLGSV,2,1,06,70,38,080,22,71,26,139,44,75,22,206,29,76,43,270,36,1*7B
$GLGSV,2,2,06,77,20,324,21,85,41,043,47,1*76
$GLGSV,2,1,05,71,26,139,36,75,22,206,38,76,43,270,30,77,20,324,16,3*7D
$GLGSV,2,2,05,85,41,043,37,3*44
$GAGSV,1,1,03,13,58,292,37,15,51,041,40,18,64,084,47,2*42
$GAGSV,1,1,03,13,58,292,40,15,51,041,45,18,64,084,45,7*40
$GBGSV,3,1,09,02,,,35,03,44,206,39,07,78,236,38,10,70,281,40,1*49
$GBGSV,3,2,09,13,39,231,40,27,,,40,28,67,013,45,33,45,108,43,1*44
$GBGSV,3,3,09,37,,,43,1*7C
$GBGSV,1,1,04,03,44,206,37,07,78,236,35,10,70,281,40,13,39,231,39,3*71
$GNRMC,033401.00,A,3727.0336532,N,12639.1564843,E,0.025,,210622,,,F,V*11
$GNVTG,,T,,M,0.025,N,0.046,K,D*3D
$GNGNS,033401.00,3727.0336532,N,12639.1564843,E,FFFF,17,0.93,14.423,17.834,2.0,4095,V*03
$GNGGA,033401.00,3727.0336532,N,12639.1564843,E,5,12,0.93,14.423,M,17.834,M,2.0,4095*52
$GNGSA,A,3,14,03,06,19,17,,,,,,,,2.00,0.93,1.76,1*07
$GNGSA,A,3,85,75,71,70,,,,,,,,,2.00,0.93,1.76,2*04
$GNGSA,A,3,13,15,,,,,,,,,,,2.00,0.93,1.76,3*0D
$GNGSA,A,3,07,10,28,03,13,33,,,,,,,2.00,0.93,1.76,4*01
$GPGSV,2,1,07,03,55,071,40,06,34,261,33,14,56,200,45,17,66,343,44,1*62
$GPGSV,2,2,07,19,44,313,40,28,,,36,41,27,238,41,1*6D
$GPGSV,1,1,04,03,55,071,43,06,34,261,32,14,56,200,36,17,66,343,40,6*67
$GLGSV,2,1,06,70,38,080,22,71,26,139,43,75,22,206,28,76,43,270,37,1*7C
$GLGSV,2,2,06,77,20,324,21,85,41,043,47,1*76
$GLGSV,2,1,05,71,26,139,36,75,22,206,37,76,43,270,30,77,20,324,14,3*70
$GLGSV,2,2,05,85,41,043,37,3*44
$GAGSV,1,1,03,13,58,292,37,15,51,041,40,18,64,084,47,2*42
$GAGSV,1,1,03,13,58,292,40,15,51,041,45,18,64,084,44,7*41
$GBGSV,3,1,09,02,,,35,03,44,206,39,07,78,236,38,10,70,280,40,1*48
$GBGSV,3,2,09,13,39,231,40,27,,,40,28,67,013,45,33,45,108,42,1*45
$GBGSV,3,3,09,37,,,43,1*7C
$GBGSV,1,1,04,03,44,206,37,07,78,236,35,10,70,280,40,13,39,231,39,3*70
$GNRMC,033402.00,A,3727.0336494,N,12639.1564628,E,0.013,,210622,,,F,V*19
$GNVTG,,T,,M,0.013,N,0.025,K,D*3D
$GNGNS,033402.00,3727.0336494,N,12639.1564628,E,FFFF,17,0.93,14.797,17.834,2.0,4095,V*02
$GNGGA,033402.00,3727.0336494,N,12639.1564628,E,5,12,0.93,14.797,M,17.834,M,2.0,4095*53
$GNGSA,A,3,14,03,06,19,17,,,,,,,,2.00,0.93,1.76,1*07
$GNGSA,A,3,85,75,71,70,,,,,,,,,2.00,0.93,1.76,2*04
$GNGSA,A,3,13,15,,,,,,,,,,,2.00,0.93,1.76,3*0D
$GNGSA,A,3,07,10,28,03,13,33,,,,,,,2.00,0.93,1.76,4*01
$GPGSV,2,1,07,03,55,071,41,06,34,261,33,14,56,200,45,17,66,343,44,1*63
$GPGSV,2,2,07,19,44,313,40,28,,,36,41,27,238,41,1*6D
$GPGSV,1,1,04,03,55,071,42,06,34,261,32,14,56,200,36,17,66,343,40,6*66
$GLGSV,2,1,06,70,38,080,22,71,26,139,43,75,22,206,28,76,43,270,37,1*7C
$GLGSV,2,2,06,77,20,324,21,85,41,043,47,1*76
$GLGSV,2,1,05,71,26,139,35,75,22,206,37,76,43,270,29,77,20,324,12,3*7D
$GLGSV,2,2,05,85,41,043,37,3*44
$GAGSV,1,1,03,13,58,292,37,15,51,041,40,18,64,084,47,2*42
$GAGSV,1,1,03,13,58,292,40,15,51,041,45,18,64,084,44,7*41
$GBGSV,3,1,09,02,,,35,03,44,206,39,07,78,236,38,10,70,280,40,1*48
$GBGSV,3,2,09,13,39,232,40,27,,,40,28,67,013,45,33,45,108,42,1*46
$GBGSV,3,3,09,37,,,43,1*7C
$GBGSV,1,1,04,03,44,206,37,07,78,236,34,10,70,280,40,13,39,232,39,3*72
$GNRMC,033403.00,A,3727.0336482,N,12639.1564405,E,0.006,,210622,,,F,V*16
$GNVTG,,T,,M,0.006,N,0.010,K,D*3F
$GNGNS,033403.00,3727.0336482,N,12639.1564405,E,FFFF,17,0.93,15.134,17.834,1.0,4095,V*04
$GNGGA,033403.00,3727.0336482,N,12639.1564405,E,5,12,0.93,15.134,M,17.834,M,1.0,4095*55
$GNGSA,A,3,14,03,06,19,17,,,,,,,,2.00,0.93,1.77,1*06
$GNGSA,A,3,85,75,71,70,,,,,,,,,2.00,0.93,1.77,2*05
$GNGSA,A,3,13,15,,,,,,,,,,,2.00,0.93,1.77,3*0C
$GNGSA,A,3,07,10,28,03,13,33,,,,,,,2.00,0.93,1.77,4*00
$GPGSV,2,1,07,03,55,071,41,06,34,261,33,14,56,200,45,17,66,343,44,1*63
$GPGSV,2,2,07,19,44,313,41,28,,,36,41,27,238,42,1*6F
$GPGSV,1,1,04,03,55,071,43,06,34,261,32,14,56,200,36,17,66,343,40,6*67
$GLGSV,2,1,06,70,38,080,21,71,26,139,43,75,22,206,30,76,43,270,37,1*76
$GLGSV,2,2,06,77,20,324,22,85,41,043,47,1*75
$GLGSV,2,1,05,71,26,139,35,75,22,206,37,76,43,270,30,77,20,324,09,3*7F
$GLGSV,2,2,05,85,41,043,37,3*44
$GAGSV,1,1,03,13,58,292,37,15,51,041,40,18,64,084,47,2*42
$GAGSV,1,1,03,13,58,292,40,15,51,041,45,18,64,084,44,7*41
$GBGSV,3,1,09,02,,,35,03,44,206,39,07,78,236,38,10,70,280,40,1*48
$GBGSV,3,2,09,13,39,232,41,27,,,40,28,67,013,45,33,45,108,42,1*47
$GBGSV,3,3,09,37,,,43,1*7C
$GBGSV,1,1,04,03,44,206,37,07,78,236,35,10,70,280,40,13,39,232,39,3*73
$GNRMC,033404.00,A,3727.0336363,N,12639.1564203,E,0.008,,210622,,,F,V*17
$GNVTG,,T,,M,0.008,N,0.014,K,D*35
$GNGGA,033404.00,3727.0336363,N,12639.1564203,E,5,12,0.93,15.530,M,17.834,M,2.0,4095*59
$GNGSA,A,3,14,03,06,19,17,,,,,,,,2.00,0.93,1.77,1*06
$GNGSA,A,3,85,75,71,70,,,,,,,,,2.00,0.93,1.77,2*05
$GNGSA,A,3,13,15,,,,,,,,,,,2.00,0.93,1.77,3*0C
$GNGSA,A,3,07,10,28,03,13,33,,,,,,,2.00,0.93,1.77,4*00
$GPGSV,2,1,07,03,55,071,41,06,34,261,35,14,56,200,46,17,66,343,44,1*66
$GPGSV,2,2,07,19,44,313,41,28,,,37,41,27,238,42,1*6E
$GPGSV,1,1,04,03,55,071,43,06,34,261,32,14,56,200,36,17,66,343,40,6*67
$GLGSV,2,1,06,70,38,080,21,71,26,139,43,75,22,206,30,76,43,270,37,1*76
$GLGSV,2,2,06,77,20,324,23,85,41,043,47,1*74
$GLGSV,2,1,05,71,26,139,34,75,22,206,37,76,43,270,30,77,20,324,08,3*7F
$GLGSV,2,2,05,85,41,043,37,3*44
$GAGSV,1,1,03,13,58,292,37,15,51,041,40,18,64,084,47,2*42
$GAGSV,1,1,03,13,58,292,40,15,51,041,45,18,64,084,45,7*40
$GBGSV,3,1,09,02,,,35,03,44,206,38,07,78,236,37,10,70,280,41,1*47
$GBGSV,3,2,09,13,39,232,40,27$GBGSV,3,3,09,37,,,44,1*7B
$GBGSV,1,1,04,03,44,206,37,07,78,236,34,10,70,280,40,13,39,232,39,3*72
$GNRMC,033405.00,A,3727.0336204,N,12639.1564065,E,0.021,,210622,,,F,V*1F
$GNVTG,,T,,M,0.021,N,0.039,K,D*31
$GNGNS,033405.00,3727.0336204,N,12639.1564065,E,FFFF,17,0.93,15.929,17.834,2.0,4095,V*0F
$GNGGA,033405.00,3727.0336204,N,12639.1564065,E,5,12,0.93,15.929,M,17.834,M,2.0,4095*5E
$GNGSA,A,3,14,03,06,19,17,,,,,,,,2.00,0.93,1.77,1*06
$GNGSA,A,3,85,75,71,70,,,,,,,,,2.00,0.93,1.77,2*05
$GNGSA,A,3,13,15,,,,,,,,,,,2.00,0.93,1.77,3*0C
$GNGSA,A,3,07,10,28,03,13,33,,,,,,,2.00,0.93,1.77,4*00
$GPGSV,2,1,07,03,55,071,41,06,34,261,35,14,56,200,46,17,66,343,44,1*66
$GPGSV,2,2,07,19,44,313,42,28,,,37,41,27,238,41,1*6E
$GPGSV,1,1,04,03,55,071,43,06,34,261,32,14,56,200,36,17,66,343,40,6*67
$GLGSV,2,1,06,70,38,080,21,71,26,139,43,75,22,206,31,76,43,270,37,1*77
$GLGSV,2,2,06,77,20,324,25,85,41,043,47,1*72
$GLGSV,2,1,05,71,26,139,33,75,22,206,37,76,43,270,31,77,20,324,12,3*72
$GLGSV,2,2,05,85,41,043,37,3*44
$GAGSV,1,1,03,13,58,292,37,15,51,041,40,18,64,084,47,2*42
$GAGSV,1,1,03,13,58,292,40,15,51,041,45,18,64,084,45,7*40
$GBGSV,3,1,09,02,,,35,03,44,206,39,07,78,236,37,10,70,280,41,1*46
$GBGSV,3,2,09,13,39,232,40,27,,,39,28,67,013,45,33,45,108,42,1*48
$GBGSV,3,3,09,37,,,44,1*7B
$GBGSV,1,1,04,03,44,206,36,07,78,236,34,10,70,280,40,13,39,232,39,3*73
$GNRMC,033406.00,A,3727.0336065,N,12639.1563924,E,0.015,,210622,,,F,V*15
$GNVTG,,T,,M,0.015,N,0.027,K,D*39
$GNGNS,033406.00,3727.0336065,N,12639.1563924,E,FFFF,17,0.93,16.321,17.834,2.0,4095,V*03
$GNGGA,033406.00,3727.0336065,N,12639.1563924,E,5,12,0.93,16.321,M,17.834,M,2.0,4095*52
$GNGSA,A,3,14,03,06,19,17,,,,,,,,2.00,0.93,1.77,1*06
$GNGSA,A,3,85,75,71,70,,,,,,,,,2.00,0.93,1.77,2*05
$GNGSA,A,3,13,15,,,,,,,,,,,2.00,0.93,1.77,3*0C
$GNGSA,A,3,07,10,28,03,13,33,,,,,,,2.00,0.93,1.77,4*00
$GPGSV,2,1,07,03,55,071,41,06,34,261,34,14,56,200,46,17,66,343,45,1*66
$GPGSV,2,2,07,19,44,313,41,28,,,37,41,27,238,39,1*62
$GPGSV,1,1,04,03,55,071,43,06,34,261,31,14,56,200,36,17,66,343,40,6*64
$GLGSV,2,1,06,70,38,080,21,71,26,139,43,75,22,206,32,76,43,270,37,1*74
$GLGSV,2,2,06,77,20,324,25,85,41,043,47,1*72
$GLGSV,2,1,05,71,26,139,32,75,22,206,36,76,43,270,31,77,20,324,15,3*75
$GLGSV,2,2,05,85,41,043,37,3*44
$GAGSV,1,1,03,13,58,292,37,15,51,041,40,18,64,084,47,2*42
$GAGSV,1,1,03,13,58,292,40,15,51,041,45,18,64,084,44,7*41
$GBGSV,3,1,09,02,,,35,03,44,206,39,07,78,236,37,10,70,280,41,1*46
$GBGSV,3,2,09,13,39,232,40,27,,,39,28,67,013,45,33,45,108,42,1*48
$GBGSV,3,3,09,37,,,44,1*7B
$GBGSV,1,1,04,03,44,206,36,07,78,236,35,10,70,280,40,13,39,232,39,3*72
$GNRMC,033407.00,A,3727.0335957,N,12639.1563745,E,0.009,,210622,,,F,V*1B
$GNVTG,,T,,M,0.009,N,0.017,K,D*37
$GNGNS,033407.00,3727.0335957,N,12639.1563745,E,FFFF,17,0.93,16.641,17.834,2.0,4095,V*03
$GNGGA,033407.00,3727.0335957,N,12639.1563745,E,5,12,0.93,16.641,M,17.834,M,2.0,4095*52
$GNGSA,A,3,14,03,06,19,17,,,,,,,,2.00,0.93,1.77,1*06
$GNGSA,A,3,85,75,71,70,,,,,,,,,2.00,0.93,1.77,2*05
$GNGSA,A,3,13,15,,,,,,,,,,,2.00,0.93,1.77,3*0C
$GNGSA,A,3,07,10,28,03,13,33,,,,,,,2.00,0.93,1.77,4*00
$GPGSV,2,1,07,03,55,071,41,06,34,261,35,14,56,200,46,17,66,343,45,1*67
$GPGSV,2,2,07,19,44,313,41,28,,,36,41,27,238,38,1*62
$GPGSV,1,1,04,03,55,071,42,06,34,261,31,14,56,200,36,17,66,343,40,6*65
$GLGSV,2,1,06,70,38,080,21,71,26,139,43,75,22,206,32,76,43,270,37,1*74
$GLGSV,2,2,06,77,20,324,25,85,41,043,47,1*72
$GLGSV,2,1,05,71,26,139,30,75,22,206,34,76,43,270,31,77,20,324,13,3*73
$GLGSV,2,2,05,85,41,043,35,3*46
$GAGSV,1,1,03,13,58,292,37,15,51,041,40,18,64,084,47,2*42
$GAGSV,1,1,03,13,58,292,40,15,51,041,45,18,64,084,45,7*40
$GBGSV,3,1,09,02,,,35,03,44,206,38,07,78,236,37,10,70,280,41,1*47
$GBGSV,3,2,09,13,39,232,41,27,,,40,28,67,013,45,33,45,108,42,1*47
$GBGSV,3,3,09,37,,,44,1*7B
$GBGSV,1,1,04,03,44,206,36,07,78,236,34,10,70,280,40,13,39,232,39,3*73
$GNRMC,033408.00,A,3727.0335915,N,12639.1563564,E,0.020,,210622,,,F,V*18
$GNVTG,,T,,M,0.020,N,0.037,K,D*3E
$GNGNS,033408.00,3727.0335915,N,12639.1563564,E,FFFF,17,0.93,16.905,17.834,2.0,4095,V*04
$GNGGA,033408.00,3727.0335915,N,12639.1563564,E,5,12,0.93,16.905,M,17.834,M,2.0,4095*55
$GNGSA,A,3,14,03,06,19,17,,,,,,,,2.00,0.93,1.77,1*06
$GNGSA,A,3,85,75,71,70,,,,,,,,,2.00,0.93,1.77,2*05
$GNGSA,A,3,13,15,,,,,,,,,,,2.00,0.93,1.77,3*0C
$GNGSA,A,3,07,10,28,03,13,33,,,,,,,2.00,0.93,1.77,4*00
$GPGSV,2,1,07,03,55,071,41,06,34,261,35,14,56,200,46,17,66,343,45,1*67
$GPGSV,2,2,07,19,44,313,41,28,,,36,41,27,238,34,1*6E
$GPGSV,1,1,04,03,55,071,43,06,34,261,31,14,56,200,36,17,66,343,40,6*64
$GLGSV,2,1,06,70,38,080,21,71,26,139,43,75,22,206,34,76,43,270,37,1*72
$GLGSV,2,2,06,77,20,324,26,85,41,043,48,1*7E
$GLGSV,2,1,05,71,26,139,29,75,22,206,34,76,43,270,30,77,20,324,12,3*7B
$GLGSV,2,2,05,85,41,043,36,3*45
$GAGSV,1,1,03,13,58,292,37,15,51,041,40,18,64,084,47,2*42
$GAGSV,1,1,03,13,58,292,40,15,51,041,45,18,64,084,45,7*40
$GBGSV,3,1,09,02,,,35,03,44,206,38,07,78,236,37,10,70,280,41,1*47
$GBGSV,3,2,09,13,39,232,41,27,,,40,28,67,013,45,33,45,108,42,1*47
$GBGSV,3,3,09,37,,,45,1*7A
$GBGSV,1,1,04,03,44,206,37,07,78,236,34,10,70,280,40,13,39,232,39,3*72
$GNRMC,033409.00,A,3727.0335933,N,12639.1563343,E,0.032,,210622,,,F,V*1D
$GNVTG,,T,,M,0.032,N,0.060,K,D*3F
$GNGNS,033409.00,3727.0335933,N,12639.1563343,E,FFFF,19,0.90,17.114,17.834,2.0,4095,V*06
$GNGGA,033409.00,3727.0335933,N,12639.1563343,E,5,12,0.90,17.114,M,17.834,M,2.0,4095*59
$GNGSA,A,3,14,03,06,19,17,,,,,,,,1.96,0.90,1.74,1*0A
$GNGSA,A,3,85,75,71,70,76,,,,,,,,1.96,0.90,1.74,2*08
$GNGSA,A,3,13,15,,,,,,,,,,,1.96,0.90,1.74,3*00
$GNGSA,A,3,02,07,10,28,03,13,33,,,,,,1.96,0.90,1.74,4*0E
$GPGSV,2,1,07,03,55,071,41,06,34,261,35,14,56,200,46,17,66,343,45,1*67
$GPGSV,2,2,07,19,44,313,41,28,,,36,41,27,238,29,1*62
$GPGSV,1,1,04,03,55,071,42,06,34,261,31,14,56,200,36,17,66,343,40,6*65
$GLGSV,2,1,06,70,38,080,20,71,26,139,44,75,22,206,35,76,43,270,38,1*7A
$GLGSV,2,2,06,77,20,324,26,85,41,043,48,1*7E
$GLGSV,2,1,05,71,26,139,28,75,22,206,37,76,43,270,31,77,20,324,16,3*7C
$GLGSV,2,2,05,85,41,043,38,3*4B
$GAGSV,1,1,03,13,58,292,37,15,51,041,40,18,64,084,47,2*42
$GAGSV,1,1,03,13,58,292,40,15,51,041,45,18,64,084,45,7*40
$GBGSV,3,1,09,02,,,35,03,44,206,39,07,78,236,37,10,70,280,41,1*46
$GBGSV,3,2,09,13,39,232,41,27,,,40,28,67,013,45,33,45,108,42,1*47
$GBGSV,3,3,09,37,,,45,1*7A
$GBGSV,1,1,04,03,44,206,36,07,78,236,35,10,70,280,40,13,39,232,39,3*72
$GNRMC,033410.00,A,3727.0335936,N,12639.1563187,E,0.018,,210622,,,F,V*12
$GNVTG,,T,,M,0.018,N,0.032,K,D*30
$GNGNS,033410.00,3727.0335936,N,12639.1563187,E,FFFF,19,0.90,17.214,17.834,2.0,4095,V*02
$GNGGA,033410.00,3727.0335936,N,12639.1563187,E,5,12,0.90,17.214,M,17.834,M,2.0,4095*5D
$GNGSA,A,3,14,03,06,19,17,,,,,,,,1.96,0.90,1.74,1*0A
$GNGSA,A,3,85,75,71,70,76,,,,,,,,1.96,0.90,1.74,2*08
$GNGSA,A,3,13,15,,,,,,,,,,,1.96,0.90,1.74,3*00
$GNGSA,A,3,02,07,10,28,03,13,33,,,,,,1.96,0.90,1.74,4*0E
$GPGSV,2,1,06,03,55,071,41,06,34,261,36,14,56,200,46,17,66,343,44,1*64
$GPGSV,2,2,06,19,44,313,41,28,,,35,1*52
$GPGSV,1,1,04,03,55,071,42,06,34,261,30,14,56,200,36,17,66,343,40,6*64
$GLGSV,2,1,06,70,38,080,20,71,26,139,44,75,22,206,37,76,43,270,36,1*76
$GLGSV,2,2,06,77,20,324,27,85,41,043,48,1*7F
$GLGSV,2,1,05,71,26,139,27,75,22,206,37,76,43,270,32,77,20,324,18,3*7E
$GLGSV,2,2,05,85,41,043,38,3*4B
$GAGSV,1,1,03,13,58,292,37,15,51,041,40,18,64,084,47,2*42
$GAGSV,1,1,03,13,58,292,39,15,51,041,45,18,64,084,45,7*4E
$GBGSV,3,1,09,02,27,236,35,03,44,206,39,07,78,236,37,10,70,280,41,1*74
$GBGSV,3,2,09,13,39,232,41,27,,,39,28,67,013,45,33,45,108,42,1*49
$GBGSV,3,3,09,37,,,45,1*7A
$GBGSV,2,1,05,02,27,236,37,03,44,206,36,07,78,236,35,10,70,280,40,3*75
$GBGSV,2,2,05,13,39,232,39,3*40
$GNRMC,033411.00,A,3727.0335943,N,12639.1562993,E,0.032,,210622,,,F,V*15
$GNVTG,,T,,M,0.032,N,0.060,K,D*3F
$GNGNS,033411.00,3727.0335943,N,12639.1562993,E,FFFF,19,0.88,17.328,17.834,2.0,4095,V*0A
$GNGGA,033411.00,3727.0335943,N,12639.1562993,E,5,12,0.88,17.328,M,17.834,M,2.0,4095*55
$GNGSA,A,3,14,03,06,19,17,,,,,,,,1.89,0.88,1.67,1*0F
$GNGSA,A,3,85,75,71,70,76,,,,,,,,1.89,0.88,1.67,2*0D
$GNGSA,A,3,13,15,,,,,,,,,,,1.89,0.88,1.67,3*05
$GNGSA,A,3,02,07,10,28,03,13,33,,,,,,1.89,0.88,1.67,4*0B
$GPGSV,2,1,06,03,55,071,41,06,34,261,35,14,56,200,46,17,66,343,44,1*67
$GPGSV,2,2,06,19,44,313,39,28,,,34,1*5C
$GPGSV,1,1,04,03,55,071,41,06,34,261,29,14,56,200,36,17,66,343,40,6*6F
$GLGSV,2,1,06,70,38,080,19,71,26,139,44,75,22,206,34,76,43,270,37,1*7E
$GLGSV,2,2,06,77,20,324,27,85,41,043,48,1*7F
$GLGSV,2,1,05,71,26,139,27,75,22,206,37,76,43,270,33,77,20,324,19,3*7E
$GLGSV,2,2,05,85,41,043,38,3*4B
$GAGSV,1,1,03,13,58,292,36,15,51,041,40,18,64,084,48,2*4C
$GAGSV,1,1,03,13,58,292,39,15,51,041,46,18,64,084,45,7*4D
$GBGSV,3,1,09,02,27,236,34,03,44,206,39,07,78,236,37,10,70,280,40,1*74
$GBGSV,3,2,09,13,39,232,41,27,,,39,28,67,013,45,33,45,108,42,1*49
$GBGSV,3,3,09,37,,,44,1*7B
$GBGSV,2,1,05,02,27,236,36,03,44,206,36,07,78,236,34,10,70,280,39,3*7B
$GBGSV,2,2,05,13,39,232,39,3*40
$GNRMC,033412.00,A,3727.0335980,N,12639.1562760,E,0.018,,210622,,,F,V*13
$GNVTG,,T,,M,0.018,N,0.033,K,D*31
$GNGNS,033412.00,3727.0335980,N,12639.1562760,E,FFFF,19,0.88,17.427,17.834,2.0,4095,V*0C
$GNGGA,033412.00,3727.0335980,N,12639.1562760,E,5,12,0.88,17.427,M,17.834,M,2.0,4095*53
$GNGSA,A,3,14,03,06,19,17,,,,,,,,1.89,0.88,1.67,1*0F
$GNGSA,A,3,85,75,71,70,76,,,,,,,,1.89,0.88,1.67,2*0D
$GNGSA,A,3,13,15,,,,,,,,,,,1.89,0.88,1.67,3*05
$GNGSA,A,3,02,07,10,28,03,13,33,,,,,,1.89,0.88,1.67,4*0B
$GPGSV,2,1,06,03,55,071,39,06,34,261,34,14,56,200,44,17,66,343,43,1*6C
$GPGSV,2,2,06,19,44,313,39,28,,,33,1*5B
$GPGSV,1,1,04,03,55,071,41,06,34,261,28,14,56,200,36,17,66,343,40,6*6E
$GLGSV,2,1,06,70,38,080,18,71,26,139,42,75,22,206,33,76,43,270,34,1*7D
$GLGSV,2,2,06,77,20,324,26,85,41,043,46,1*70
$GLGSV,2,1,05,71,26,139,28,75,22,206,37,76,43,270,33,77,20,324,20,3*7B
$GLGSV,2,2,05,85,41,043,37,3*44
$GAGSV,1,1,03,13,58,292,36,15,51,041,40,18,64,084,47,2*43
$GAGSV,1,1,03,13,58,292,38,15,51,041,45,18,64,084,45,7*4F
$GBGSV,3,1,09,02,27,236,34,03,44,206,38,07,78,236,37,10,70,280,40,1*75
$GBGSV,3,2,09,13,39,232,40,27,,,39,28,67,013,45,33,45,108,40,1*4A
$GBGSV,3,3,09,37,,,44,1*7B
$GBGSV,2,1,05,02,27,236,36,03,44,206,36,07,78,236,34,10,70,280,39,3*7B
$GBGSV,2,2,05,13,39,232,39,3*40
$GNRMC,033413.00,A,3727.0335999,N,12639.1562666,E,0.021,,210622,,,F,V*17
$GNVTG,,T,,M,0.021,N,0.039,K,D*31
$GNGNS,033413.00,3727.0335999,N,12639.1562666,E,FFFF,19,0.88,17.470,17.834,1.0,4095,V*03
$GNGGA,033413.00,3727.0335999,N,12639.1562666,E,5,12,0.88,17.470,M,17.834,M,1.0,4095*5C
$GNGSA,A,3,14,03,06,19,17,,,,,,,,1.89,0.88,1.67,1*0F
$GNGSA,A,3,85,75,71,70,76,,,,,,,,1.89,0.88,1.67,2*0D
$GNGSA,A,3,13,15,,,,,,,,,,,1.89,0.88,1.67,3*05
$GNGSA,A,3,02,07,10,28,03,13,33,,,,,,1.89,0.88,1.67,4*0B
$GPGSV,2,1,06,03,55,071,40,06,34,261,35,14,56,200,45,17,66,343,44,1*65
$GPGSV,2,2,06,19,44,313,39,28,,,33,1*5B
$GPGSV,1,1,04,03,55,071,41,06,34,261,27,14,56,200,36,17,66,343,40,6*61
$GLGSV,2,1,06,70,38,080,18,71,26,139,43,75,22,206,35,76,43,270,35,1*7B
$GLGSV,2,2,06,77,20,324,26,85,41,043,46,1*70
$GLGSV,2,1,05,71,26,139,28,75,22,206,37,76,43,270,33,77,20,324,21,3*7A
$GLGSV,2,2,05,85,41,043,37,3*44
$GAGSV,1,1,03,13,58,292,36,15,51,041,39,18,64,084,48,2*42
$GAGSV,1,1,03,13,58,292,38,15,51,041,45,18,64,084,45,7*4F
$GBGSV,3,1,09,02,27,236,35,03,44,206,39,07,78,236,38,10,70,280,41,1*7B
$GBGSV,3,2,09,13,39,232,41,27,,,39,28,67,013,46,33,45,108,40,1*48
$GBGSV,3,3,09,37,,,45,1*7A
$GBGSV,2,1,05,02,27,236,36,03,44,206,37,07,78,236,34,10,70,280,39,3*7A
$GBGSV,2,2,05,13,39,232,40,3*4E
$GNRMC,033414.00,A,3727.0335966,N,12639.1562664,E,0.017,,210622,,,F,V*17
$GNVTG,,T,,M,0.017,N,0.032,K,D*3F
$GNGNS,033414.00,3727.0335966,N,12639.1562664,E,FFFF,19,0.88,17.536,17.834,2.0,4095,V*06
$GNGGA,033414.00,3727.0335966,N,12639.1562664,E,5,12,0.88,17.536,M,17.834,M,2.0,4095*59
$GNGSA,A,3,14,03,06,19,17,,,,,,,,1.89,0.88,1.67,1*0F
$GNGSA,A,3,85,75,71,70,76,,,,,,,,1.89,0.88,1.67,2*0D
$GNGSA,A,3,13,15,,,,,,,,,,,1.89,0.88,1.67,3*05
$GNGSA,A,3,02,07,10,28,03,13,33,,,,,,1.89,0.88,1.67,4*0B
$GPGSV,2,1,06,03,55,071,39,06,34,261,35,14,56,199,45,17,66,343,43,1*6F
$GPGSV,2,2,06,19,44,313,39,28,,,33,1*5B
$GPGSV,1,1,04,03,55,071,41,06,34,261,27,14,56,199,36,17,66,343,40,6*62
$GLGSV,2,1,06,70,38,080,19,71,26,139,43,75,22,206,35,76,43,270,35,1*7A
$GLGSV,2,2,06,77,20,324,25,85,41,043,47,1*72
$GLGSV,2,1,05,71,26,139,31,75,22,206,37,76,43,270,33,77,20,324,21,3*72
$GLGSV,2,2,05,85,41,043,37,3*44
$GAGSV,1,1,03,13,58,292,36,15,51,041,40,18,64,084,49,2*4D
$GAGSV,1,1,03,13,58,292,38,15,51,041,45,18,64,084,45,7*4F
$GBGSV,3,1,09,02,27,236,35,03,44,206,39,07,78,236,38,10,70,280,41,1*7B
$GBGSV,3,2,09,13,39,232,41,27,,,39,28,67,013,46,33,45,108,40,1*48
$GBGSV,3,3,09,37,,,45,1*7A
$GBGSV,2,1,05,02,27,236,36,03,44,206,37,07,78,236,34,10,70,280,39,3*7A
$GBGSV,2,2,05,13,39,232,40,3*4E
$GNRMC,033415.00,A,3727.0336008,N,12639.1562543,E,0.045,,210622,,,F,V*15
$GNVTG,,T,,M,0.045,N,0.084,K,D*35
$GNGNS,033415.00,3727.0336008,N,12639.1562543,E,FFFF,21,0.88,17.552,17.834,2.0,4095,V*0A
$GNGGA,033415.00,3727.0336008,N,12639.1562543,E,5,12,0.88,17.552,M,17.834,M,2.0,4095*5E
$GNGSA,A,3,14,03,06,19,17,,,,,,,,1.89,0.88,1.67,1*0F
$GNGSA,A,3,85,75,71,70,76,,,,,,,,1.89,0.88,1.67,2*0D
$GNGSA,A,3,13,15,,,,,,,,,,,1.89,0.88,1.67,3*05
$GNGSA,A,3,02,37,07,10,27,28,03,13,33,,,,1.89,0.88,1.67,4*0A
$GPGSV,2,1,06,03,55,071,40,06,34,261,35,14,56,199,45,17,66,343,43,1*61
$GPGSV,2,2,06,19,44,313,39,28,,,33,1*5B
$GPGSV,1,1,04,03,55,071,41,06,34,261,27,14,56,199,36,17,66,343,39,6*6C
$GLGSV,2,1,06,70,38,080,21,71,26,139,44,75,22,206,33,76,43,270,36,1*73
$GLGSV,2,2,06,77,20,324,25,85,41,043,46,1*73
$GLGSV,2,1,05,71,26,139,33,75,22,206,37,76,43,270,32,77,20,324,20,3*70
$GLGSV,2,2,05,85,41,043,36,3*45
$GAGSV,1,1,03,13,58,292,36,15,51,041,40,18,64,084,49,2*4D
$GAGSV,1,1,03,13,58,292,38,15,51,041,46,18,64,084,46,7*4F
$GBGSV,3,1,09,02,27,236,35,03,44,206,39,07,78,236,38,10,70,280,41,1*7B
$GBGSV,3,2,09,13,39,232,41,27,,,39,28,67,013,46,33,45,108,41,1*49
$GBGSV,3,3,09,37,,,45,1*7A
$GBGSV,2,1,05,02,27,236,36,03,44,206,36,07,78,236,34,10,70,280,40,3*75
$GBGSV,2,2,05,13,39,232,39,3*40
$GNRMC,033416.00,A,3727.0336093,N,12639.1562529,E,0.043,,210622,,,F,V*1E
$GNVTG,,T,,M,0.043,N,0.080,K,D*37
$GNGNS,033416.00,3727.0336093,N,12639.1562529,E,FFFF,21,0.82,17.584,17.834,2.0,4095,V*06
$GNGGA,033416.00,3727.0336093,N,12639.1562529,E,5,12,0.82,17.584,M,17.834,M,2.0,4095*52
$GNGSA,A,3,14,03,06,19,17,,,,,,,,1.76,0.82,1.56,1*07
$GNGSA,A,3,85,75,71,70,76,,,,,,,,1.76,0.82,1.56,2*05
$GNGSA,A,3,13,15,,,,,,,,,,,1.76,0.82,1.56,3*0D
$GNGSA,A,3,02,37,07,10,27,28,03,13,33,,,,1.76,0.82,1.56,4*02
$GPGSV,2,1,06,03,55,071,41,06,34,261,35,14,56,199,45,17,66,343,43,1*60
$GPGSV,2,2,06,19,44,313,38,28,,,32,1*5B
$GPGSV,1,1,04,03,55,071,42,06,34,261,27,14,56,199,36,17,66,343,39,6*6F
$GLGSV,2,1,06,70,38,080,23,71,26,139,42,75,22,206,36,76,43,270,36,1*72
$GLGSV,2,2,06,77,20,324,30,85,41,043,45,1*74
$GLGSV,2,1,05,71,26,139,28,75,22,206,37,76,43,270,33,77,20,324,22,3*79
$GLGSV,2,2,05,85,41,043,36,3*45
$GAGSV,1,1,03,13,58,292,36,15,51,041,38,18,64,084,49,2*42
$GAGSV,1,1,03,13,58,292,38,15,51,041,44,18,64,084,45,7*4E
$GBGSV,3,1,09,02,27,236,34,03,44,206,38,07,78,236,38,10,70,280,40,1*7A
$GBGSV,3,2,09,13,39,232,40,27,34,295,39,28,67,013,46,33,45,108,41,1*71
$GBGSV,3,3,09,37,28,234,44,1*44
$GBGSV,2,1,05,02,27,236,37,03,44,206,36,07,78,236,34,10,70,280,39,3*7A
$GBGSV,2,2,05,13,39,232,39,3*40
$GNRMC,033417.00,A,3727.0336049,N,12639.1562527,E,0.013,,210622,,,F,V*13
$GNVTG,,T,,M,0.013,N,0.024,K,D*3C
$GNGNS,033417.00,3727.0336049,N,12639.1562527,E,FFFF,21,0.82,17.589,17.834,2.0,4095,V*03
$GNGGA,033417.00,3727.0336049,N,12639.1562527,E,5,12,0.82,17.589,M,17.834,M,2.0,4095*57
$GNGSA,A,3,14,03,06,19,17,,,,,,,,1.76,0.82,1.56,1*07
$GNGSA,A,3,85,75,71,70,76,,,,,,,,1.76,0.82,1.56,2*05
$GNGSA,A,3,13,15,,,,,,,,,,,1.76,0.82,1.56,3*0D
$GNGSA,A,3,02,37,07,10,27,28,03,13,33,,,,1.76,0.82,1.56,4*02
$GPGSV,2,1,06,03,55,071,38,06,34,261,35,14,56,199,45,17,66,343,44,1*69
$GPGSV,2,2,06,19,44,313,39,28,,,33,1*5B
$GPGSV,1,1,04,03,55,071,41,06,34,261,27,14,56,199,36,17,66,343,39,6*6C
$GLGSV,2,1,06,70,38,080,25,71,26,139,43,75,22,206,36,76,43,270,36,1*75
$GLGSV,2,2,06,77,20,324,29,85,41,043,45,1*7C
$GLGSV,2,1,05,71,26,139,32,75,22,206,37,76,43,270,33,77,20,324,23,3*73
$GLGSV,2,2,05,85,41,043,37,3*44
$GAGSV,1,1,03,13,58,292,36,15,51,041,39,18,64,084,49,2*43
$GAGSV,1,1,03,13,58,292,38,15,51,041,45,18,64,084,45,7*4F
$GBGSV,3,1,09,02,27,236,34,03,44,206,38,07,78,236,37,10,70,280,40,1*75
$GBGSV,3,2,09,13,39,232,41,27,34,295,38,28,67,013,46,33,45,108,41,1*71
$GBGSV,3,3,09,37,28,234,44,1*44
$GBGSV,2,1,05,02,27,236,37,03,44,206,35,07,78,236,35,10,70,280,39,3*78
$GBGSV,2,2,05,13,39,232,39,3*40
$GNRMC,033418.00,A,3727.0335906,N,12639.1562535,E,0.017,,210622,,,F,V*1A
$GNVTG,,T,,M,0.017,N,0.031,K,D*3C
$GNGNS,033418.00,3727.0335906,N,12639.1562535,E,FFFF,21,0.82,17.637,17.834,2.0,4095,V*08
$GNGGA,033418.00,3727.0335906,N,12639.1562535,E,5,12,0.82,17.637,M,17.834,M,2.0,4095*5C
$GNGSA,A,3,85,75,71,70,76,,,,,,,,1.76,0.82,1.56,2*05
$GNGSA,A,3,13,15,,,,,,,,,,,1.76,0.82,1.56,3*0D
$GNGSA,A,3,02,37,07,10,27,28,03,13,33,,,,1.76,0.82,1.56,4*02
$GPGSV,2,1,07,03,55,071,37,06,34,261,33,14,56,199,45,17,66,343,44,1*61
$GPGSV,2,2,07,19,44,313,39,28,,,32,41,27,238,41,1*67
$GPGSV,1,1,04,03,55,071,41,06,34,261,26,14,56,199,36,17,66,343,39,6*6D
$GLGSV,2,1,06,70,38,080,25,71,26,139,42,75,22,206,37,76,43,270,36,1*75
$GLGSV,2,2,06,77,20,324,29,85,41,043,45,1*7C
$GLGSV,2,1,05,71,26,139,33,75,22,206,37,76,43,270,33,77,20,324,23,3*72
$GLGSV,2,2,05,85,41,043,37,3*44
$GAGSV,1,1,03,13,58,292,37,15,51,041,40,18,64,084,48,2*4D
$GAGSV,1,1,03,13,58,292,38,15,51,041,45,18,64,084,46,7*4C
$GBGSV,3,1,09,02,27,236,34,03,44,206,39,07,78,236,37,10,70,280,40,1*74
$GBGSV,3,2,09,13,39,232,40,27,34,295,37,28,67,013,45,33,45,108,41,1*7C
$GBGSV,3,3,09,37,28,234,44,1*44
$GBGSV,2,1,05,02,27,236,37,03,44,206,36,07,78,236,36,10,70,280,39,3*78
$GBGSV,2,2,05,13,3$GNRMC,033419.00,A,3727.0335824,N,12639.1562432,E,0.007,,210622,,,F,V*1D
$GNVTG,,T,,M,0.007,N,0.014,K,D*3A
$GNGNS,033419.00,3727.0335824,N,12639.1562432,E,FFFF,21,0.82,17.668,17.834,2.0,4095,V*04
$GNGGA,033419.00,3727.0335824,N,12639.1562432,E,5,12,0.82,17.668,M,17.834,M,2.0,4095*50
$GNGSA,A,3,14,03,06,19,17,,,,,,,,1.76,0.82,1.56,1*07
$GNGSA,A,3,85,75,71,70,76,,,,,,,,1.76,0.82,1.56,2*05
$GNGSA,A,3,13,15,,,,,,,,,,,1.76,0.82,1.56,3*0D
$GNGSA,A,3,02,37,07,10,27,28,03,13,33,,,,1.76,0.82,1.56,4*02
$GPGSV,2,1,07,03,55,071,39,06,34,261,32,14,56,199,45,17,66,343,44,1*6E
$GPGSV,2,2,07,19,44,313,39,28,,,31,41,27,238,41,1*64
$GPGSV,1,1,04,03,55,071,41,06,34,261,27,14,56,199,36,17,66,343,39,6*6C
$GLGSV,2,1,06,70,38,080,26,71,26,139,41,75,22,206,37,76,43,270,34,1*77
$GLGSV,2,2,06,77,20,324,29,85,41,043,46,1*7F
$GLGSV,2,1,05,71,26,139,33,75,22,206,34,76,43,270,32,77,20,324,23,3*70
$GLGSV,2,2,05,85,41,043,35,3*46
$GAGSV,1,1,03,13,58,292,36,15,51,041,40,18,64,084,48,2*4C
$GAGSV,1,1,03,13,58,292,39,15,51,041,45,18,64,084,46,7*4D
$GBGSV,3,1,09,02,27,236,34,03,44,206,39,07,78,236,37,10,70,280,40,1*74
$GBGSV,3,2,09,13,39,232,41,27,34,295,38,28,67,013,46,33,45,108,40,1*70
$GBGSV,3,3,09,37,28,234,44,1*44
$GBGSV,2,1,05,02,27,236,36,03,44,206,36,07,78,236,35,10,70,280,39,3*7A
$GBGSV,2,2,05,13,39,232,39,3*40
$GNRMC,033420.00,A,3727.0335849,N,12639.1562349,E,0.021,,210622,,,F,V*13
$GNVTG,,T,,M,0.021,N,0.039,K,D*31
$GNGNS,033420.00,3727.0335849,N,12639.1562349,E,FFFF,21,0.82,17.622,17.834,2.0,4095,V*00
$GNGGA,033420.00,3727.0335849,N,12639.1562349,E,5,12,0.82,17.622,M,17.834,M,2.0,4095*54
$GNGSA,A,3,14,03,06,19,17,,,,,,,,1.76,0.82,1.56,1*07
$GNGSA,A,3,85,75,71,70,76,,,,,,,,1.76,0.82,1.56,2*05
$GNGSA,A,3,13,15,,,,,,,,,,,1.76,0.82,1.56,3*0D
$GNGSA,A,3,02,37,07,10,27,28,03,13,33,,,,1.76,0.82,1.56,4*02
$GPGSV,2,1,07,03,55,071,40,06,34,261,32,14,56,199,45,17,66,343,44,1*60
$GPGSV,2,2,07,19,44,313,39,28,,,31,41,27,238,41,1*64
$GPGSV,1,1,04,03,55,071,42,06,34,261,28,14,56,199,36,17,66,343,39,6*60
$GLGSV,2,1,06,70,38,080,26,71,26,139,41,75,22,206,38,76,43,270,35,1*79
$GLGSV,2,2,06,77,20,324,30,85,41,043,46,1*77
$GLGSV,2,1,05,71,26,139,34,75,22,206,35,76,43,270,32,77,20,324,25,3*70
$GLGSV,2,2,05,85,41,043,35,3*46
$GAGSV,1,1,03,13,58,292,36,15,51,041,40,18,64,084,48,2*4C
$GAGSV,1,1,03,13,58,292,39,15,51,041,45,18,64,084,46,7*4D
$GBGSV,3,1,09,02,27,236,34,03,44,206,38,07,78,236,37,10,70,280,40,1*75
$GBGSV,3,2,09,13,39,232,41,27,34,295,39,28,67,013,46,33,45,108,40,1*71
$GBGSV,3,3,09,37,28,234,44,1*44
$GBGSV,2,1,05,02,27,236,36,03,44,206,37,07,78,236,34,10,70,280,39,3*7A
$GBGSV,2,2,05,13,39,232,39,3*40
$GNRMC,033421.00,A,3727.0335916,N,12639.1562347,E,0.032,,210622,,,F,V*15
$GNVTG,,T,,M,0.032,N,0.058,K,D*34
$GNGNS,033421.00,3727.0335916,N,12639.1562347,E,FFFF,21,0.82,17.503,17.834,2.0,4095,V*04
$GNGGA,033421.00,3727.0335916,N,12639.1562347,E,5,12,0.82,17.503,M,17.834,M,2.0,4095*50
$GNGSA,A,3,14,03,06,19,17,,,,,,,,1.76,0.82,1.56,1*07
$GNGSA,A,3,85,75,71,70,76,,,,,,,,1.76,0.82,1.56,2*05
$GNGSA,A,3,13,15,,,,,,,,,,,1.76,0.82,1.56,3*0D
$GNGSA,A,3,02,37,07,10,27,28,03,13,33,,,,1.76,0.82,1.56,4*02
$GPGSV,2,1,07,03,55,071,40,06,34,261,31,14,56,199,45,17,66,343,44,1*63
$GPGSV,2,2,07,19,44,313,39,28,,,32,41,27,238,41,1*67
$GPGSV,1,1,04,03,55,071,42,06,34,261,28,14,56,199,36,17,66,343,39,6*60
$GLGSV,2,1,06,70,38,080,26,71,26,139,40,75,22,206,38,76,43,270,35,1*78
$GLGSV,2,2,06,77,20,324,30,85,41,043,45,1*74
$GLGSV,2,1,05,71,26,139,35,75,22,206,35,76,43,270,33,77,20,324,26,3*73
$GLGSV,2,2,05,85,41,043,36,3*45
$GAGSV,1,1,03,13,58,292,36,15,51,041,39,18,64,084,48,2*42
$GAGSV,1,1,03,13,58,292,39,15,51,041,45,18,64,084,46,7*4D
$GBGSV,3,1,09,02,27,236,34,03,44,206,38,07,78,236,37,10,70,280,40,1*75
$GBGSV,3,2,09,13,39,232,41,27,34,295,39,28,67,013,46,33,45,108,40,1*71
$GBGSV,3,3,09,37,28,234,45,1*45
$GBGSV,2,1,05,02,27,236,36,03,44,206,37,07,78,236,34,10,70,280,38,3*7B
$GBGSV,2,2,05,13,39,232,39,3*40
$GNRMC,033422.00,A,3727.0332286,N,12639.1560789,E,0.023,,210622,,,R,V*03
$GNVTG,,T,,M,0.023,N,0.043,K,D*3E
$GNGNS,033422.00,3727.0332286,N,12639.1560789,E,RRRR,21,0.82,20.126,17.834,2.0,4095,V*01
$GNGGA,033422.00,3727.0332286,N,12639.1560789,E,4,12,0.82,20.126,M,17.834,M,2.0,4095*54
$GNGSA,A,3,14,03,06,19,17,,,,,,,,1.76,0.82,1.56,1*07
$GNGSA,A,3,85,75,71,70,76,,,,,,,,1.76,0.82,1.56,2*05
$GNGSA,A,3,13,15,,,,,,,,,,,1.76,0.82,1.56,3*0D
$GNGSA,A,3,02,37,07,10,27,28,03,13,33,,,,1.76,0.82,1.56,4*02
$GPGSV,2,1,07,03,55,071,41,06,34,261,32,14,56,199,46,17,66,343,45,1*63
$GPGSV,2,2,07,19,44,313,39,28,,,32,41,27,238,42,1*64
$GPGSV,1,1,04,03,55,071,42,06,34,261,28,14,56,199,36,17,66,343,39,6*60
$GLGSV,2,1,06,70,38,080,26,71,26,139,39,75,22,206,38,76,43,270,36,1*75
$GLGSV,2,2,06,77,20,324,30,85,41,043,46,1*77
$GLGSV,2,1,05,71,26,139,38,75,22,206,38,76,43,270,34,77,20,324,27,3*75
$GLGSV,2,2,05,85,41,043,38,3*4B
$GAGSV,1,1,03,13,58,292,36,15,51,041,40,18,64,084,48,2*4C
$GAGSV,1,1,03,13,58,292,39,15,51,041,45,18,64,084,46,7*4D
$GBGSV,3,1,09,02,27,236,34,03,44,206,38,07,78,236,37,10,70,280,40,1*75
$GBGSV,3,2,09,13,39,232,41,27,34,295,39,28,67,013,46,33,45,108,40,1*71
$GBGSV,3,3,09,37,28,234,44,1*44
$GBGSV,2,1,06,02,27,236,36,03,44,206,37,07,78,236,34,10,70,280,39,3*79
$GBGSV,2,2,06,13,39,232,39,27,34,295,17,3*79
$GNRMC,033423.00,A,3727.0332326,N,12639.1560805,E,0.016,,210622,,,R,V*04
$GNVTG,,T,,M,0.016,N,0.029,K,D*34
$GNGNS,033423.00,3727.0332326,N,12639.1560805,E,RRRR,21,0.82,20.113,17.834,1.0,4095,V*05
$GNGGA,033423.00,3727.0332326,N,12639.1560805,E,4,12,0.82,20.113,M,17.834,M,1.0,4095*50
$GNGSA,A,3,14,03,06,19,17,,,,,,,,1.76,0.82,1.56,1*07
$GNGSA,A,3,85,75,71,70,76,,,,,,,,1.76,0.82,1.56,2*05
$GNGSA,A,3,13,15,,,,,,,,,,,1.76,0.82,1.56,3*0D
$GNGSA,A,3,02,37,07,10,27,28,03,13,33,,,,1.76,0.82,1.56,4*02
$GPGSV,2,1,07,03,55,071,40,06,34,261,31,14,56,199,45,17,66,343,44,1*63
$GPGSV,2,2,07,19,44,313,39,28,,,31,41,27,238,41,1*64
$GPGSV,1,1,04,03,55,071,42,06,34,261,29,14,56,199,36,17,66,343,39,6*61
$GLGSV,2,1,06,70,38,080,26,71,26,139,39,75,22,206,39,76,43,270,35,1*77
$GLGSV,2,2,06,77,20,324,30,85,41,043,46,1*77
$GLGSV,2,1,05,71,26,139,37,75,22,206,37,76,43,270,34,77,20,324,28,3*7A
$GLGSV,2,2,05,85,41,043,38,3*4B
$GAGSV,1,1,03,13,58,292,36,15,51,041,40,18,64,084,49,2*4D
$GAGSV,1,1,03,13,58,292,39,15,51,041,44,18,64,084,45,7*4F
$GBGSV,3,1,09,02,27,236,34,03,44,206,38,07,78,236,37,10,70,280,40,1*75
$GBGSV,3,2,09,13,39,232,41,27,34,295,39,28,67,013,46,33,45,108,40,1*71
$GBGSV,3,3,09,37,28,234,44,1*44
$GBGSV,2,1,06,02,27,236,36,03,44,206,37,07,78,236,34,10,70,280,39,3*79
$GBGSV,2,2,06,13,39,232,39,27,34,295,14,3*7A
$GNRMC,033424.00,A,3727.0332311,N,12639.1560795,E,0.035,,210622,,,R,V*00
$GNVTG,,T,,M,0.035,N,0.064,K,D*3C
$GNGNS,033424.00,3727.0332311,N,12639.1560795,E,RRRR,21,0.82,20.114,17.834,2.0,4095,V*04
$GNGGA,033424.00,3727.0332311,N,12639.1560795,E,4,12,0.82,20.114,M,17.834,M,2.0,4095*51
$GNGSA,A,3,14,03,06,19,17,,,,,,,,1.76,0.82,1.56,1*07
$GNGSA,A,3,85,75,71,70,76,,,,,,,,1.76,0.82,1.56,2*05
$GNGSA,A,3,13,15,,,,,,,,,,,1.76,0.82,1.56,3*0D
$GNGSA,A,3,02,37,07,10,27,28,03,13,33,,,,1.76,0.82,1.56,4*02
$GPGSV,2,1,07,03,55,071,39,06,34,261,31,14,56,199,45,17,66,343,44,1*6D
$GPGSV,2,2,07,19,44,313,38,28,,,31,41,27,238,41,1*65
$GPGSV,1,1,04,03,55,071,42,06,34,261,29,14,56,199,36,17,66,343,39,6*61
$GLGSV,2,1,06,70,38,080,24,71,26,139,39,75,22,206,39,76,43,270,36,1*76
$GLGSV,2,2,06,77,20,324,31,85,41,043,46,1*76
$GLGSV,2,1,05,71,26,139,38,75,22,206,38,76,43,270,34,77,20,324,28,3*7A
$GLGSV,2,2,05,85,41,043,38,3*4B
$GAGSV,1,1,03,13,58,292,36,15,51,041,39,18,64,084,49,2*43
$GAGSV,1,1,03,13,58,292,39,15,51,041,45,18,64,084,46,7*4D
$GBGSV,3,1,09,02,27,236,34,03,44,206,38,07,78,236,38,10,70,280,40,1*7A
$GBGSV,3,2,09,13,39,232,41,27,34,295,38,28,67,013,46,33,45,108,40,1*70
$GBGSV,3,3,09,37,28,234,45,1*45
$GNRMC,033425.00,A,3727.0332271,N,12639.1560813,E,0.010,,210622,,,R,V*00
$GNVTG,,T,,M,0.010,N,0.018,K,D*30
$GNGNS,033425.00,3727.0332271,N,12639.1560813,E,RRRR,21,0.82,20.124,17.834,2.0,4095,V*00
$GNGGA,033425.00,3727.0332271,N,12639.1560813,E,4,12,0.82,20.124,M,17.834,M,2.0,4095*55
$GNGSA,A,3,14,03,06,19,17,,,,,,,,1.76,0.82,1.56,1*07
$GNGSA,A,3,85,75,71,70,76,,,,,,,,1.76,0.82,1.56,2*05
$GNGSA,A,3,13,15,,,,,,,,,,,1.76,0.82,1.56,3*0D
$GNGSA,A,3,02,37,07,10,27,28,03,13,33,,,,1.76,0.82,1.56,4*02
$GPGSV,2,1,07,03,55,071,39,06,34,261,32,14,56,199,45,17,66,343,44,1*6E
$GPGSV,2,2,07,19,44,313,38,28,,,30,41,27,238,41,1*64
$GPGSV,1,1,04,03,55,071,41,06,34,261,29,14,56,199,36,17,66,343,39,6*62
$GLGSV,2,1,06,70,38,080,23,71,26,139,43,75,22,206,39,76,43,270,37,1*7D
$GLGSV,2,2,06,77,20,324,31,85,41,043,46,1*76
$GLGSV,2,1,05,71,26,139,40,75,22,206,38,76,43,270,34,77,20,324,28,3*75
$GLGSV,2,2,05,85,41,043,38,3*4B
$GAGSV,1,1,03,13,58,292,36,15,51,041,39,18,64,084,49,2*43
$GAGSV,1,1,03,13,58,292,38,15,51,041,44,18,64,084,45,7*4E
$GBGSV,3,1,09,02,27,236,34,03,44,206,38,07,78,236,38,10,70,280,40,1*7A
$GBGSV,3,2,09,13,39,232,41,27,34,295,38,28,67,013,45,33,45,108,41,1*72
$GBGSV,3,3,09,37,28,234,45,1*45
$GNRMC,033426.00,A,3727.0332322,N,12639.1560778,E,0.016,,210622,,,R,V*00
$GNVTG,,T,,M,0.016,N,0.029,K,D*34
$GNGNS,033426.00,3727.0332322,N,12639.1560778,E,RRRR,21,0.82,20.122,17.834,2.0,4095,V*00
$GNGGA,033426.00,3727.0332322,N,12639.1560778,E,4,12,0.82,20.122,M,17.834,M,2.0,4095*55
$GNGSA,A,3,14,03,06,19,17,,,,,,,,1.76,0.82,1.56,1*07
$GNGSA,A,3,85,75,71,70,76,,,,,,,,1.76,0.82,1.56,2*05
$GNGSA,A,3,13,15,,,,,,,,,,,1.76,0.82,1.56,3*0D
$GNGSA,A,3,02,37,07,10,27,28,03,13,33,,,,1.76,0.82,1.56,4*02
$GPGSV,2,1,08,03,55,071,39,06,34,261,31,14,56,199,45,17,66,343,44,1*62
$GPGSV,2,2,08,19,44,313,39,28,,,30,41,27,238,41,50,43,151,37,1*59
$GPGSV,1,1,04,03,55,071,42,06,34,261,28,14,56,199,35,17,66,343,39,6*63
$GLGSV,2,1,06,70,38,080,23,71,26,139,44,75,22,206,39,76,43,270,36,1*7B
$GLGSV,2,2,06,77,20,324,32,85,41,043,46,1*75
$GLGSV,2,1,05,71,26,139,39,75,22,206,37,76,43,270,33,77,20,324,28,3*73
$GLGSV,2,2,05,85,41,043,38,3*4B
$GAGSV,1,1,03,13,58,292,36,15,51,041,38,18,64,084,49,2*42
$GAGSV,1,1,03,13,58,292,38,15,51,041,44,18,64,084,45,7*4E
$GBGSV,3,1,09,02,27,236,34,03,44,206,39,07,78,236,38,10,70,280,40,1*7B
$GBGSV,3,2,09,13,39,232,42,27,34,295,38,28,67,013,45,33,45,108,41,1*71
$GBGSV,3,3,09,37,28,234,45,1*45
$GBGSV,2,1,06,02,27,236,36,03,44,206,36,07,78,236,35,10,70,280,39,3*79
$GBGSV,2,2,06,13,39,232,39,27,34,295,08,3*77
$GNRMC,033427.00,A,3727.0332269,N,12639.1560801,E,0.015,,210622,,,R,V*0D
$GNVTG,,T,,M,0.015,N,0.028,K,D*36
$GNGNS,033427.00,3727.0332269,N,12639.1560801,E,RRRR,21,0.82,20.127,17.834,2.0,4095,V*0B
$GNGGA,033427.00,3727.0332269,N,12639.1560801,E,4,12,0.82,20.127,M,17.834,M,2.0,4095*5E
$GNGSA,A,3,14,03,06,19,17,,,,,,,,1.76,0.82,1.56,1*07
$GNGSA,A,3,85,75,71,70,76,,,,,,,,1.76,0.82,1.56,2*05
$GNGSA,A,3,13,15,,,,,,,,,,,1.76,0.82,1.56,3*0D
$GNGSA,A,3,02,37,07,10,27,28,03,13,33,,,,1.76,0.82,1.56,4*02
$GPGSV,2,1,08,03,55,071,39,06,34,261,32,14,56,199,45,17,66,343,44,1*61
$GPGSV,2,2,08,19,45,313,39,28,,,30,41,27,238,39,50,43,151,37,1*57
$GPGSV,1,1,04,03,55,071,42,06,34,261,28,14,56,199,35,17,66,343,39,6*63
$GLGSV,2,1,06,70,38,080,23,71,26,139,43,75,22,206,39,76,43,270,37,1*7D
$GLGSV,2,2,06,77,20,324,32,85,41,043,46,1*75
$GLGSV,2,1,05,71,26,139,39,75,22,206,37,76,43,270,33,77,20,324,28,3*73
$GLGSV,2,2,05,85,41,043,37,3*44
$GAGSV,1,1,03,13,58,292,36,15,51,041,38,18,64,084,50,2*4A
$GAGSV,1,1,03,13,58,292,38,15,51,041,44,18,64,084,45,7*4E
$GBGSV,3,1,09,02,27,236,34,03,44,206,38,07,78,236,38,10,70,280,40,1*7A
$GBGSV,3,2,09,13,39,232,42,27,34,295,38,28,67,013,45,33,45,108,41,1*71
$GBGSV,3,3,09,37,28,234,45,1*45
$GBGSV,2,1,06,02,27,236,36,03,44,206,36,07,78,236,35,10,70,280,39,3*79
$GBGSV,2,2,06,13,39,232,39,27,34,295,08,3*77
$GNRMC,033428.00,A,3727.0332279,N,12639.1560820,E,0.016,,210622,,,R,V*03
$GNVTG,,T,,M,0.016,N,0.029,K,D*34
$GNGNS,033428.00,3727.0332279,N,12639.1560820,E,RRRR,21,0.82,20.120,17.834,2.0,4095,V*01
$GNGGA,033428.00,3727.0332279,N,12639.1560820,E,4,12,0.82,20.120,M,17.834,M,2.0,4095*54
$GNGSA,A,3,14,03,06,19,17,,,,,,,,1.76,0.82,1.56,1*07
$GNGSA,A,3,85,75,71,70,76,,,,,,,,1.76,0.82,1.56,2*05
$GNGSA,A,3,13,15,,,,,,,,,,,1.76,0.82,1.56,3*0D
$GNGSA,A,3,02,37,07,10,27,28,03,13,33,,,,1.76,0.82,1.56,4*02
$GPGSV,2,1,08,03,55,071,39,06,34,261,32,14,56,199,45,17,66,343,44,1*61
$GPGSV,2,2,08,19,45,313,38,28,,,30,41,27,238,37,50,43,151,37,1*58
$GPGSV,1,1,04,03,55,071,42,06,34,261,27,14,56,199,35,17,66,343,39,6*6C
$GLGSV,2,1,06,70,38,080,23,71,26,139,43,75,22,206,39,76,43,270,37,1*7D
$GLGSV,2,2,06,77,20,324,32,85,41,043,46,1*75
$GLGSV,2,1,05,71,26,139,38,75,22,206,37,76,43,270,32,77,20,324,28,3*73
$GLGSV,2,2,05,85,41,043,37,3*44
$GAGSV,1,1,03,13,58,292,36,15,51,041,37,18,64,084,49,2*4D
$GAGSV,1,1,03,13,58,292,38,15,51,041,44,18,64,084,46,7*4D
$GBGSV,3,1,09,02,27,236,34,03,44,206,38,07,78,236,38,10,70,280,40,1*7A
$GBGSV,3,2,09,13,39,232,42,27,34,295,37,28,67,013,45,33,45,108,41,1*7E
$GBGSV,3,3,09,37,28,234,45,1*45
$GBGSV,2,1,06,02,27,236,35,03,44,206,36,07,78,236,36,10,70,280,39,3*79
$GBGSV,2,2,06,13,39,232,39,27,34,295,07,3*78
$GNRMC,033429.00,A,3727.0332316,N,12639.1560853,E,0.022,,210622,,,R,V*09
$GNVTG,,T,,M,0.022,N,0.041,K,D*3D
$GNGNS,033429.00,3727.0332316,N,12639.1560853,E,RRRR,21,0.82,20.116,17.834,2.0,4095,V*09
$GNGGA,033429.00,3727.0332316,N,12639.1560853,E,4,12,0.82,20.116,M,17.834,M,2.0,4095*5C
$GNGSA,A,3,14,03,06,19,17,,,,,,,,1.76,0.82,1.56,1*07
$GNGSA,A,3,85,75,71,70,76,,,,,,,,1.76,0.82,1.56,2*05
$GNGSA,A,3,13,15,,,,,,,,,,,1.76,0.82,1.56,3*0D
$GNGSA,A,3,02,37,07,10,27,28,03,13,33,,,,1.76,0.82,1.56,4*02
$GPGSV,2,1,08,03,55,071,39,06,34,261,33,14,56,199,45,17,66,343,45,1*61
$GPGSV,2,2,08,19,45,313,39,28,,,30,41,27,238,36,50,43,151,37,1*58
$GPGSV,1,1,04,03,55,071,42,06,34,261,27,14,56,199,35,17,66,343,39,6*6C
$GLGSV,2,1,06,70,38,080,22,71,26,139,44,75,22,206,40,76,43,270,37,1*75
$GLGSV,2,2,06,77,20,324,32,85,41,043,47,1*74
$GLGSV,2,1,05,71,26,139,37,75,22,206,37,76,43,270,33,77,20,324,28,3*7D
$GLGSV,2,2,05,85,41,043,37,3*44
$GAGSV,1,1,03,13,58,292,36,15,51,041,38,18,64,084,49,2*42
$GAGSV,1,1,03,13,58,292,38,15,51,041,44,18,64,084,46,7*4D
$GBGSV,3,1,09,02,27,236,34,03,44,206,38,07,78,236,38,10,70,280,40,1*7A
$GBGSV,3,2,09,13,39,232,42,27,34,295,38,28,67,013,46,33,45,108,41,1*72
$GBGSV,3,3,09,37,28,234,45,1*45
$GBGSV,2,1,06,02,27,236,36,03,44,206,37,07,78,236,36,10,70,280,39,3*7B
$GBGSV,2,2,06,13,39,232,39,27,34,295,07,3*78
$GNRMC,033430.00,A,3727.0332294,N,12639.1560808,E,0.004,,210622,,,R,V*00
$GNVTG,,T,,M,0.004,N,0.008,K,D*34
$GNGNS,033430.00,3727.0332294,N,12639.1560808,E,RRRR,21,0.82,20.129,17.834,2.0,4095,V*08
$GNGGA,033430.00,3727.0332294,N,12639.1560808,E,4,12,0.82,20.129,M,17.834,M,2.0,4095*5D
$GNGSA,A,3,14,03,06,19,17,,,,,,,,1.76,0.82,1.56,1*07
$GNGSA,A,3,85,75,71,70,76,,,,,,,,1.76,0.82,1.56,2*05
$GNGSA,A,3,13,15,,,,,,,,,,,1.76,0.82,1.56,3*0D
$GNGSA,A,3,02,37,07,10,27,28,03,13,33,,,,1.76,0.82,1.56,4*02
$GPGSV,2,1,08,03,55,071,39,06,34,261,32,14,56,199,45,17,66,343,44,1*61
$GPGSV,2,2,08,19,45,313,39,28,,,31,41,27,238,32,50,43,151,37,1*5D
$GPGSV,1,1,04,03,55,071,42,06,34,261,26,14,56,199,35,17,66,343,39,6*6D
$GLGSV,2,1,06,70,38,080,22,71,26,139,44,75,22,206,40,76,43,270,37,1*75
$GLGSV,2,2,06,77,20,324,31,85,41,043,47,1*77
$GLGSV,2,1,05,71,26,139,36,75,22,206,37,76,43,270,32,77,20,324,28,3*7D
$GLGSV,2,2,05,85,41,043,37,3*44
$GAGSV,1,1,03,13,58,292,36,15,51,041,38,18,64,084,49,2*42
$GAGSV,1,1,03,13,58,292,37,15,51,041,44,18,64,084,46,7*42
$GBGSV,3,1,09,02,27,236,34,03,44,206,38,07,78,236,38,10,70,280,40,1*7A
$GBGSV,3,2,09,13,39,232,42,27,34,295,38,28,67,013,46,33,45,108,41,1*72
$GBGSV,3,3,09,37,28,234,45,1*45
$GBGSV,2,1,06,02,27,236,36,03,44,206,36,07,78,236,35,10,70,280,39,3*79
$GBGSV,2,2,06,13,39,232,39,27,34,295,08,3*77
$GNRMC,033431.00,A,3727.0332251,N,12639.1560880,E,0.015,,210622,,,R,V*08
$GNVTG,,T,,M,0.015,N,0.027,K,D*39
$GNGNS,033431.00,3727.0332251,N,12639.1560880,E,RRRR,21,0.82,20.103,17.834,2.0,4095,V*08
$GNGGA,033431.00,3727.0332251,N,12639.1560880,E,4,12,0.82,20.103,M,17.834,M,2.0,4095*5D
$GNGSA,A,3,14,03,06,19,17,,,,,,,,1.76,0.82,1.56,1*07
$GNGSA,A,3,85,75,71,70,76,,,,,,,,1.76,0.82,1.56,2*05
$GNGSA,A,3,13,15,,,,,,,,,,,1.76,0.82,1.56,3*0D
$GNGSA,A,3,02,37,07,10,27,28,03,13,33,,,,1.76,0.82,1.56,4*02
$GPGSV,2,1,08,03,55,071,40,06,34,261,33,14,56,199,45,17,66,343,44,1*6E
$GPGSV,2,2,08,19,45,313,39,28,,,32,41,27,238,29,50,43,151,37,1*54
$GPGSV,1,1,04,03,55,071,42,06,34,261,27,14,56,199,35,17,66,343,38,6*6D
$GLGSV,2,1,06,70,38,080,21,71,26,139,43,75,22,206,40,76,43,270,38,1*7E
$GLGSV,2,2,06,77,20,324,31,85,41,043,47,1*77
$GLGSV,2,1,05,71,26,139,34,75,22,206,36,76,43,270,31,77,20,324,27,3*72
$GLGSV,2,2,05,85,41,043,35,3*46
$GAGSV,1,1,03,13,58,292,35,15,51,041,38,18,64,084,49,2*41
$GAGSV,1,1,03,13,58,292,37,15,51,041,44,18,64,084,46,7*42
$GBGSV,3,1,09,02,27,236,34,03,44,206,38,07,78,236,37,10,70,280,40,1*75
$GBGSV,3,2,09,13,39,232,42,27,34,295,38,28,67,013,46,33,45,108,41,1*72
$GBGSV,3,3,09,37,28,234,45,1*45
$GNRMC,033432.00,A,3727.0332202,N,12639.1560905,E,0.023,,210622,,,R,V*04
$GNVTG,,T,,M,0.023,N,0.042,K,D*3F
$GNGNS,033432.00,3727.0332202,N,12639.1560905,E,RRRR,21,0.82,20.091,17.834,2.0,4095,V*0B
$GNGGA,033432.00,3727.0332202,N,12639.1560905,E,4,12,0.82,20.091,M,17.834,M,2.0,4095*5E
$GNGSA,A,3,14,03,06,19,17,,,,,,,,1.76,0.82,1.56,1*07
$GNGSA,A,3,85,75,71,70,76,,,,,,,,1.76,0.82,1.56,2*05
$GNGSA,A,3,13,15,,,,,,,,,,,1.76,0.82,1.56,3*0D
$GNGSA,A,3,02,37,07,10,27,28,03,13,33,,,,1.76,0.82,1.56,4*02
$GPGSV,2,1,07,03,55,071,38,06,34,261,33,14,56,199,45,17,66,343,45,1*6F
$GPGSV,2,2,07,19,45,313,39,28,,,32,50,43,151,36,1*68
$GPGSV,1,1,04,03,55,071,42,06,34,261,27,14,56,199,35,17,66,343,38,6*6D
$GLGSV,2,1,06,70,38,080,22,71,26,139,42,75,22,206,41,76,43,270,38,1*7D
$GLGSV,2,2,06,77,20,324,30,85,41,043,46,1*77
$GLGSV,2,1,05,71,26,139,33,75,22,206,37,76,43,270,31,77,20,324,27,3*74
$GLGSV,2,2,05,85,41,043,37,3*44
$GAGSV,1,1,03,13,58,292,34,15,51,041,37,18,64,084,49,2*4F
$GAGSV,1,1,03,13,58,292,38,15,51,041,44,18,64,084,45,7*4E
$GBGSV,3,1,09,02,27,236,34,03,44,206,38,07,78,236,37,10,70,280,40,1*75
$GBGSV,3,2,09,13,39,232,42,27,34,295,38,28,67,013,46,33,45,108,41,1*72
$GBGSV,3,3,09,37,28,234,44,1*44
$GBGSV,2,1,06,02,27,236,36,03,44,206,36,07,78,236,35,10,70,280,39,3*79
$GBGSV,2,2,06,13,39,232,39,27,34,295,07,3*78
$GNRMC,033433.00,A,3727.0332205,N,12639.1560926,E,0.036,,210622,,,R,V*07
$GNVTG,,T,,M,0.036,N,0.067,K,D*3C
$GNGNS,033433.00,3727.0332205,N,12639.1560926,E,RRRR,21,0.82,20.090,17.834,1.0,4095,V*0E
$GNGGA,033433.00,3727.0332205,N,12639.1560926,E,4,12,0.82,20.090,M,17.834,M,1.0,4095*5B
$GNGSA,A,3,14,03,06,19,17,,,,,,,,1.76,0.82,1.56,1*07
$GNGSA,A,3,85,75,71,70,76,,,,,,,,1.76,0.82,1.56,2*05
$GNGSA,A,3,13,15,,,,,,,,,,,1.76,0.82,1.56,3*0D
$GNGSA,A,3,02,37,07,10,27,28,03,13,33,,,,1.76,0.82,1.56,4*02
$GPGSV,2,1,08,03,55,071,38,06,34,261,32,14,56,199,45,17,66,343,45,1*61
$GPGSV,2,2,08,19,45,313,39,28,,,32,41,27,238,41,50,43,151,36,1*5B
$GPGSV,1,1,04,03,55,071,42,06,34,261,28,14,56,199,35,17,66,343,39,6*63
$GLGSV,2,1,06,70,38,080,21,71,26,139,41,75,22,206,40,76,43,270,38,1*7C
$GLGSV,2,2,06,77,20,324,30,85,41,043,46,1*77
$GLGSV,2,1,05,71,26,139,32,75,22,206,39,76,43,270,31,77,20,324,28,3*74
$GLGSV,2,2,05,85,41,043,38,3*4B
$GAGSV,1,1,03,13,58,292,35,15,51,041,38,18,64,084,50,2*49
$GAGSV,1,1,03,13,58,292,38,15,51,041,44,18,64,084,46,7*4D
$GBGSV,3,1,09,02,27,236,34,03,44,206,39,07,78,236,37,10,70,280,40,1*74
$GBGSV,3,2,09,13,39,232,42,27,34,295,39,28,67,013,46,33,45,108,42,1*70
$GBGSV,3,3,09,37,28,234,44,1*44
$GBGSV,2,1,05,02,27,236,36,03,44,206,36,07,78,236,35,10,70,280,39,3*7A
$GBGSV,2,2,05,13,39,232,38,3*41
$GNRMC,033434.00,A,3727.0332198,N,12639.1560949,E,0.013,,210622,,,R,V*09
$GNVTG,,T,,M,0.013,N,0.025,K,D*3D
$GNGNS,033434.00,3727.0332198,N,12639.1560949,E,RRRR,21,0.82,20.087,17.834,2.0,4095,V*02
$GNGGA,033434.00,3727.0332198,N,12639.1560949,E,4,12,0.82,20.087,M,17.834,M,2.0,4095*57
$GNGSA,A,3,14,03,06,19,17,,,,,,,,1.76,0.82,1.56,1*07
$GNGSA,A,3,85,75,71,70,76,,,,,,,,1.76,0.82,1.56,2*05
$GNGSA,A,3,13,15,,,,,,,,,,,1.76,0.82,1.56,3*0D
$GNGSA,A,3,02,37,07,10,27,28,03,13,33,,,,1.76,0.82,1.56,4*02
$GPGSV,2,1,08,03,55,071,39,06,34,261,31,14,56,199,46,17,66,343,45,1*60
$GPGSV,2,2,08,19,45,313,39,28,,,32,41,27,238,41,50,43,151,36,1*5B
$GPGSV,1,1,04,03,55,071,42,06,34,261,27,14,56,199,35,17,66,343,38,6*6D
$GLGSV,2,1,06,70,38,080,22,71,26,139,43,75,22,206,40,76,43,270,37,1*72
$GLGSV,2,2,06,77,20,324,30,85,41,043,46,1*77
$GLGSV,2,1,05,71,26,139,31,75,22,206,39,76,43,270,33,77,20,324,29,3*74
$GLGSV,2,2,05,85,41,043,39,3*4A
$GAGSV,1,1,03,13,58,292,35,15,51,041,39,18,64,084,50,2*48
$GAGSV,1,1,03,13,58,292,38,15,51,041,44,18,64,084,46,7*4D
$GBGSV,3,1,09,02,27,236,34,03,44,206,38,07,78,236,37,10,70,280,40,1*75
$GBGSV,3,2,09,13,39,232,42,27,34,295,39,28,67,013,46,33,45,108,41,1*73
$GBGSV,3,3,09,37,28,234,44,1*44
$GBGSV,2,1,05,02,27,236,36,03,44,206,36,07,78,236,35,10,70,280,39,3*7A
$GBGSV,2,2,05,13,39,232,38,3*41
$GNRMC,033435.00,A,3727.0332294,N,12639.1560861,E,0.020,,210622,,,R,V*0C
$GNVTG,,T,,M,0.020,N,0.036,K,D*3F
$GNGNS,033435.00,3727.0332294,N,12639.1560861,E,RRRR,21,0.82,20.116,17.834,2.0,4095,V*0E
$GNGGA,033435.00,3727.0332294,N,12639.1560861,E,4,12,0.82,20.116,M,17.834,M,2.0,4095*5B
$GNGSA,A,3,14,03,06,19,17,,,,,,,,1.76,0.82,1.56,1*07
$GNGSA,A,3,85,75,71,70,76,,,,,,,,1.76,0.82,1.56,2*05
$GNGSA,A,3,13,15,,,,,,,,,,,1.76,0.82,1.56,3*0D
$GNGSA,A,3,02,37,07,10,27,28,03,13,33,,,,1.76,0.82,1.56,4*02
$GPGSV,2,1,08,03,55,071,39,06,34,261,32,14,56,199,45,17,66,343,45,1*60
$GPGSV,2,2,08,19,45,313,40,28,,,33,41,27,238,41,50,43,151,36,1*54
$GPGSV,1,1,04,03,55,071,41,06,34,261,26,14,56,199,34,17,66,343,38,6*6E
$GLGSV,2,1,06,70,38,080,22,71,26,139,44,75,22,206,40,76,43,270,38,1*7A
$GLGSV,2,2,06,77,20,324,28,85,41,043,46,1*7E
$GLGSV,2,1,05,71,26,139,32,75,22,206,39,76,43,270,33,77,20,324,28,3*76
$GLGSV,2,2,05,85,41,043,38,3*4B
$GAGSV,1,1,03,13,58,292,35,15,51,041,40,18,64,084,50,2*46
$GAGSV,1,1,03,13,58,292,38,15,51,041,44,18,64,084,46,7*4D
$GBGSV,3,1,09,02,27,236,35,03,44,206,38,07,78,236,38,10,70,280,40,1*7B
$GBGSV,3,2,09,13,39,232,41,27,34,295,39,28,67,013,45,33,45,108,42,1*70
$GBGSV,3,3,09,37,28,234,44,1*44
$GBGSV,2,1,05,02,27,236,36,03,44,206,36,07,78,236,36,10,70,280,39,3*79
$GBGSV,2,2,05,13,39,232,38,3*41
$GNRMC,033436.00,A,3727.0332308,N,12639.1560832,E,0.022,,210622,,,R,V*0F
$GNVTG,,T,,M,0.022,N,0.041,K,D*3D
$GNGNS,033436.00,3727.0332308,N,12639.1560832,E,RRRR,21,0.82,20.131,17.834,2.0,4095,V*0A
$GNGGA,033436.00,3727.0332308,N,12639.1560832,E,4,12,0.82,20.131,M,17.834,M,2.0,4095*5F
$GNGSA,A,3,14,03,06,19,17,,,,,,,,1.76,0.82,1.56,1*07
$GNGSA,A,3,85,75,71,70,76,,,,,,,,1.76,0.82,1.56,2*05
$GNGSA,A,3,13,15,,,,,,,,,,,1.76,0.82,1.56,3*0D
$GNGSA,A,3,02,37,07,10,27,28,03,13,33,,,,1.76,0.82,1.56,4*02
$GPGSV,2,1,08,03,55,071,40,06,34,261,33,14,56,199,45,17,66,343,45,1*6F
$GPGSV,2,2,08,19,45,313,40,28,,,32,41,27,238,41,50,43,151,36,1*55
$GPGSV,1,1,04,03,55,071,41,06,34,261,25,14,56,199,34,17,66,343,38,6*6D
$GLGSV,2,1,06,70,38,080,22,71,26,139,44,75,22,206,40,76,43,270,38,1*7A
$GLGSV,2,2,06,77,20,324,28,85,41,043,46,1*7E
$GLGSV,2,1,05,71,26,139,32,75,22,206,39,76,43,270,33,77,20,324,28,3*76
$GLGSV,2,2,05,85,41,043,38,3*4B
$GAGSV,1,1,03,13,58,292,36,15,51,041,37,18,64,084,50,2*45
$GAGSV,1,1,03,13,58,292,38,15,51,041,44,18,64,084,45,7*4E
$GBGSV,3,1,09,02,27,236,35,03,44,206,38,07,78,236,38,10,70,280,40,1*7B
$GBGSV,3,2,09,13,39,232,41,27,34,295,39,28,67,013,45,33,45,108,42,1*70
$GBGSV,3,3,09,37,28,234,44,1*44
$GBGSV,2,1,05,02,27,236,37,03,44,206,36,07,78,236,36,10,70,280,40,3*76
$GBGSV,2,2,05,13,39,232,38,3*41
$GNRMC,033437.00,A,3727.0332300,N,12639.1560855,E,0.016,,210622,,,R,V*00
$GNVTG,,T,,M,0.016,N,0.029,K,D*34
$GNGNS,033437.00,3727.0332300,N,12639.1560855,E,RRRR,21,0.82,20.136,17.834,2.0,4095,V*05
$GNGGA,033437.00,3727.0332300,N,12639.1560855,E,4,12,0.82,20.136,M,17.834,M,2.0,4095*50
$GNGSA,A,3,14,03,06,19,17,,,,,,,,1.76,0.82,1.56,1*07
$GNGSA,A,3,85,75,71,70,76,,,,,,,,1.76,0.82,1.56,2*05
$GNGSA,A,3,13,15,,,,,,,,,,,1.76,0.82,1.56,3*0D
$GNGSA,A,3,02,37,07,10,27,28,03,13,33,,,,1.76,0.82,1.56,4*02
$GPGSV,2,1,08,03,55,071,40,06,34,261,33,14,56,199,45,17,66,343,45,1*6F
$GPGSV,2,2,08,19,45,313,40,28,,,32,41,27,238,42,50,43,151,36,1*56
$GPGSV,1,1,04,03,55,071,41,06,34,261,26,14,56,199,35,17,66,343,39,6*6E
$GLGSV,2,1,06,70,38,080,21,71,26,139,44,75,22,206,40,76,43,270,37,1*76
$GLGSV,2,2,06,77,20,324,26,85,41,043,47,1*71
$GLGSV,2,1,05,71,26,139,30,75,22,206,39,76,43,270,33,77,20,324,27,3*7B
$GLGSV,2,2,05,85,41,043,38,3*4B
$GAGSV,1,1,03,13,58,292,36,15,51,041,37,18,64,084,50,2*45
$GAGSV,1,1,03,13,58,292,38,15,51,041,44,18,64,084,45,7*4E
$GBGSV,3,1,09,02,27,236,35,03,44,206,38,07,78,236,38,10,70,280,40,1*7B
$GBGSV,3,2,09,13,39,232,41,27,34,295,39,28,67,013,45,33,45,108,41,1*73
$GBGSV,3,3,09,37,28,234,44,1*44
$GBGSV,2,1,05,02,27,236,37,03,44,206,36,07,78,236,36,10,70,280,39,3*78
$GBGSV,2,2,05,13,39,232,38,3*41
$GNRMC,033438.00,A,3727.0332303,N,12639.1560864,E,0.023,,210622,,,R,V*08
$GNVTG,,T,,M,0.023,N,0.043,K,D*3E
$GNGNS,033438.00,3727.0332303,N,12639.1560864,E,RRRR,21,0.82,20.133,17.834,2.0,4095,V*0E
$GNGGA,033438.00,3727.0332303,N,12639.1560864,E,4,12,0.82,20.133,M,17.834,M,2.0,4095*5B
$GNGSA,A,3,14,03,06,19,17,,,,,,,,1.76,0.82,1.56,1*07
$GNGSA,A,3,85,75,71,70,76,,,,,,,,1.76,0.82,1.56,2*05
$GNGSA,A,3,13,15,,,,,,,,,,,1.76,0.82,1.56,3*0D
$GNGSA,A,3,02,37,07,10,27,28,03,13,33,,,,1.76,0.82,1.56,4*02
$GPGSV,2,1,08,03,55,071,40,06,34,261,34,14,56,199,45,17,66,343,45,1*68
$GPGSV,2,2,08,19,45,313,39,28,,,32,41,27,238,42,50,43,151,36,1*58
$GPGSV,1,1,04,03,55,071,41,06,34,261,25,14,56,199,35,17,66,343,39,6*6D
$GLGSV,2,1,06,70,38,080,21,71,26,139,44,75,22,206,40,76,43,270,37,1*76
$GLGSV,2,2,06,77,20,324,25,85,41,043,47,1*72
$GLGSV,2,1,05,71,26,139,29,75,22,206,39,76,43,270,33,77,20,324,27,3*73
$GLGSV,2,2,05,85,41,043,37,3*44
$GAGSV,1,1,03,13,58,292,36,15,51,041,37,18,64,084,50,2*45
$GAGSV,1,1,03,13,58,292,37,15,51,041,43,18,64,084,45,7*46
$GBGSV,3,1,09,02,27,236,35,03,44,206,37,07,78,236,38,10,70,280,40,1*74
$GBGSV,3,2,09,13,39,232,41,27,34,295,39,28,67,013,45,33,45,108,41,1*73
$GBGSV,3,3,09,37,28,234,44,1*44
$GBGSV,2,1,05,02,27,236,37,03,44,206,36,07,78,236,36,10,70,280,39,3*78
$GBGSV,2,2,05,13,39,232,38,3*41
$GNRMC,033439.00,A,3727.0332288,N,12639.1560906,E,0.036,,210622,,,R,V*0A
$GNVTG,,T,,M,0.036,N,0.066,K,D*3D
$GNGNS,033439.00,3727.0332288,N,12639.1560906,E,RRRR,22,0.82,20.127,17.834,2.0,4095,V*0E
$GNGGA,033439.00,3727.0332288,N,12639.1560906,E,4,12,0.82,20.127,M,17.834,M,2.0,4095*58
$GNGSA,A,3,14,03,06,19,17,,,,,,,,1.76,0.82,1.56,1*07
$GNGSA,A,3,85,75,71,70,76,77,,,,,,,1.76,0.82,1.56,2*05
$GNGSA,A,3,13,15,,,,,,,,,,,1.76,0.82,1.56,3*0D
$GNGSA,A,3,02,37,07,10,27,28,03,13,33,,,,1.76,0.82,1.56,4*02
$GPGSV,2,1,08,03,55,071,41,06,34,261,34,14,56,199,45,17,66,343,45,1*69
$GPGSV,2,2,08,19,45,313,40,28,,,32,41,27,238,42,50,43,151,36,1*56
$GPGSV,1,1,04,03,55,071,41,06,34,261,25,14,56,199,35,17,66,343,39,6*6D
$GLGSV,2,1,06,70,38,080,21,71,26,139,44,75,22,206,40,76,43,270,37,1*76
$GLGSV,2,2,06,77,20,324,25,85,41,043,47,1*72
$GLGSV,2,1,05,71,26,139,29,75,22,206,39,76,43,270,34,77,20,324,27,3*74
$GLGSV,2,2,05,85,41,043,37,3*44
$GAGSV,1,1,03,13,58,292,35,15,51,041,38,18,64,084,50,2*49
$GAGSV,1,1,03,13,58,292,38,15,51,041,43,18,64,084,45,7*49
$GBGSV,3,1,09,02,27,236,34,03,44,206,38,07,78,236,38,10,70,280,40,1*7A
$GBGSV,3,2,09,13,39,232,42,27,34,295,39,28,67,013,45,33,45,108,41,1*70
$GBGSV,3,3,09,37,28,234,44,1*44
$GBGSV,2,1,05,02,27,236,37,03,44,206,36,07,78,236,36,10,70,280,40,3*76
$GBGSV,2,2,05,13,39,232,38,3*41
$GNRMC,033440.00,A,3727.0332313,N,12639.1560877,E,0.018,,210622,,,R,V*0C
$GNVTG,,T,,M,0.018,N,0.033,K,D*31
$GNGNS,033440.00,3727.0332313,N,12639.1560877,E,RRRR,22,0.82,20.126,17.834,2.0,4095,V*05
$GNGGA,033440.00,3727.0332313,N,12639.1560877,E,4,12,0.82,20.126,M,17.834,M,2.0,4095*53
$GNGSA,A,3,14,03,06,19,17,,,,,,,,1.76,0.82,1.56,1*07
$GNGSA,A,3,85,75,71,70,76,77,,,,,,,1.76,0.82,1.56,2*05
$GNGSA,A,3,13,15,,,,,,,,,,,1.76,0.82,1.56,3*0D
$GNGSA,A,3,02,37,07,10,27,28,03,13,33,,,,1.76,0.82,1.56,4*02
$GPGSV,2,1,08,03,55,071,41,06,34,261,33,14,56,199,45,17,66,343,45,1*6E
$GPGSV,2,2,08,19,45,313,40,28,,,31,41,27,238,42,50,47,179,36,1*5B
$GPGSV,1,1,04,03,55,071,41,06,34,261,25,14,56,199,34,17,66,343,39,6*6C
$GLGSV,2,1,06,70,38,080,20,71,26,139,43,75,22,206,40,76,43,270,39,1*7E
$GLGSV,2,2,06,77,20,324,25,85,41,043,47,1*72
$GLGSV,2,1,05,71,26,139,29,75,22,206,39,76,43,270,34,77,20,324,26,3*75
$GLGSV,2,2,05,85,41,043,38,3*4B
$GAGSV,1,1,03,13,58,292,35,15,51,041,37,18,64,084,49,2*4E
$GAGSV,1,1,03,13,58,292,38,15,51,041,43,18,64,084,45,7*49
$GBGSV,3,1,09,02,27,236,34,03,44,206,38,07,78,236,38,10,70,280,40,1*7A
$GBGSV,3,2,09,13,39,232,42,27,34,295,39,28,67,013,45,33,45,108,41,1*70
$GBGSV,3,3,09,37,28,234,44,1*44
$GBGSV,2,1,05,02,27,236,37,03,44,206,35,07,78,236,35,10,70,280,40,3*76
$GBGSV,2,2,05,13,39,232,38,3*41
$GNRMC,033441.00,A,3727.0332350,N,12639.1560791,E,0.060,,210622,,,R,V*02
$GNVTG,,T,,M,0.060,N,0.111,K,D*3F
$GNGNS,033441.00,3727.0332350,N,12639.1560791,E,RRRR,22,0.82,20.128,17.834,2.0,4095,V*0A
$GNGGA,033441.00,3727.0332350,N,12639.1560791,E,4,12,0.82,20.128,M,17.834,M,2.0,4095*5C
$GNGSA,A,3,14,03,06,19,17,,,,,,,,1.76,0.82,1.56,1*07
$GNGSA,A,3,85,75,71,70,76,77,,,,,,,1.76,0.82,1.56,2*05
$GNGSA,A,3,13,15,,,,,,,,,,,1.76,0.82,1.56,3*0D
$GNGSA,A,3,02,37,07,10,27,28,03,13,33,,,,1.76,0.82,1.56,4*02
$GPGSV,2,1,08,03,55,071,41,06,34,261,33,14,56,199,45,17,66,343,45,1*6E
$GPGSV,2,2,08,19,45,313,40,28,,,29,41,27,238,42,50,47,179,36,1*52
$GPGSV,1,1,04,03,55,071,41,06,34,261,25,14,56,199,33,17,66,343,39,6*6B
$GLGSV,2,1,06,70,38,080,20,71,26,139,43,75,22,206,40,76,43,270,38,1*7F
$GLGSV,2,2,06,77,20,324,25,85,41,043,47,1*72
$GLGSV,2,1,05,71,26,139,27,75,22,206,39,76,43,270,33,77,20,324,26,3*7C
$GLGSV,2,2,05,85,41,043,38,3*4B
$GAGSV,1,1,03,13,59,292,35,15,51,041,37,18,64,084,50,2*47
$GAGSV,1,1,03,13,59,292,38,15,51,041,44,18,64,084,45,7*4F
$GBGSV,3,1,09,02,27,236,35,03,44,206,38,07,78,236,38,10,70,280,40,1*7B
$GBGSV,3,2,09,13,39,232,42,27,34,295,39,28,67,013,45,33,45,108,41,1*70
$GBGSV,3,3,09,37,28,234,44,1*44
$GBGSV,2,1,05,02,27,236,37,03,44,206,35,07,78,236,35,10,70,280,40,3*76
$GBGSV,2,2,05,13,39,232,38,3*41
$GNRMC,033442.00,A,3727.0332369,N,12639.1560748,E,0.009,,210622,,,R,V*00
$GNVTG,,T,,M,0.009,N,0.017,K,D*37
$GNGNS,033442.00,3727.0332369,N,12639.1560748,E,RRRR,22,0.82,20.128,17.834,2.0,4095,V*07
$GNGGA,033442.00,3727.0332369,N,12639.1560748,E,4,12,0.82,20.128,M,17.834,M,2.0,4095*51
$GNGSA,A,3,14,03,06,19,17,,,,,,,,1.76,0.82,1.56,1*07
$GNGSA,A,3,85,75,71,70,76,77,,,,,,,1.76,0.82,1.56,2*05
$GNGSA,A,3,13,15,,,,,,,,,,,1.76,0.82,1.56,3*0D
$GNGSA,A,3,02,37,07,10,27,28,03,13,33,,,,1.76,0.82,1.56,4*02
$GPGSV,2,1,08,03,55,071,41,06,34,261,33,14,56,199,45,17,66,343,45,1*6E
$GPGSV,2,2,08,19,45,313,39,28,,,28,41,27,238,42,50,47,179,37,1*5C
$GPGSV,1,1,04,03,55,071,41,06,34,261,24,14,56,199,32,17,66,343,37,6*65
$GLGSV,2,1,06,70,38,080,19,71,26,139,44,75,22,206,38,76,43,270,38,1*7D
$GLGSV,2,2,06,77,20,324,26,85,41,043,47,1*71
$GLGSV,2,1,05,71,26,139,25,75,22,206,39,76,43,270,33,77,20,324,26,3*7E
$GLGSV,2,2,05,85,41,043,38,3*4B
$GAGSV,1,1,03,13,59,292,35,15,51,041,39,18,64,084,49,2*41
$GAGSV,1,1,03,13,59,292,39,15,51,041,45,18,64,084,46,7*4C
$GBGSV,3,1,09,02,27,236,34,03,44,206,37,07,78,236,38,10,70,280,40,1*75
$GBGSV,3,2,09,13,39,232,42,27,34,295,39,28,67,013,45,33,45,108,39,1*7F
$GBGSV,3,3,09,37,28,234,44,1*44
$GBGSV,2,1,05,02,27,236,37,03,44,206,35,07,78,236,33,10,70,280,40,3*70
$GBGSV,2,2,05,13,39,232,38,3*41
$GNRMC,033443.00,A,3727.0332384,N,12639.1560740,E,0.027,,210622,,,R,V*06
$GNVTG,,T,,M,0.027,N,0.050,K,D*38
$GNGGA,033443.00,3727.0332384,N,12639.1560740,E,4,12,0.82,20.140,M,17.834,M,1.0,4095*56
$GNGSA,A,3,14,03,06,19,17,,,,,,,,1.76,0.82,1.56,1*07
$GNGSA,A,3,85,75,71,70,76,77,,,,,,,1.76,0.82,1.56,2*05
$GNGSA,A,3,13,15,,,,,,,,,,,1.76,0.82,1.56,3*0D
$GNGSA,A,3,02,37,07,10,27,28,03,13,33,,,,1.76,0.82,1.56,4*02
$GPGSV,2,1,08,03,55,071,42,06,34,261,33,14,56,199,45,17,66,343,44,1*6C
$GPGSV,2,2,08,19,45,313,41,28,,,28,41,27,238,41,50,47,179,37,1*50
$GPGSV,1,1,04,03,55,071,41,06,34,261,25,14,56,199,33,17,66,343,38,6*6A
$GLGSV,2,1,06,70,38,080,19,71,26,139,44,75,22,206,39,76,43,270,37,1*73
$GLGSV,2,2,06,77,20,324,27,85,41,043,47,1*70
$GLGSV,2,1,05,71,26,139,24,75,22,206,38,76,43,270,32,77,20,324,26,3*7F
$GLGSV,2,2,05,85,41,043,36,3*45
$GAGSV,1,1,03,13,59,292,35,15,51,041,38,18,63,085,50,2*4E
$GAGSV,1,1,03,13,59,292,38,15,51,041,45,18,63,085,45,7*48
$GBGSV,3,1,09,02,27,236,34,03,44,206,38,07,78,236,38,10,70,280,40,1*7A
