$GNRMC,033554.00,A,3727.0332346,N,12639.1560737,E,0.023,,210622,,,R,V*0B
$GNVTG,,T,,M,0.023,N,0.042,K,D*3F
$GNGNS,033554.00,3727.0332346,N,12639.1560737,E,RRRR,23,0.77,20.115,17.834,2.0,4095,V*01
$GNGSA,A,3,14,03,06,19,17,,,,,,,,1.71,0.77,1.53,1*0F
$GNGSA,A,3,85,75,71,76,77,,,,,,,,1.71,0.77,1.53,2*0A
$GNGSA,A,3,21,27,13,15,,,,,,,,,1.71,0.77,1.53,3*03
$GNGSA,A,3,02,37,07,10,27,28,03,13,33,,,,1.71,0.77,1.53,4*0A
$GPGSV,2,1,07,03,55,070,44,06,35,261,29,14,56,199,42,17,67,344,44,1*6F
$GPGSV,2,2,07,19,45,314,39,41,27,238,37,50,47,179,35,1*54
$GPGSV,1,1,04,03,55,070,42,06,35,261,34,14,56,199,24,17,67,344,39,6*68
$GLGSV,2,1,08,69,07,022,19,70,38,079,08,71,27,139,40,75,21,206,31,1*72
$GLGSV,2,2,08,76,43,269,42,77,20,323,30,85,41,044,46,87,08,279,25,1*78
$GLGSV,2,1,05,71,27,139,24,75,21,206,36,76,43,269,14,77,20,323,08,3*74
$GLGSV,2,2,05,85,41,044,38,3*4C
$GLGSV,1,1,01,86,50,331,,0*42
$GAGSV,2,1,05,13,59,293,33,15,51,041,42,18,63,086,46,21,47,291,39,2*75
$GAGSV,2,2,05,27,49,204,42,2*4B
$GAGSV,2,1,06,13,59,293,38,15,51,041,43,18,63,086,46,21,47,291,33,7*73
$GAGSV,2,2,06,27,49,204,39,34,05,066,22,7*73
$GAGSV,$GBGSV,3,1,09,02,27,236,29,03,44,206,37,07,77,235,35,10,70,279,39,1*70
$GBGSV,3,2,09,13,39,232,40,27,35,295,38,28,67,014,45,33,45,107,38,1*74
$GBGSV,3,3,09,37,28,234,42,1*42
$GBGSV,2,1,05,02,27,236,37,03,44,206,36,07,77,235,35,10,70,279,39,3*71
$GBGSV,2,2,05,13,39,232,35,3*4C
$GNRMC,033555.00,A,3727.0332356,N,12639.1560777,E,0.038,,210622,,,R,V*05
$GNVTG,,T,,M,0.038,N,0.070,K,D*34
$GNGNS,033555.00,3727.0332356,N,12639.1560777,E,RRRR,23,0.77,20.113,17.834,2.0,4095,V*03
$GNGGA,033555.00,3727.0332356,N,12639.1560777,E,4,12,0.77,20.113,M,17.834,M,2.0,4095*54
$GNGSA,A,3,14,03,06,19,17,,,,,,,,1.71,0.77,1.53,1*0F
$GNGSA,A,3,85,75,71,76,77,,,,,,,,1.71,0.77,1.53,2*0A
$GNGSA,A,3,21,27,13,15,,,,,,,,,1.71,0.77,1.53,3*03
$GNGSA,A,3,02,37,07,10,27,28,03,13,33,,,,1.71,0.77,1.53,4*0A
$GPGSV,2,1,07,03,55,070,44,06,35,261,29,14,56,199,40,17,67,344,46,1*6F
$GPGSV,2,2,07,19,45,314,38,41,27,238,35,50,47,179,35,1*57
$GPGSV,1,1,04,03,55,070,42,06,35,261,34,14,56,199,23,17,67,344,39,6*6F
$GLGSV,2,1,08,69,07,022,21,70,38,079,05,71,27,139,40,75,21,206,36,1*73
$GLGSV,2,2,08,76,43,269,42,77,20,323,28,85,41,044,44,87,08,279,22,1*74
$GLGSV,2,1,05,71,27,139,27,75,21,206,37,76,43,269,21,77,20,323,13,3*7A
$GLGSV,2,2,05,85,41,044,37,3*43
$GLGSV,1,1,01,86,50,331,,0*42
$GAGSV,2,1,05,13,59,293,33,15,51,041,39,18,63,086,46,21,47,291,36,2*76
$GAGSV,2,2,05,27,49,204,42,2*4B
$GAGSV,2,1,06,13,59,293,39,15,51,041,42,18,63,086,44,21,47,291,32,7*70
$GAGSV,2,2,06,27,49,204,38,34,05,066,23,7*73
$GAGSV,1,1,01,01,09,324,,0*48
$GBGSV,3,1,09,02,27,236,34,03,44,206,36,07,77,235,35,10,70,279,38,1*7C
$GBGSV,3,2,09,13,39,232,40,27,35,295,37,28,67,015,45,33,45,107,36,1*74
$GBGSV,3,3,09,37,28,234,40,1*40
$GBGSV,2,1,05,02,27,236,39,03,44,206,36,07,77,235,35,10,70,279,39,3*7F
$GBGSV,2,2,05,13,39,232,36,3*4F
$GNRMC,033556.00,A,3727.0332361,N,12639.1560788,E,0.020,,210622,,,R,V*0B
$GNVTG,,T,,M,0.020,N,0.037,K,D*3E
$GNGNS,033556.00,3727.0332361,N,12639.1560788,E,RRRR,23,0.77,20.116,17.834,2.0,4095,V*01
$GNGGA,033556.00,3727.0332361,N,12639.1560788,E,4,12,0.77,20.116,M,17.834,M,2.0,4095*56
$GNGSA,A,3,14,03,06,19,17,,,,,,,,1.71,0.77,1.53,1*0F
$GNGSA,A,3,85,75,71,76,77,,,,,,,,1.71,0.77,1.53,2*0A
$GNGSA,A,3,21,27,13,15,,,,,,,,,1.71,0.77,1.53,3*03
$GNGSA,A,3,02,37,07,10,27,28,03,13,33,,,,1.71,0.77,1.53,4*0A
$GPGSV,2,1,07,03,55,070,44,06,35,261,29,14,56,199,41,17,67,344,46,1*6E
$GPGSV,2,2,07,19,45,314,40,41,27,238,29,50,47,179,36,1*56
$GPGSV,1,1,04,03,55,070,42,06,35,261,33,14,56,199,22,17,67,344,38,6*68
$GLGSV,2,1,08,69,07,022,22,70,38,079,08,71,27,139,40,75,21,206,34,1*7F
$GLGSV,2,2,08,76,43,269,42,77,20,323,27,85,41,044,45,87,08,279,19,1*72
$GLGSV,2,1,05,71,27,139,31,75,21,206,35,76,43,269,21,77,20,323,08,3*75
$GLGSV,2,2,05,85,41,044,38,3*4C
$GLGSV,1,1,01,86,50,331,,0*42
$GAGSV,2,1,05,13,59,293,33,15,51,041,40,18,63,086,46,21,47,291,37,2*79
$GAGSV,2,2,05,27,49,204,44,2*4D
$GAGSV,2,1,06,13,59,293,40,15,51,041,42,18,63,086,44,21,47,291,32,7*7E
$GAGSV,2,2,06,27,49,204,39,34,05,066,23,7*72
$GAGSV,1,1,01,01,09,324,,0*48
$GBGSV,3,1,09,02,27,236,33,03,44,206,37,07,77,235,35,10,70,279,38,1*7A
$GBGSV,3,2,09,13,39,232,42,27,35,295,37,28,67,015,45,33,45,107,36,1*76
$GBGSV,3,3,09,37,28,234,41,1*41
$GBGSV,2,1,05,02,27,236,39,03,44,206,34,07,77,235,34,10,70,279,39,3*7C
$GBGSV,2,2,05,13,39,232,36,3*4F
$GNRMC,033557.00,A,3727.0332356,N,12639.1560779,E,0.015,,210622,,,R,V*06
$GNVTG,,T,,M,0.015,N,0.028,K,D*36
$GNGNS,033557.00,3727.0332356,N,12639.1560779,E,RRRR,24,0.77,20.121,17.834,2.0,4095,V*09
$GNGGA,033557.00,3727.0332356,N,12639.1560779,E,4,12,0.77,20.121,M,17.834,M,2.0,4095*59
$GNGSA,A,3,14,03,06,19,17,,,,,,,,1.71,0.77,1.53,1*0F
$GNGSA,A,3,85,75,71,70,76,77,,,,,,,1.71,0.77,1.53,2*0D
$GNGSA,A,3,21,27,13,15,,,,,,,,,1.71,0.77,1.53,3*03
$GNGSA,A,3,02,37,07,10,27,28,03,13,33,,,,1.71,0.77,1.53,4*0A
$GPGSV,2,1,07,03,55,070,44,06,35,261,29,14,56,199,42,17,67,344,45,1*6E
$GPGSV,2,2,07,19,45,314,38,41,27,238,27,50,47,179,36,1*57
$GPGSV,1,1,04,03,55,070,41,06,35,261,32,14,56,199,21,17,67,344,38,6*69
$GLGSV,2,1,08,69,07,022,22,70,38,079,11,71,27,139,35,75,21,206,34,1*75
$GLGSV,2,2,08,76,43,269,42,77,20,323,26,85,41,044,45,87,08,279,18,1*72
$GLGSV,2,1,05,71,27,139,31,75,21,206,36,76,43,269,21,77,20,323,15,3*7A
$GLGSV,2,2,05,85,41,044,38,3*4C
$GLGSV,1,1,01,86,50,331,,0*42
$GAGSV,2,1,05,13,59,293,34,15,51,041,40,18,63,086,46,21,47,291,39,2*70
$GAGSV,2,2,05,27,49,204,43,2*4A
$GAGSV,2,1,07,01,09,324,16,13,59,293,40,15,51,041,42,18,63,086,44,7*7E
$GAGSV,2,2,07,21,47,291,32,27,49,204,40,34,05,066,22,7*47
$GBGSV,3,1,09,02,27,236,33,03,44,206,36,07,77,235,35,10,70,279,39,1*7A
$GBGSV,3,2,09,13,39,232,42,27,35,295,38,28,67,015,46,33,45,107,33,1*7F
$GBGSV,3,3,09,37,27,234,42,1*4D
$GBGSV,2,1,05,02,27,236,39,03,44,206,36,07,77,235,36,10,70,279,40,3*72
$GBGSV,2,2,05,13,39,232,36,3*4F
$GNRMC,033558.00,A,3727.0332352,N,12639.1560748,E,0.026,,210622,,,R,V*0F
$GNVTG,,T,,M,0.026,N,0.048,K,D*30
$GNGNS,033558.00,3727.0332352,N,12639.1560748,E,RRRR,24,0.77,20.117,17.834,2.0,4095,V*05
$GNGGA,033558.00,3727.0332352,N,12639.1560748,E,4,12,0.77,20.117,M,17.834,M,2.0,4095*55
$GNGSA,A,3,14,03,06,19,17,,,,,,,,1.71,0.77,1.53,1*0F
$GNGSA,A,3,85,75,71,70,76,77,,,,,,,1.71,0.77,1.53,2*0D
$GNGSA,A,3,21,27,13,15,,,,,,,,,1.71,0.77,1.53,3*03
$GNGSA,A,3,02,37,07,10,27,28,03,13,33,,,,1.71,0.77,1.53,4*0A
$GPGSV,2,1,06,03,55,070,45,06,35,261,31,14,56,199,42,17,67,344,45,1*67
$GPGSV,2,2,06,19,45,314,39,50,47,179,36,1*6B
$GPGSV,1,1,04,03,55,070,42,06,35,261,31,14,56,199,22,17,67,344,40,6*65
$GLGSV,2,1,08,69,07,022,22,70,38,079,14,71,27,139,35,75,21,206,33,1*77
$GLGSV,2,2,08,76,43,269,42,77,20,323,26,85,41,044,45,87,08,279,21,1*78
$GLGSV,2,1,05,71,27,139,32,75,21,206,35,76,43,269,23,77,20,323,19,3*74
$GLGSV,2,2,05,85,41,044,40,3*43
$GLGSV,1,1,01,86,50,331,,0*42
$GAGSV,2,1,05,13,59,293,34,15,51,041,41,18,63,086,46,21,47,291,39,2*71
$GAGSV,2,2,05,27,49,204,43,2*4A
$GAGSV,2,1,07,01,09,324,16,13,59,293,40,15,51,041,43,18,63,086,46,7*7D
$GAGSV,2,2,07,21,47,291,33,27,49,204,40,34,05,066,23,7*47
$GBGSV,3,1,09,02,27,236,33,03,44,206,36,07,77,235,35,10,70,279,39,1*7A
$GBGSV,3,2,09,13,39,232,42,27,35,295,37,28,67,015,46,33,45,107,34,1*77
$GBGSV,3,3,09,37,27,234,43,1*4C
$GBGSV,2,1,05,02,27,236,38,03,44,206,36,07,77,235,36,10,70,279,39,3*7D
$GBGSV,2,2,05,13,39,232,35,3*4C
$GNRMC,033559.00,A,3727.0332307,N,12639.1560807,E,0.022,,210622,,,R,V*0E
$GNVTG,,T,,M,0.022,N,0.041,K,D*3D
$GNGNS,033559.00,3727.0332307,N,12639.1560807,E,RRRR,24,0.77,20.089,17.834,2.0,4095,V*06
$GNGGA,033559.00,3727.0332307,N,12639.1560807,E,4,12,0.77,20.089,M,17.834,M,2.0,4095*56
$GNGSA,A,3,14,03,06,19,17,,,,,,,,1.71,0.77,1.53,1*0F
$GNGSA,A,3,85,75,71,70,76,77,,,,,,,1.71,0.77,1.53,2*0D
$GNGSA,A,3,21,27,13,15,,,,,,,,,1.71,0.77,1.53,3*03
$GNGSA,A,3,02,37,07,10,27,28,03,13,33,,,,1.71,0.77,1.53,4*0A
$GPGSV,2,1,06,03,55,070,45,06,35,261,31,14,56,199,42,17,67,344,45,1*67
$GPGSV,2,2,06,19,45,314,39,50,47,179,36,1*6B
$GPGSV,1,1,04,03,55,070,42,06,35,261,32,14,56,199,23,17,67,344,40,6*67
$GLGSV,2,1,08,69,07,022,22,70,38,079,14,71,27,139,35,75,21,206,27,1*72
$GLGSV,2,2,08,76,43,269,41,77,20,323,25,85,41,044,44,87,08,279,21,1*79
$GLGSV,2,1,05,71,27,139,32,75,21,206,34,76,43,269,25,77,20,323,22,3*7B
$GLGSV,2,2,05,85,41,044,40,3*43
$GLGSV,1,1,01,86,50,331,,0*42
$GAGSV,2,1,05,13,59,293,35,15,51,041,41,18,63,086,47,21,47,291,39,2*71
$GAGSV,2,2,05,27,49,204,43,2*4A
$GAGSV,2,1,07,01,09,324,16,13,59,293,40,15,51,041,42,18,63,086,46,7*7C
$GAGSV,2,2,07,21,47,291,33,27,49,204,39,34,05,066,22,7*48
$GBGSV,3,1,09,02,27,236,33,03,44,206,36,07,77,235,35,10,70,279,39,1*7A
$GBGSV,3,2,09,13,39,232,41,27,35,295,38,28,67,015,46,33,45,107,36,1*79
$GBGSV,3,3,09,37,27,234,42,1*4D
$GBGSV,2,1,05,02,27,236,38,03,44,206,36,07,77,235,36,10,70,279,40,3*73
$GBGSV,2,2,05,13,39,232,35,3*4C
$GNRMC,033600.00,A,3727.0332311,N,12639.1560826,E,0.020,,210622,,,R,V*07
$GNVTG,,T,,M,0.020,N,0.038,K,D*31
$GNGNS,033600.00,3727.0332311,N,12639.1560826,E,RRRR,24,0.77,20.085,17.834,2.0,4095,V*01
$GNGSA,A,3,14,03,06,19,17,,,,,,,,1.71,0.77,1.53,1*0F
$GNGSA,A,3,85,75,71,70,76,77,,,,,,,1.71,0.77,1.53,2*0D
$GNGSA,A,3,21,27,13,15,,,,,,,,,1.71,0.77,1.53,3*03
$GNGSA,A,3,02,37,07,10,27,28,03,13,33,,,,1.71,0.77,1.53,4*0A
$GPGSV,2,1,06,03,55,070,46,06,35,261,31,14,56,199,43,17,67,344,47,1*67
$GPGSV,2,2,06,19,45,314,40,50,47,179,38,1*6B
$GPGSV,1,1,04,03,55,070,42,06,35,261,32,14,56,199,23,17,67,344,39,6*69
$GLGSV,2,1,08,69,07,022,20,70,38,079,13,71,27,139,34,75,21,206,35,1*75
$GLGSV,2,2,08,76,43,269,41,77,20,323,25,85,41,044,45,87,08,279,26,1*7F
$GLGSV,2,1,05,71,27,139,32,75,21,206,35,76,43,269,24,77,20,323,24,3*7D
$GLGSV,2,2,05,85,41,044,39,3*4D
$GLGSV,1,1,01,86,50,331,,0*42
$GAGSV,2,1,05,13,59,293,35,15,51,041,41,18,63,086,47,21,47,291,39,2*71
$GAGSV,2,2,05,27,49,204,43,2*4A
$GAGSV,2,1,07,01,09,324,16,13,59,293,41,15,51,041,43,18,63,086,46,7*7C
$GAGSV,2,2,07,21,47,291,33,27,49,204,41,34,05,066,21,7*44
$GBGS$GNRMC,033601.00,A,3727.0332313,N,12639.1560820,E,0.025,,210622,,,R,V*07
$GNVTG,,T,,M,0.025,N,0.047,K,D*3C
$GNGNS,033601.00,3727.0332313,N,12639.1560820,E,RRRR,23,0.77,20.080,17.834,2.0,4095,V*06
$GNGGA,033601.00,3727.0332313,N,12639.1560820,E,4,12,0.77,20.080,M,17.834,M,2.0,4095*51
$GNGSA,A,3,14,03,06,19,17,,,,,,,,1.71,0.77,1.53,1*0F
$GNGSA,A,3,85,75,71,76,77,,,,,,,,1.71,0.77,1.53,2*0A
$GNGSA,A,3,21,27,13,15,,,,,,,,,1.71,0.77,1.53,3*03
$GNGSA,A,3,02,37,07,10,27,28,03,13,33,,,,1.71,0.77,1.53,4*0A
$GPGSV,2,1,07,03,55,070,46,06,35,261,29,14,56,199,44,17,67,344,47,1*68
$GPGSV,2,2,07,19,45,314,39,41,27,238,43,50,47,179,38,1*5A
$GPGSV,1,1,04,03,55,070,43,06,35,261,31,14,56,199,21,17,67,344,40,6*67
$GLGSV,2,1,07,69,07,022,18,71,27,139,33,75,21,206,34,76,43,269,41,1*79
$GLGSV,2,2,07,77,20,323,26,85,41,044,45,87,08,279,28,1*43
$GLGSV,2,1,05,71,27,139,32,75,21,206,36,76,43,269,23,77,20,323,25,3*78
$GLGSV,2,2,05,85,41,044,38,3*4C
$GLGSV,1,1,02,70,38,079,,86,50,331,,0*73
$GAGSV,2,1,05,13,59,293,35,15,51,041,40,18,63,086,46,21,47,291,40,2*7F
$GAGSV,2,2,05,27,49,204,44,2*4D
$GAGSV,2,1,05,13,59,293,40,15,51,041,43,18,63,086,45,21,47,291,32,7*7D
$GAGSV,2,2,05,27,49,204,40,7*4C
$GAGSV,1,1,02,01,09,324,,34,05,066,,0*79
$GBGSV,3,1,09,02,27,236,33,03,44,206,37,07,77,235,35,10,70,279,40,1*75
$GBGSV,3,2,09,13,39,232,41,27,35,295,39,28,67,015,47,33,45,107,35,1*7A
$GBGSV,3,3,09,37,27,234,42,1*4D
$GBGSV,2,1,05,02,27,236,39,03,44,206,38,07,77,235,37,10,70,279,42,3*7F
$GBGSV,2,2,05,13,39,232,37,3*4E
$GNRMC,033602.00,A,3727.0332295,N,12639.1560856,E,0.025,,210622,,,R,V*0A
$GNVTG,,T,,M,0.025,N,0.046,K,D*3D
$GNGNS,033602.00,3727.0332295,N,12639.1560856,E,RRRR,23,0.77,20.087,17.834,2.0,4095,V*0C
$GNGGA,033602.00,3727.0332295,N,12639.1560856,E,4,12,0.77,20.087,M,17.834,M,2.0,4095*5B
$GNGSA,A,3,14,03,06,19,17,,,,,,,,1.71,0.77,1.53,1*0F
$GNGSA,A,3,85,75,71,76,77,,,,,,,,1.71,0.77,1.53,2*0A
$GNGSA,A,3,21,27,13,15,,,,,,,,,1.71,0.77,1.53,3*03
$GNGSA,A,3,02,37,07,10,27,28,03,13,33,,,,1.71,0.77,1.53,4*0A
$GPGSV,2,1,07,03,55,070,45,06,35,261,29,14,56,199,43,17,67,344,47,1*6C
$GPGSV,2,2,07,19,45,314,39,41,27,238,42,50,47,179,37,1*54
$GPGSV,1,1,04,03,55,070,41,06,35,261,31,14,56,199,21,17,67,344,40,6*65
$GLGSV,2,1,07,69,07,022,15,71,27,139,33,75,21,206,35,76,43,269,41,1*75
$GLGSV,2,2,07,77,20,323,25,85,41,044,45,87,08,279,28,1*40
$GLGSV,2,1,05,71,27,139,31,75,21,206,34,76,43,269,22,77,20,323,24,3*79
$GLGSV,2,2,05,85,41,044,38,3*4C
$GLGSV,1,1,02,70,38,079,,86,50,331,,0*73
$GAGSV,2,1,05,13,59,293,35,15,51,041,40,18,63,086,46,21,47,291,39,2*71
$GAGSV,2,2,05,27,49,204,43,2*4A
$GAGSV,2,1,05,13,59,293,40,15,51,041,43,18,63,086,45,21,47,291,31,7*7E
$GAGSV,2,2,05,27,49,204,40,7*4C
$GAGSV,1,1,02,01,09,324,,34,05,066,,0*79
$GBGSV,3,1,09,02,27,236,33,03,44,206,37,07,77,235,34,10,70,279,40,1*74
$GBGSV,3,2,09,13,39,232,41,27,35,295,38,28,67,015,47,33,45,107,34,1*7A
$GBGSV,3,3,09,37,27,234,41,1*4E
$GBGSV,2,1,05,02,27,236,39,03,44,206,37,07,77,235,36,10,70,279,41,3*72
$GBGSV,2,2,05,13,39,232,36,3*4F
$GNRMC,033603.00,A,3727.0332294,N,12639.1560838,E,0.026,,210622,,,R,V*01
$GNVTG,,T,,M,0.026,N,0.047,K,D*3F
$GNGGA,033603.00,3727.0332294,N,12639.1560838,E,4,12,0.77,20.066,M,17.834,M,1.0,4095*5F
$GNGSA,A,3,14,03,06,19,17,,,,,,,,1.71,0.77,1.53,1*0F
$GNGSA,A,3,85,75,71,76,77,,,,,,,,1.71,0.77,1.53,2*0A
$GNGSA,A,3,21,27,13,15,,,,,,,,,1.71,0.77,1.53,3*03
$GNGSA,A,3,02,37,07,10,27,28,03,13,33,,,,1.71,0.77,1.53,4*0A
$GPGSV,2,1,07,03,55,070,45,06,35,261,28,14,56,199,43,17,67,344,46,1*6C
$GPGSV,2,2,07,19,45,314,40,41,27,238,42,50,47,179,36,1*5B
$GPGSV,1,1,04,03,55,070,41,06,35,261,31,14,56,199,21,17,67,344,40,6*65
$GLGSV,2,1,06,71,27,139,33,75,21,206,31,76,43,269,42,77,20,323,25,1*78
$GLGSV,2,2,06,85,41,044,44,87,08,279,28,1*77
$GLGSV,2,1,05,71,27,139,30,75,21,206,33,76,43,269,21,77,20,323,24,3*7C
$GLGSV,2,2,05,85,41,044,38,3*4C
$GLGSV,1,1,03,69,07,022,,70,38,079,,86,50,331,,0*4A
$GAGSV,2,1,05,13,59,293,36,15,51,041,40,18,63,086,46,21,47,291,40,2*7C
$GAGSV,2,2,05,27,49,204,43,2*4A
$GAGSV,2,1,05,13,59,293,40,15,51,041,43$GAGSV,2,2,05,27,49,204,38,7*43
$GAGSV,1,1,02,01,09,324,,34,05,066,,0*79
$GBGSV,3,1,09,02,27,236,33,03,44,206,36,07,77,235,34,10,70,279,39,1*7B
$GBGSV,3,2,09,13,39,232,42,27,35,295,38,28,67,015,47,33,45,107,34,1*79
$GBGSV,3,3,09,37,27,234,42,1*4D
$GBGSV,2,1,05,02,27,236,39,03,44,206,37,07,77,235,36,10,70,279,41,3*72
$GBGSV,2,2,05,13,39,232,35,3*4C
$GNRMC,033604.00,A,3727.0332296,N,12639.1560836,E,0.036,,210622,,,R,V*0B
$GNVTG,,T,,M,0.036,N,0.066,K,D*3D
$GNGNS,033604.00,3727.0332296,N,12639.1560836,E,RRRR,23,0.77,20.069,17.834,2.0,4095,V*0F
$GNGGA,033604.00,3727.0332296,N,12639.1560836,E,4,12,0.77,20.069,M,17.834,M,2.0,4095*58
$GNGSA,A,3,14,03,06,19,17,,,,,,,,1.71,0.77,1.53,1*0F
$GNGSA,A,3,85,75,71,76,77,,,,,,,,1.71,0.77,1.53,2*0A
$GNGSA,A,3,21,27,13,15,,,,,,,,,1.71,0.77,1.53,3*03
$GNGSA,A,3,02,37,07,10,27,28,03,13,33,,,,1.71,0.77,1.53,4*0A
$GPGSV,2,1,07,03,55,070,45,06,35,261,28,14,56,199,44,17,67,344,46,1*6B
$GPGSV,2,2,07,19,45,314,40,41,27,238,41,50,47,179,36,1*58
$GPGSV,1,1,04,03,55,070,42,06,35,261,31,14,56,199,24,17,67,344,40,6*63
$GLGSV,2,1,06,71,27,139,33,75,21,206,31,76,43,269,42,77,20,323,24,1*79
$GLGSV,2,2,06,85,41,044,45,87,08,279,29,1*77
$GLGSV,2,1,05,71,27,139,29,75,21,206,32,76,43,269,18,77,20,323,25,3*7E
$GLGSV,2,2,05,85,41,044,38,3*4C
$GLGSV,1,1,03,69,07,022,,70,38,079,,86,50,331,,0*4A
$GAGSV,2,1,05,13,59,293,36,15,51,041,41,18,63,086,46,21,47,291,40,2*7D
$GAGSV,2,2,05,27,49,204,44,2*4D
$GAGSV,2,1,05,13,59,293,41,15,51,041,44,18,63,086,46,21,47,291,32,7*78
$GAGSV,2,2,05,27,49,204,38,7*43
$GAGSV,1,1,02,01,09,324,,34,05,066,,0*79
$GBGSV,3,1,09,02,27,236,33,03,44,206,36,07,77,235,34,10,70,279,39,1*7B
$GBGSV,3,2,09,13,39,232,41,27,35,295,39,28,67,015,47,33,45,107,35,1*7A
$GBGSV,3,3,09,37,27,234,42,1*4D
$GBGSV,2,1,05,02,27,236,39,03,44,206,37,07,77,235,37,10,70,279,41,3*73
$GBGSV,2,2,05,13,39,232,35,3*4C
$GNRMC,033605.00,A,3727.0332284,N,12639.1560856,E,0.024,,210622,,,R,V*0C
$GNVTG,,T,,M,0.024,N,0.044,K,D*3E
$GNGNS,033605.00,3727.0332284,N,12639.1560856,E,RRRR,23,0.77,20.060,17.834,2.0,4095,V*02
$GNGGA,033605.00,3727.0332284,N,12639.1560856,E,4,12,0.77,20.060,M,17.834,M,2.0,4095*55
$GNGSA,A,3,14,03,06,19,17,,,,,,,,1.71,0.77,1.53,1*0F
$GNGSA,A,3,85,75,71,76,77,,,,,,,,1.71,0.77,1.53,2*0A
$GNGSA,A,3,21,27,13,15,,,,,,,,,1.71,0.77,1.53,3*03
$GNGSA,A,3,02,37,07,10,27,28,03,13,33,,,,1.71,0.77,1.53,4*0A
$GPGSV,2,1,07,03,55,070,46,06,35,261,29,14,56,199,44,17,67,344,46,1*69
$GPGSV,2,2,07,19,45,314,40,41,27,238,41,50,47,179,35,1*5B
$GPGSV,1,1,04,03,55,070,41,06,35,261,31,14,56,199,24,17,67,344,39,6*6E
$GLGSV,2,1,06,71,27,139,34,75,21,206,23,76,43,269,42,77,20,323,21,1*78
$GLGSV,2,2,06,85,41,044,43,87,08,279,29,1*71
$GLGSV,2,1,05,71,27,139,28,75,21,206,32,76,43,269,14,77,20,323,25,3*73
$GLGSV,2,2,05,85,41,044,38,3*4C
$GLGSV,1,1,03,69,07,022,,70,38,079,,86,50,331,,0*4A
$GAGSV,2,1,05,13,59,293,36,15,51,041,41,18,63,086,46,21,47,291,40,2*7D
$GAGSV,2,2,05,27,49,204,43,2*4A
$GAGSV,2,1,06,01,09,324,15,13,59,293,40,15,51,041,43,18,63,086,46,7*7F
$GAGSV,2,2,06,21,47,291,31,27,49,204,37,7*77
$GAGSV,1,1,01,34,05,066,,0*47
$GBGSV,3,1,09,02,27,236,33,03,44,206,37,07,77,235,34,10,70,279,39,1*7A
$GBGSV,3,2,09,13,39,232,41,27,35,295,38,28,67,015,47,33,45,107,35,1*7B
$GBGSV,3,3,09,37,27,234,42,1*4D
$GBGSV,2,1,05,02,27,236,39,03,44,206,36,07,77,235,36,10,70,279,41,3*73
$GBGSV,2,2,05,13,39,232,34,3*4D
$GNRMC,033606.00,A,3727.0332241,N,12639.1560898,E,0.011,,210622,,,R,V*02
$GNVTG,,T,,M,0.011,N,0.021,K,D*3B
$GNGNS,033606.00,3727.0332241,N,12639.1560898,E,RRRR,23,0.77,20.099,17.834,2.0,4095,V*0C
$GNGGA,033606.00,3727.0332241,N,12639.1560898,E,4,12,0.77,20.099,M,17.834,M,2.0,4095*5B
$GNGSA,A,3,14,03,06,19,17,,,,,,,,1.71,0.77,1.53,1*0F
$GNGSA,A,3,85,75,71,76,77,,,,,,,,1.71,0.77,1.53,2*0A
$GNGSA,A,3,21,27,13,15,,,,,,,,,1.71,0.77,1.53,3*03
$GNGSA,A,3,02,37,07,10,27,28,03,13,33,,,,1.71,0.77,1.53,4*0A
$GPGSV,2,1,07,03,55,070,46,06,35,261,29,14,56,199,44,17,67,344,46,1*69
$GPGSV,2,2,07,19,45,314,40,41,27,238,41,50,47,179,35,1*5B
$GPGSV,1,1,04,03,55,070,39,06,35,261,30,14,56,199,25,17,67,344,38,6*60
$GLGSV,2,1,07,69,07,022,18,71,27,139,34,75,21,206,23,76,43,269,43,1*7A
$GLGSV,2,2,07,77,20,323,20,85,41,044,44,87,08,279,29,1*45
$GLGSV,2,1,05,71,27,139,25,75,21,206,31,76,43,269,10,77,20,323,25,3*79
$GLGSV,2,2,05,85,41,044,34,3*40
$GLGSV,1,1,02,70,38,079,,86,50,331,,0*73
$GAGSV,2,1,05,13,59,293,34,15,51,041,39,18,63,086,44,21,47,291,39,2*7C
$GAGSV,2,2,05,27,49,204,41,2*48
$GAGSV,2,1,06,01,09,324,16,13,59,293,40,15,51,041,43,18,63,086,46,7*7C
$GAGSV,2,2,06,21,47,291,32,27,49,204,38,7*7B
$GAGSV,1,1,01,34,05,066,,0*47
$GBGSV,3,1,09,02,27,236,33,03,44,206,38,07,77,235,34,10,70,279,39,1*75
$GBGSV,3,2,09,13,39,232,42,27,35,295,39,28,67,015,47,33,45,107,36,1*7A
$GBGSV,3,3,09,37,27,234,42,1*4D
$GBGSV,2,1,05,02,27,236,35,03,44,206,34,07,77,235,35,10,70,279,39,3*71
$GBGSV,2,2,05,13,39,232,34,3*4D
$GNRMC,033607.00,A,3727.0332266,N,12639.1560854,E,0.017,,210622,,,R,V*00
$GNVTG,,T,,M,0.017,N,0.032,K,D*3F
$GNGNS,033607.00,3727.0332266,N,12639.1560854,E,RRRR,23,0.77,20.106,17.834,2.0,4095,V*0F
$GNGGA,033607.00,3727.0332266,N,12639.1560854,E,4,12,0.77,20.106,M,17.834,M,2.0,4095*58
$GNGSA,A,3,14,03,06,19,17,,,,,,,,1.71,0.77,1.53,1*0F
$GNGSA,A,3,85,75,71,76,77,,,,,,,,1.71,0.77,1.53,2*0A
$GNGSA,A,3,21,27,13,15,,,,,,,,,1.71,0.77,1.53,3*03
$GNGSA,A,3,02,37,07,10,27,28,03,13,33,,,,1.71,0.77,1.53,4*0A
$GPGSV,2,1,07,03,55,070,46,06,35,261,29,14,56,199,43,17,67,344,46,1*6E
$GPGSV,2,2,07,19,45,314,40,41,27,238,41,50,47,179,35,1*5B
$GPGSV,1,1,04,03,55,070,42,06,35,261,31,14,56,199,26,17,67,344,39,6*6F
$GLGSV,2,1,07,69,07,022,17,71,27,139,34,75,21,206,26,76,43,269,43,1*70
$GLGSV,2,2,07,77,20,323,19,85,41,044,43,87,08,279,30,1*40
$GLGSV,2,1,05,71,27,139,23,75,21,206,31,76,43,269,09,77,20,323,24,3*76
$GLGSV,2,2,05,85,41,044,35,3*41
$GLGSV,1,1,02,70,39,078,,86,50,331,,0*73
$GAGSV,2,1,05,13,59,293,35,15,51,041,41,18,63,086,46,21,47,291,39,2*70
$GAGSV,2,2,05,27,49,204,43,2*4A
$GAGSV,2,1,06,01,09,324,15,13,59,293,39,15,51,041,43,18,63,086,46,7*71
$GAGSV,2,2,06,21,47,291,31,27,49,204,38,7*78
$GAGSV,1,1,01,34,05,066,,0*47
$GBGSV,3,1,09,02,27,236,33,03,44,206,38,07,77,235,34,10,70,279,39,1*75
$GBGSV,3,2,09,13,39,232,41,27,35,295,39,28,67,015,47,33,45,107,36,1*79
$GBGSV,3,3,09,37,27,234,42,1*4D
$GBGSV,2,1,05,02,27,236,37,03,44,206,35,07,77,235,36,10,70,279,40,3*7F
$GBGSV,2,2,05,13,39,232,34,3*4D
$GNRMC,033608.00,A,3727.0332356,N,12639.1560786,E,0.024,,210622,,,R,V*0D
$GNVTG,,T,,M,0.024,N,0.045,K,D*3F
$GNGNS,033608.00,3727.0332356,N,12639.1560786,E,RRRR,23,0.77,20.135,17.834,2.0,4095,V*02
$GNGGA,033608.00,3727.0332356,N,12639.1560786,E,4,12,0.77,20.135,M,17.834,M,2.0,4095*55
$GNGSA,A,3,14,03,06,19,17,,,,,,,,1.71,0.77,1.53,1*0F
$GNGSA,A,3,85,75,71,76,77,,,,,,,,1.71,0.77,1.53,2*0A
$GNGSA,A,3,21,27,13,15,,,,,,,,,1.71,0.77,1.53,3*03
$GNGSA,A,3,02,37,07,10,27,28,03,13,33,,,,1.71,0.77,1.53,4*0A
$GPGSV,2,1,07,03,55,070,46,06,35,261,29,14,56,199,43,17,67,344,46,1*6E
$GPGSV,2,2,07,19,45,314,39,41,27,238,41,50,47,179,34,1*54
$GPGSV,1,1,04,03,55,070,41,06,35,261,30,14,56,199,25,17,67,344,39,6*6E
$GLGSV,2,1,07,69,07,022,15,71,27,139,35,75,21,206,29,76,43,269,43,1*7C
$GLGSV,2,2,07,77,20,323,21,85,41,044,44,87,08,279,29,1*44
$GLGSV,2,1,05,71,27,139,22,75,21,206,31,76,43,269,08,77,20,323,25,3*77
$GLGSV,2,2,05,85,41,044,38,3*4C
$GLGSV,1,1,02,70,39,078,,86,50,331,,0*73
$GAGSV,2,1,06,13,59,293,36,15,51,041,40,18,63,086,46,21,47,291,39,2*71
$GAGSV,2,2,06,27,49,204,43,34,05,066,28,2*71
$GAGSV,2,1,07,01,09,324,15,13,59,293,39,15,51,041,43,18,63,086,47,7*71
$GAGSV,2,2,07,21,47,291,31,27,49,204,37,34,05,066,21,7*47
$GBGSV,3,1,09,02,27,236,32,03,44,206,38,07,77,235,34,10,70,279,39,1*74
$GBGSV,3,2,09,13,39,232,42,27,35,295,39,28,67,015,47,33,45,107,36,1*7A
$GBGSV,3,3,09,37,27,234,43,1*4C
$GBGSV,2,1,05,02,27,236,37,03,44,206,35,07,77,235,36,10,70,279,40,3*7F
$GBGSV,2,2,05,13,39,232,34,3*4D
$GNRMC,033609.00,A,3727.0332345,N,12639.1560745,E,0.020,,210622,,,R,V*05
$GNVTG,,T,,M,0.020,N,0.036,K,D*3F
$GNGNS,033609.00,3727.0332345,N,12639.1560745,E,RRRR,23,0.77,20.151,17.834,2.0,4095,V*0C
$GNGGA,033609.00,3727.0332345,N,12639.1560745,E,4,12,0.77,20.151,M,17.834,M,2.0,4095*5B
$GNGSA,A,3,14,03,06,19,17,,,,,,,,1.71,0.77,1.53,1*0F
$GNGSA,A,3,85,75,71,76,77,,,,,,,,1.71,0.77,1.53,2*0A
$GNGSA,A,3,21,27,13,15,,,,,,,,,1.71,0.77,1.53,3*03
$GNGSA,A,3,02,37,07,10,27,28,03,13,33,,,,1.71,0.77,1.53,4*0A
$GPGSV,2,1,07,03,55,070,45,06,35,261,29,14,56,199,42,17,67,344,45,1*6F
$GPGSV,2,2,07,19,45,314,39,41,27,238,42,50,47,179,35,1*56
$GPGSV,1,1,04,03,55,070,41,06,35,261,30,14,56,199,26,17,67,344,39,6*6D
$GLGSV,2,1,07,69,07,022,14,71,27,139,35,75,21,206,20,76,43,269,43,1*74
$GLGSV,2,2,07,77,20,323,23,85,41,044,44,87,08,279,29,1*46
$GLGSV,2,1,05,71,27,139,18,75,21,206,32,76,43,269,10,77,20,323,25,3*74
$GLGSV,2,2,05,85,41,044,38,3*4C
$GLGSV,1,1,02,70,39,078,,86,50,331,,0*73
$GAGSV,2,1,06,13,59,293,36,15,51,041,40,18,63,086,46,21,47,291,40,2*7F
$GAGSV,2,2,06,27,49,204,42,34,05,066,26,2*7E
$GAGSV,2,1,07,01,09,324,15,13,59,293,39,15,51,041,44,18,63,086,46,7*77
$GAGSV,2,2,07,21,47,291,31,27,49,204,38,34,05,066,21,7*48
$GBGSV,3,1,09,02,27,236,33,03,44,206,38,07,77,235,33,10,70,279,39,1*72
$GBGSV,3,2,09,13,39,232,41,27,35,295,38,28,67,015,46,33,45,107,35,1*7A
$GBGSV,3,3,09,37,27,234,43,1*4C
$GBGSV,2,1,05,02,27,236,37,03,44,206,35,07,77,235,36,10,70,279,40,3*7F
$GBGSV,2,2,05,13,39,232,34,3*4D
$GNRMC,033610.00,A,3727.0332368,N,12639.1560766,E,0.004,,210622,,,R,V*05
$GNVTG,,T,,M,0.004,N,0.008,K,D*34
$GNGNS,033610.00,3727.0332368,N,12639.1560766,E,RRRR,23,0.77,20.131,17.834,2.0,4095,V*0C
$GNGGA,033610.00,3727.0332368,N,12639.1560766,E,4,12,0.77,20.131,M,17.834,M,2.0,4095*5B
$GNGSA,A,3,14,03,06,19,17,,,,,,,,1.71,0.77,1.53,1*0F
$GNGSA,A,3,85,75,71,76,77,,,,,,,,1.71,0.77,1.53,2*0A
$GNGSA,A,3,21,27,13,15,,,,,,,,,1.71,0.77,1.53,3*03
$GNGSA,A,3,02,37,07,10,27,28,03,13,33,,,,1.71,0.77,1.53,4*0A
$GPGSV,2,1,07,03,55,070,46,06,35,261,30,14,56,199,44,17,67,344,45,1*62
$GPGSV,2,2,07,19,45,314,38,41,27,238,42,50,47,179,36,1*54
$GPGSV,1,1,04,03,55,070,44,06,35,261,34,14,56,199,31,17,67,344,42,6*66
$GLGSV,2,1,07,69,07,022,13,71,27,139,37,75,21,206,32,76,43,269,43,1*72
$GLGSV,2,2,07,77,20,323,23,85,41,044,44,87,08,279,29,1*46
$GLGSV,2,1,05,71,27,139,27,75,21,206,33,76,43,269,22,77,20,323,26,3*7B
$GLGSV,2,2,05,85,41,044,40,3*43
$GLGSV,1,1,02,70,39,078,,86,50,331,,0*73
$GAGSV,2,1,06,13,59,293,36,15,51,041,41,18,63,086,47,21,47,291,40,2*7F
$GAGSV,2,2,06,27,49,204,42,34,05,066,23,2*7B
$GAGSV,2,1,06,13,59,293,39,15,51,041,43,18,63,086,46,21,47,291,31,7*70
$GAGSV,2,2,06,27,49,204,40,34,05,066,20,7*7F
$GAGSV,1,1,01,01,09,324,,0*48
$GBGSV,3,1,09,02,27,236,34,03,44,206,38,07,77,235,33,10,70,279,39,1*75
$GBGSV,3,2,09,13,39,232,41,27,35,295,39,28,67,015,46,33,45,107,35,1*7B
$GBGSV,3,3,09,37,27,234,44,1*4B
$GBGSV,2,1,05,02,27,236,38,03,44,206,38,07,77,235,38,10,70,279,43,3*70
$GBGSV,2,2,05,13,39,232,34,3*4D
$GNRMC,033611.00,A,3727.0332363,N,12639.1560710,E,0.022,,210622,,,R,V*0A
$GNVTG,,T,,M,0.022,N,0.042,K,D*3E
$GNGNS,033611.00,3727.0332363,N,12639.1560710,E,RRRR,23,0.77,20.088,17.834,2.0,4095,V*04
$GNGGA,033611.00,3727.0332363,N,12639.1560710,E,4,12,0.77,20.088,M,17.834,M,2.0,4095*53
$GNGSA,A,3,14,03,06,19,17,,,,,,,,1.71,0.77,1.53,1*0F
$GNGSA,A,3,85,75,71,76,77,,,,,,,,1.71,0.77,1.53,2*0A
$GNGSA,A,3,21,27,13,15,,,,,,,,,1.71,0.77,1.53,3*03
$GNGSA,A,3,02,37,07,10,27,28,03,13,33,,,,1.71,0.77,1.53,4*0A
$GPGSV,2,1,07,03,55,070,46,06,35,261,32,14,56,199,45,17,67,344,45,1*61
$GPGSV,2,2,07,19,45,314,38,41,27,238,40,50,47,179,35,1*55
$GPGSV,1,1,04,03,55,070,42,06,35,261,31,14,56,199,35,17,67,344,40,6*63
$GLGSV,2,1,07,69,07,022,13,71,27,139,37,75,21,206,30,76,43,269,41,1*72
$GLGSV,2,2,07,77,20,323,23,85,41,044,43,87,08,279,29,1*41
$GLGSV,2,1,05,71,27,139,27,75,21,206,29,76,43,269,30,77,20,323,26,3*73
$GLGSV,2,2,05,85,41,044,40,3*43
$GLGSV,1,1,02,70,39,078,,86,50,331,,0*73
$GAGSV,2,1,06,13,59,293,37,15,51,041,41,18,63,086,46,21,47,291,39,2*71
$GAGSV,2,2,06,27,49,204,40,34,05,066,23,2*79
$GAGSV,2,1,06,13,59,293,38,15,51,041,44,18,63,086,46,21,47,291,31,7*76
$GAGSV,2,2,06,27,49,204,39,34,05,066,21,7*70
$GAGSV,1,1,01,01,09,324,,0*48
$GBGSV,3,1,09,02,27,236,28,03,44,206,35,07,77,235,36,10,70,279,39,1*70
$GBGSV,3,2,09,13,39,232,41,27,35,295,37,28,67,015,46,33,45,107,36,1*76
$GBGSV,3,3,09,37,27,234,39,1*41
$GBGSV,2,1,05,02,27,236,35,03,44,206,37,07,77,235,38,10,70,279,41,3*70
$GNRMC,033612.00,A,3727.0332356,N,12639.1560733,E,0.055,,210622,,,R,V*0E
$GNVTG,,T,,M,0.055,N,0.102,K,D*3B
$GNGNS,033612.00,3727.0332356,N,12639.1560733,E,RRRR,23,0.77,20.099,17.834,2.0,4095,V*00
$GNGGA,033612.00,3727.0332356,N,12639.1560733,E,4,12,0.77,20.099,M,17.834,M,2.0,4095*57
$GNGSA,A,3,14,03,06,19,17,,,,,,,,1.71,0.77,1.53,1*0F
$GNGSA,A,3,85,75,71,76,77,,,,,,,,1.71,0.77,1.53,2*0A
$GNGSA,A,3,21,27,13,15,,,,,,,,,1.71,0.77,1.53,3*03
$GNGSA,A,3,02,37,07,10,27,28,03,13,33,,,,1.71,0.77,1.53,4*0A
$GPGSV,2,1,07,03,55,070,46,06,35,261,31,14,56,199,44,17,67,344,45,1*63
$GPGSV,2,2,07,19,45,314,38,41,27,238,39,50,47,179,35,1*5B
$GPGSV,1,1,04,03,55,070,42,06,35,261,29,14,56,199,31,17,67,344,40,6*6E
$GLGSV,2,1,07,69,07,022,13,71,27,139,37,75,21,206,26,76,43,269,40,1*74
$GLGSV,2,2,07,77,20,323,24,85,41,044,43,87,08,279,28,1*47
$GLGSV,2,1,05,71,27,139,25,75,21,206,35,76,43,269,30,77,20,323,26,3*7C
$GLGSV,2,2,05,85,41,044,39,3*4D
$GLGSV,1,1,02,70,39,078,,86,50,331,,0*73
$GAGSV,2,1,06,13,59,293,36,15,51,041,40,18,63,086,47,21,47,291,39,2*70
$GAGSV,2,2,06,27,49,204,43,34,05,066,25,2*7C
$GAGSV,2,1,06,13,59,293,39,15,51,041,43,18,63,086,46,21,47,291,31,7*70
$GAGSV,2,2,06,27,49,204,39,34,05,066,22,7*73
$GAGSV,1,1,01,01,09,324,,0*48
$GBGSV,3,1,09,02,27,236,34,03,44,206,37,07,77,235,34,10,70,279,39,1*7D
$GBGSV,3,2,09,13,39,232,41,27,35,295,37,28,67,015,47,33,45,107,37,1*76
$GBGSV,3,3,09,37,27,234,45,1*4A
$GBGSV,2,1,05,02,27,236,37,03,44,206,34,07,77,235,38,10,70,279,41,3*71
$GBGSV,2,2,05,13,39,232,34,3*4D
$GNRMC,033613.00,A,3727.0332363,N,12639.1560711,E,0.007,,210622,,,R,V*0E
$GNVTG,,T,,M,0.007,N,0.012,K,D*3C
$GNGNS,033613.00,3727.0332363,N,12639.1560711,E,RRRR,23,0.77,20.106,17.834,1.0,4095,V*03
$GNGGA,033613.00,3727.0332363,N,12639.1560711,E,4,12,0.77,20.106,M,17.834,M,1.0,4095*54
$GNGSA,A,3,14,03,06,19,17,,,,,,,,1.71,0.77,1.53,1*0F
$GNGSA,A,3,85,75,71,76,77,,,,,,,,1.71,0.77,1.53,2*0A
$GNGSA,A,3,21,27,13,15,,,,,,,,,1.71,0.77,1.53,3*03
$GNGSA,A,3,02,37,07,10,27,28,03,13,33,,,,1.71,0.77,1.53,4*0A
$GPGSV,2,1,07,03,55,070,46,06,35,261,31,14,56,199,43,17,67,344,44,1*65
$GPGSV,2,2,07,19,45,314,39,41,27,238,38,50,47,179,35,1*5B
$GPGSV,1,1,04,03,55,070,41,06,35,261,29,14,56,199,29,17,67,344,40,6*64
$GLGSV,2,1,07,69,07,022,12,71,27,139,37,75,21,206,31,76,42,269,41,1*73
$GLGSV,2,2,07,77,20,323,25,85,41,044,44,87,08,279,27,1*4E
$GLGSV,2,1,05,71,27,139,22,75,21,206,35,76,42,269,31,77,20,323,26,3*7B
$GLGSV,2,2,05,85,41,044,39,3*4D
$GLGSV,1,1,02,70,39,078,,86,50,331,,0*73
$GAGSV,2,1,06,13,59,293,36,15,51,041,40,18,63,086,46,21,47,291,39,2*71
$GAGSV,2,2,06,27,49,204,42,34,05,066,25,2*7D
$GAGSV,2,1,07,01,09,324,17,13,59,293,39,15,51,041,43,18,63,086,46,7*72
$GAGSV,2,2,07,21,47,291,32,27,49,204,39,34,05,066,23,7*48
$GBGSV,3,1,09,02,27,236,34,03,44,206,38,07,77,235,34,10,70,279,39,1*72
$GBGSV,3,2,09,13,39,232,41,27,35,295,39,28,67,015,47,33,45,107,37,1*78
$GBGSV,3,3,09,37,27,234,44,1*4B
$GBGSV,2,1,05,02,27,236,38,03,44,206,37,07,77,235,37,10,70,279,41,3*72
$GBGSV,2,2,05,13,39,232,34,3*4D
$GNRMC,033614.00,A,3727.0332352,N,12639.1560738,E,0.022,,210622,,,R,V*07
$GNVTG,,T,,M,0.022,N,0.041,K,D*3D
$GNGNS,033614.00,3727.0332352,N,12639.1560738,E,RRRR,23,0.77,20.124,17.834,2.0,4095,V*0E
$GNGGA,033614.00,3727.0332352,N,12639.1560738,E,4,12,0.77,20.124,M,17.834,M,2.0,4095*59
$GNGSA,A,3,14,03,06,19,17,,,,,,,,1.71,0.77,1.53,1*0F
$GNGSA,A,3,85,75,71,76,77,,,,,,,,1.71,0.77,1.53,2*0A
$GNGSA,A,3,21,27,13,15,,,,,,,,,1.71,0.77,1.53,3*03
$GNGSA,A,3,02,37,07,10,27,28,03,13,33,,,,1.71,0.77,1.53,4*0A
$GPGSV,2,1,07,03,55,070,45,06,35,261,35,14,56,199,42,17,67,344,46,1*61
$GPGSV,2,2,07,19,45,314,39,41,27,238,36,50,47,179,35,1*55
$GPGSV,1,1,04,03,55,070,40,06,35,261,30,14,56,199,28,17,67,344,39,6*62
$GLGSV,2,1,07,69,07,022,10,71,27,139,39,75,21,206,25,76,42,269,43,1*78
$GLGSV,2,2,07,77,21,323,27,85,41,044,43,87,08,279,26,1*4B
$GLGSV,2,1,05,71,27,139,25,75,21,206,34,76,42,269,24,77,21,323,24,3*7A
$GLGSV,2,2,05,85,41,044,39,3*4D
$GLGSV,1,1,02,70,39,078,,86,50,331,,0*73
$GAGSV,2,1,06,13,59,293,36,15,51,041,40,18,63,086,46,21,47,291,39,2*71
$GAGSV,2,2,06,27,49,204,43,34,05,066,25,2*7C
$GAGSV,2,1,07,01,09,324,17,13,59,293,40,15,51,041,43,18,63,086,46,7*7C
$GAGSV,2,2,07,21,47,291,31,27,49,204,39,34,05,066,24,7*4C
$GBGSV,3,1,09,02,27,236,33,03,44,206,38,07,77,235,34,10,70,279,39,1*75
$GBGSV,3,2,09,13,39,232,41,27,35,295,36,28,67,015,47,33,45,107,34,1*74
$GBGSV,3,3,09,37,27,234,43,1*4C
$GBGSV,2,1,05,02,27,236,39,03,44,206,36,07,77,235,36,10,70,279,41,3*73
$GBGSV,2,2,05,13,39,232,34,3*4D
$GNRMC,033615.00,A,3727.0332342,N,12639.1560733,E,0.021,,210622,,,R,V*0F
$GNVTG,,T,,M,0.021,N,0.040,K,D*3F
$GNGNS,033615.00,3727.0332342,N,12639.1560733,E,RRRR,23,0.77,20.117,17.834,2.0,4095,V*05
$GNGGA,033615.00,3727.0332342,N,12639.1560733,E,4,12,0.77,20.117,M,17.834,M,2.0,4095*52
$GNGSA,A,3,14,03,06,19,17,,,,,,,,1.71,0.77,1.53,1*0F
$GNGSA,A,3,85,75,71,76,77,,,,,,,,1.71,0.77,1.53,2*0A
$GNGSA,A,3,21,27,13,15,,,,,,,,,1.71,0.77,1.53,3*03
$GNGSA,A,3,02,37,07,10,27,28,03,13,33,,,,1.71,0.77,1.53,4*0A
$GPGSV,2,1,07,03,55,070,45,06,35,261,32,14,56,199,43,17,67,344,46,1*67
$GPGSV,2,2,07,19,45,314,37,41,27,238,33,50,47,179,35,1*5E
$GPGSV,1,1,04,03,55,070,40,06,35,261,32,14,56,199,29,17,67,344,39,6*61
$GLGSV,2,1,07,69,07,022,09,71,27,139,38,75,21,206,26,76,42,269,43,1*72
$GLGSV,2,2,07,77,21,323,28,85,41,044,44,87,08,279,23,1*46
$GLGSV,2,1,05,71,27,139,27,75,21,206,34,76,42,269,26,77,21,323,22,3*7C
$GLGSV,2,2,05,85,41,044,39,3*4D
$GLGSV,1,1,02,70,39,078,,86,50,331,,0*73
$GAGSV,2,1,06,13,59,293,35,15,51,041,40,18,63,086,46,21,47,291,38,2*73
$GAGSV,2,2,06,27,49,204,43,34,05,066,25,2*7C
$GAGSV,2,1,07,01,09,324,19,13,59,293,40,15,51,041,43,18,63,086,45,7*71
$GAGSV,2,2,07,21,47,291,30,27,49,204,38,34,05,066,23,7*4B
$GBGSV,3,1,09,02,27,236,35,03,44,206,38,07,77,235,33,10,70,279,39,1*74
$GBGSV,3,2,09,13,39,232,42,27,35,295,38,28,67,015,47,33,45,107,35,1*78
$GBGSV,3,3,09,37,27,234,43,1*4C
$GBGSV,2,1,05,02,27,236,39,03,44,206,36,07,77,235,35,10,70,279,40,3*71
$GBGSV,2,2,05,13,39,232,33,3*4A
$GNRMC,033616.00,A,3727.0332351,N,12639.1560717,E,0.022,,210622,,,R,V*0B
$GNVTG,,T,,M,0.022,N,0.040,K,D*3C
$GNGNS,033616.00,3727.0332351,N,12639.1560717,E,RRRR,23,0.77,20.101,17.834,2.0,4095,V*05
$GNGGA,033616.00,3727.0332351,N,12639.1560717,E,4,12,0.77,20.101,M,17.834,M,2.0,4095*52
$GNGSA,A,3,14,03,06,19,17,,,,,,,,1.71,0.77,1.53,1*0F
$GNGSA,A,3,85,75,71,76,77,,,,,,,,1.71,0.77,1.53,2*0A
$GNGSA,A,3,21,27,13,15,,,,,,,,,1.71,0.77,1.53,3*03
$GNGSA,A,3,02,37,07,10,27,28,03,13,33,,,,1.71,0.77,1.53,4*0A
$GPGSV,2,1,06,03,55,070,46,06,35,261,36,14,56,199,44,17,67,344,46,1*66
$GPGSV,2,2,06,19,45,314,39,50,47,179,35,1*68
$GPGSV,1,1,04,03,55,070,40,06,35,261,32,14,56,199,30,17,67,344,39,6*69
$GLGSV,2,1,07,69,07,022,09,71,27,139,38,75,21,206,27,76,42,269,44,1*74
$GLGSV,2,2,07,77,21,323,29,85,41,044,45,87,08,279,23,1*46
$GLGSV,2,1,05,71,27,139,30,75,21,206,34,76,42,269,27,77,21,323,22,3*7B
$GLGSV,2,2,05,85,41,044,39,3*4D
$GLGSV,1,1,02,70,39,078,,86,50,331,,0*73
$GAGSV,2,1,06,13,59,293,35,15,51,041,41,18,63,086,47,21,47,291,40,2*7C
$GAGSV,2,2,06,27,49,204,44,34,05,066,24,2*7A
$GAGSV,2,1,07,01,09,324,19,13,59,293,41,15,51,041,43,18,63,086,46,7*73
$GAGSV,2,2,07,21,47,291,30,27,49,204,40,34,05,066,23,7*44
$GBGSV,3,1,09,02,27,236,34,03,44,206,39,07,77,235,36,10,70,279,40,1*7F
$GBGSV,3,2,09,13,39,232,42,27,35,295,39,28,67,015,48,33,45,107,35,1*76
$GBGSV,3,3,09,37,27,234,44,1*4B
$GBGSV,2,1,05,02,27,236,38,03,44,206,36,07,77,235,35,10,70,279,39,3*7E
$GBGSV,2,2,05,13,39,232,32,3*4B
$GNRMC,033617.00,A,3727.0332291,N,12639.1560723,E,0.049,,210622,,,R,V*0D
$GNVTG,,T,,M,0.049,N,0.091,K,D*3D
$GNGNS,033617.00,3727.0332291,N,12639.1560723,E,RRRR,23,0.77,20.108,17.834,2.0,4095,V*07
$GNGGA,033617.00,3727.0332291,N,12639.1560723,E,4,12,0.77,20.108,M,17.834,M,2.0,4095*50
$GNGSA,A,3,14,03,06,19,17,,,,,,,,1.71,0.77,1.53,1*0F
$GNGSA,A,3,85,75,71,76,77,,,,,,,,1.71,0.77,1.53,2*0A
$GNGSA,A,3,21,27,13,15,,,,,,,,,1.71,0.77,1.53,3*03
$GNGSA,A,3,02,37,07,10,27,28,03,13,33,,,,1.71,0.77,1.53,4*0A
$GPGSV,2,1,07,03,55,070,45,06,35,261,32,14,56,199,44,17,67,344,43,1*65
$GPGSV,2,2,07,19,45,314,36,41,27,238,41,50,47,179,33,1*5C
$GPGSV,1,1,04,03,55,070,41,06,35,261,32,14,56,199,34,17,67,344,38,6*6D
$GLGSV,2,1,07,69,07,022,09,71,27,139,36,75,21,206,26,76,42,269,44,1*7B
$GLGSV,2,2,07,77,21,323,31,85,41,044,45,87,08,279,21,1*4D
$GLGSV,2,1,05,71,27,139,34,75,21,206,40,76,42,269,28,77,21,323,25,3*74
$GLGSV,2,2,05,85,41,044,39,3*4D
$GLGSV,1,1,02,70,39,078,,86,50,331,,0*73
$GAGSV,2,1,06,13,59,293,35,15,51,041,39,18,63,086,47,21,47,291,40,2*73
$GAGSV,2,2,06,27,49,204,44,34,05,066,25,2*7B
$GAGSV,2,1,06,13,59,293,38,15,51,041,41,18,63,086,48,21,47,291,31,7*7D
$GAGSV,2,2,06,27,49,204,37,34,05,066,25,7*7A
$GAGSV,1,1,01,01,09,324,,0*48
$GBGSV,3,1,09,02,27,236,34,03,44,206,39,07,77,235,35,10,70,279,39,1*72
$GBGSV,3,2,09,13,39,232,41,27,35,295,40,28,67,015,45,33,45,107,37,1*74
$GBGSV,3,3,09,37,27,234,41,1*4E
$GBGSV,2,1,05,02,27,236,33,03,44,206,35,07,77,235,34,10,70,279,39,3*77
$GBGSV,2,2,05,13,39,232,31,3*48
$GNRMC,033618.00,A,3727.0332333,N,12639.1560717,E,0.018,,210622,,,R,V*08
$GNVTG,,T,,M,0.018,N,0.033,K,D*31
$GNGNS,033618.00,3727.0332333,N,12639.1560717,E,RRRR,23,0.77,20.089,17.834,2.0,4095,V*0E
$GNGGA,033618.00,3727.0332333,N,12639.1560717,E,4,12,0.77,20.089,M,17.834,M,2.0,4095*59
$GNGSA,A,3,14,03,06,19,17,,,,,,,,1.71,0.77,1.53,1*0F
$GNGSA,A,3,85,75,71,76,77,,,,,,,,1.71,0.77,1.53,2*0A
$GNGSA,A,3,21,27,13,15,,,,,,,,,1.71,0.77,1.53,3*03
$GNGSA,A,3,02,37,07,10,27,28,03,13,33,,,,1.71,0.77,1.53,4*0A
$GPGSV,2,1,07,03,55,070,45,06,35,261,35,14,56,199,43,17,67,344,43,1*65
$GPGSV,2,2,07,19,45,314,29,41,27,238,41,50,47,179,32,1*53
$GPGSV,1,1,04,03,55,070,42,06,35,261,33,14,56,199,32,17,67,344,39,6*68
$GLGSV,2,1,07,69,07,022,09,71,27,139,37,75,21,206,31,76,42,269,43,1*7B
$GLGSV,2,2,07,77,21,323,35,85,41,044,43,87,08,279,22,1*4C
$GLGSV,2,1,05,71,27,139,30,75,21,206,40,76,42,269,27,77,21,323,23,3*79
$GLGSV,2,2,05,85,41,044,39,3*4D
$GLGSV,1,1,02,70,39,078,,86,50,331,,0*73
$GAGSV,2,1,06,13,59,293,34,15,51,041,38,18,63,086,47,21,47,291,37,2*73
$GAGSV,2,2,06,27,49,204,43,34,05,066,25,2*7C
$GAGSV,2,1,07,01,09,324,19,13,59,293,38,15,51,041,42,18,63,086,47,7*7D
$GAGSV,2,2,07,21,47,291,31,27,49,204,38,34,05,066,24,7*4D
$GBGSV,3,1,09,02,27,236,32,03,44,206,39,07,77,235,35,10,70,279,39,1*74
$GBGSV,3,2,09,13,39,232,40,27,35,295,36,28,67,015,46,33,45,107,36,1*76
$GBGSV,3,3,09,37,27,234,42,1*4D
$GBGSV,2,1,05,02,27,236,29,03,44,206,36,07,77,235,34,10,70,279,39,3*7F
$GBGSV,2,2,05,13,39,232,27,3*4F
$GNRMC,033619.00,A,3727.0332321,N,12639.1560777,E,0.023,,210622,,,R,V*04
$GNVTG,,T,,M,0.023,N,0.042,K,D*3F
$GNGNS,033619.00,3727.0332321,N,12639.1560777,E,RRRR,23,0.77,20.131,17.834,2.0,4095,V*08
$GNGGA,033619.00,3727.0332321,N,12639.1560777,E,4,12,0.77,20.131,M,17.834,M,2.0,4095*5F
$GNGSA,A,3,14,03,06,19,17,,,,,,,,1.71,0.77,1.53,1*0F
$GNGSA,A,3,85,75,71,76,77,,,,,,,,1.71,0.77,1.53,2*0A
$GNGSA,A,3,21,27,13,15,,,,,,,,,1.71,0.77,1.53,3*03
$GNGSA,A,3,02,37,07,10,27,28,03,13,33,,,,1.71,0.77,1.53,4*0A
$GPGSV,2,1,07,03,55,070,44,06,35,261,32,14,56,199,42,17,67,344,45,1*64
$GPGSV,2,2,07,19,45,314,37,41,27,238,36,50,47,179,35,1*5B
$GPGSV,1,1,04,03,55,070,40,06,35,261,27,14,56,199,28,17,67,344,39,6*64
$GLGSV,2,1,07,69,07,022,14,71,27,139,35,75,21,206,34,76,42,269,43,1*70
$GLGSV,2,2,07,77,21,323,33,85,41,044,43,87,08,279,19,1*42
$GLGSV,2,1,05,71,27,139,32,75,21,206,38,76,42,269,32,77,21,323,25,3*76
$GLGSV,2,2,05,85,41,044,40,3*43
$GLGSV,1,1,02,70,39,078,,86,50,331,,0*73
$GAGSV,2,1,06,13,59,293,34,15,51,041,40,18,63,086,45,21,47,291,39,2*70
$GAGSV,2,2,06,27,49,204,42,34,05,066,25,2*7D
$GAGSV,2,1,07,01,09,324,20,13,59,293,40,15,51,041,44,18,63,086,47,7*7E
$GAGSV,2,2,07,21,47,291,35,27,49,204,34,34,05,066,23,7*42
$GBGSV,3,1,09,02,27,236,31,03,44,206,37,07,77,235,33,10,70,279,38,1*7E
$GBGSV,3,2,09,13,39,232,39,27,35,295,39,28,67,015,47,33,45,107,39,1*79
$GBGSV,3,3,09,37,27,234,39,1*41
$GBGSV,2,1,05,02,27,236,29,03,44,206,36,07,77,235,35,10,70,279,39,3*7E
$GNRMC,033620.00,A,3727.0332359,N,12639.1560731,E,0.018,,210622,,,R,V*0B
$GNVTG,,T,,M,0.018,N,0.034,K,D*36
$GNGNS,033620.00,3727.0332359,N,12639.1560731,E,RRRR,23,0.77,20.145,17.834,2.0,4095,V*0C
$GNGGA,033620.00,3727.0332359,N,12639.1560731,E,4,12,0.77,20.145,M,17.834,M,2.0,4095*5B
$GNGSA,A,3,14,03,06,19,17,,,,,,,,1.71,0.77,1.53,1*0F
$GNGSA,A,3,85,75,71,76,77,,,,,,,,1.71,0.77,1.53,2*0A
$GNGSA,A,3,21,27,13,15,,,,,,,,,1.71,0.77,1.53,3*03
$GNGSA,A,3,02,37,07,10,27,28,03,13,33,,,,1.71,0.77,1.53,4*0A
$GPGSV,2,1,07,03,55,070,43,06,35,261,33,14,56,199,43,17,67,344,45,1*63
$GPGSV,2,2,07,19,45,314,37,41,27,238,39,50,47,179,36,1*57
$GPGSV,1,1,04,03,55,070,41,06,35,261,32,14,56,199,34,17,67,344,39,6*6C
$GLGSV,2,1,07,69,07,022,16,71,27,139,34,75,21,206,22,76,42,269,41,1*76
$GLGSV,2,2,07,77,21,323,30,85,41,044,42,87,08,279,18,1*41
$GLGSV,2,1,05,71,27,139,34,75,21,206,37,76,42,269,31,77,21,323,24,3*7D
$GLGSV,2,2,05,85,41,044,41,3*42
$GLGSV,1,1,02,70,39,078,,86,50,331,,0*73
$GAGSV,2,1,06,13,59,293,34,15,51,041,39,18,63,086,45,21,47,291,38,2*7F
$GAGSV,2,2,06,27,49,204,40,34,05,066,24,2*7E
$GAGSV,2,1,07,01,09,324,20,13,59,293,38,15,51,041,43,18,63,086,47,7*76
$GAGSV,2,2,07,21,47,291,34,27,49,204,37,34,05,066,22,7*41
$GBGSV,3,1,09,02,27,236,32,03,44,206,37,07,77,235,32,10,70,279,38,1*7C
$GBGSV,3,2,09,13,39,232,39,27,35,295,36,28,67,015,47,33,45,107,37,1*78
$GBGSV,3,3,09,37,27,234,38,1*40
$GBGSV,2,1,05,02,27,236,31,03,44,206,38,07,77,235,35,10,70,279,39,3*79
$GBGSV,2,2,05,13,39,232,31,3*48
$GNRMC,033621.00,A,3727.0332371,N,12639.1560727,E,0.012,,210622,,,R,V*0D
$GNVTG,,T,,M,0.012,N,0.022,K,D*3B
$GNGNS,033621.00,3727.0332371,N,12639.1560727,E,RRRR,23,0.77,20.131,17.834,2.0,4095,V*03
$GNGGA,033621.00,3727.0332371,N,12639.1560727,E,4,12,0.77,20.131,M,17.834,M,2.0,4095*54
$GNGSA,A,3,14,03,06,19,17,,,,,,,,1.71,0.77,1.53,1*0F
$GNGSA,A,3,85,75,71,76,77,,,,,,,,1.71,0.77,1.53,2*0A
$GNGSA,A,3,21,27,13,15,,,,,,,,,1.71,0.77,1.53,3*03
$GNGSA,A,3,02,37,07,10,27,28,03,13,33,,,,1.71,0.77,1.53,4*0A
$GPGSV,2,1,07,03,55,070,43,06,35,261,35,14,56,199,43,17,67,344,44,1*64
$GPGSV,2,2,07,19,45,314,37,41,27,238,40,50,47,179,35,1*5A
$GPGSV,1,1,04,03,55,070,41,06,35,261,32,14,56,199,32,17,67,344,39,6*6A
$GLGSV,2,1,07,69,07,022,17,71,27,139,34,75,21,206,30,76,42,269,41,1*74
$GLGSV,2,2,07,77,21,323,32,85,41,044,42,87,08,279,18,1*43
$GLGSV,2,1,05,71,27,139,35,75,21,206,39,76,42,269,31,77,21,323,24,3*72
$GLGSV,2,2,05,85,41,044,40,3*43
$GLGSV,1,1,02,70,39,078,,86,50,331,,0*73
$GAGSV,2,1,06,13,59,293,34,15,51,041,39,18,63,086,45,21,47,291,39,2*7E
$GAGSV,2,2,06,27,49,204,41,34,05,066,25,2*7E
$GAGSV,2,1,07,01,09,324,21,13,59,293,39,15,51,041,43,18,63,086,47,7*76
$GAGSV,2,2,07,21,47,291,35,27,49,204,36,34,05,066,21,7*42
$GBGSV,3,1,09,02,27,236,32,03,44,206,38,07,77,235,33,10,70,279,39,1*73
$GBGSV,3,2,09,13,39,232,40,27,35,295,37,28,67,015,47,33,45,107,35,1*75
$GBGSV,3,3,09,37,27,234,38,1*40
$GBGSV,2,1,05,02,27,236,31,03,44,206,36,07,77,235,35,10,70,279,40,3*79
$GBGSV,2,2,05,13,39,232,30,3*49
$GNRMC,033622.00,A,3727.0332340,N,12639.1560748,E,0.017,,210622,,,R,V*00
$GNVTG,,T,,M,0.017,N,0.031,K,D*3C
$GNGNS,033622.00,3727.0332340,N,12639.1560748,E,RRRR,23,0.77,20.126,17.834,2.0,4095,V*0D
$GNGGA,033622.00,3727.0332340,N,12639.1560748,E,4,12,0.77,20.126,M,17.834,M,2.0,4095*5A
$GNGSA,A,3,14,03,06,19,17,,,,,,,,1.71,0.77,1.53,1*0F
$GNGSA,A,3,85,75,71,76,77,,,,,,,,1.71,0.77,1.53,2*0A
$GNGSA,A,3,21,27,13,15,,,,,,,,,1.71,0.77,1.53,3*03
$GNGSA,A,3,02,37,07,10,27,28,03,13,33,,,,1.71,0.77,1.53,4*0A
$GPGSV,2,1,07,03,55,070,43,06,35,261,34,14,56,199,43,17,67,344,44,1*65
$GPGSV,2,2,07,19,45,314,37,41,27,238,40,50,47,179,36,1*59
$GPGSV,1,1,04,03,55,070,41,06,35,261,31,14,56,199,31,17,67,344,39,6*6A
$GLGSV,2,1,07,69,07,022,17,71,27,139,33,75,21,206,32,76,42,269,43,1*73
$GLGSV,2,2,07,77,21,323,32,85,40,045,42,87,08,279,16,1*4D
$GLGSV,2,1,06,69,07,022,19,71,27,139,36,75,21,206,39,76,42,269,30,3*74
$GLGSV,2,2,06,77,21,323,23,85,40,045,40,3*70
$GLGSV,1,1,02,70,39,078,,86,50,331,,0*73
$GAGSV,2,1,06,13,59,293,34,15,51,041,39,18,63,086,45,21,47,291,38,2*7F
$GAGSV,2,2,06,27,49,204,41,34,05,066,25,2*7E
$GAGSV,2,1,07,01,09,324,22,13,59,293,39,15,51,041,44,18,63,086,46,7*73
$GAGSV,2,2,07,21,47,291,34,27,49,204,35,34,05,066,20,7*41
$GBGSV,3,1,09,02,27,236,32,03,44,206,38,07,77,235,32,10,70,279,39,1*72
$GBGSV,3,2,09,13,39,232,40,27,35,295,37,28,67,015,47,33,45,107,37,1*77
$GBGSV,3,3,09,37,27,234,38,1*40
$GBGSV,2,1,05,02,27,236,31,03,44,206,36,07,77,235,35,10,70,279,40,3*79
$GBGSV,2,2,05,13,39,232,31,3*48
$GNRMC,033623.00,A,3727.0332340,N,12639.1560762,E,0.004,,210622,,,R,V*0B
$GNVTG,,T,,M,0.004,N,0.008,K,D*34
$GNGNS,033623.00,3727.0332340,N,12639.1560762,E,RRRR,23,0.77,20.130,17.834,1.0,4095,V*00
$GNGGA,033623.00,3727.0332340,N,12639.1560762,E,4,12,0.77,20.130,M,17.834,M,1.0,4095*57
$GNGSA,A,3,14,03,06,19,17,,,,,,,,1.71,0.77,1.53,1*0F
$GNGSA,A,3,85,75,71,76,77,,,,,,,,1.71,0.77,1.53,2*0A
$GNGSA,A,3,21,27,13,15,,,,,,,,,1.71,0.77,1.53,3*03
$GNGSA,A,3,02,37,07,10,27,28,03,13,33,,,,1.71,0.77,1.53,4*0A
$GPGSV,2,1,07,03,55,070,44,06,35,261,34,14,56,199,43,17,67,344,45,1*63
$GPGSV,2,2,07,19,45,314,34,41,27,238,40,50,47,179,36,1*5A
$GPGSV,1,1,04,03,55,070,42,06,35,261,31,14,56,199,30,17,67,344,40,6*66
$GLGSV,2,1,07,69,07,022,16,71,27,139,32,75,21,206,36,76,42,269,43,1*77
$GLGSV,2,2,07,77,21,323,33,85,40,045,42,87,08,279,15,1*4F
$GLGSV,2,1,06,69,07,022,18,71,27,139,36,75,21,206,39,76,42,269,29,3*7D
$GLGSV,2,2,06,77,21,323,23,85,40,045,40,3*70
$GLGSV,1,1,02,70,39,078,,86,50,332,,0*70
$GAGSV,2,1,06,13,59,293,35,15,51,041,40,18,63,086,45,21,47,291,38,2*70
$GAGSV,2,2,06,27,49,204,42,34,05,066,24,2*7C
$GAGSV,2,1,07,01,09,324,23,13,59,293,39,15,51,041,44,18,63,086,46,7*72
$GAGSV,2,2,07,21,47,291,30,27,49,204,34,34,05,066,19,7*4E
$GBGSV,3,1,09,02,27,236,32,03,44,206,37,07,77,235,32,10,70,279,39,1*7D
$GBGSV,3,2,09,13,39,232,40,27,35,295,38,28,67,015,48,33,45,107,38,1*78
$GBGSV,3,3,09,37,27,234,39,1*41
$GBGSV,2,1,05,02,27,236,36,03,44,206,35,07,77,235,34,10,70,279,40,3*7C
$GBGSV,2,2,05,13,39,232,31,3*48
$GNRMC,033624.00,A,3727.0332364,N,12639.1560744,E,0.012,,210622,,,R,V*09
$GNVTG,,T,,M,0.012,N,0.022,K,D*3B
$GNGNS,033624.00,3727.0332364,N,12639.1560744,E,RRRR,23,0.77,20.117,17.834,2.0,4095,V*03
$GNGGA,033624.00,3727.0332364,N,12639.1560744,E,4,12,0.77,20.117,M,17.834,M,2.0,4095*54
$GNGSA,A,3,14,03,06,19,17,,,,,,,,1.71,0.77,1.53,1*0F
$GNGSA,A,3,85,75,71,76,77,,,,,,,,1.71,0.77,1.53,2*0A
$GNGSA,A,3,21,27,13,15,,,,,,,,,1.71,0.77,1.53,3*03
$GNGSA,A,3,02,37,07,10,27,28,03,13,33,,,,1.71,0.77,1.53,4*0A
$GPGSV,2,1,07,03,55,070,43,06,35,261,30,14,56,199,42,17,67,344,44,1*60
$GPGSV,2,2,07,19,45,314,38,41,27,238,40,50,47,179,35,1*55
$GNRMC,033625.00,A,3727.0332317,N,12639.1560845,E,0.037,,210622,,,R,V*05
$GNVTG,,T,,M,0.037,N,0.068,K,D*32
$GNGNS,033625.00,3727.0332317,N,12639.1560845,E,RRRR,23,0.77,20.104,17.834,2.0,4095,V*0A
$GNGGA,033625.00,3727.0332317,N,12639.1560845,E,4,12,0.77,20.104,M,17.834,M,2.0,4095*5D
$GNGSA,A,3,14,03,06,19,17,,,,,,,,1.71,0.77,1.53,1*0F
$GNGSA,A,3,85,75,71,76,77,,,,,,,,1.71,0.77,1.53,2*0A
$GNGSA,A,3,21,27,13,15,,,,,,,,,1.71,0.77,1.53,3*03
$GNGSA,A,3,02,37,07,10,27,28,03,13,33,,,,1.71,0.77,1.53,4*0A
$GPGSV,2,1,07,03,55,070,43,06,35,261,35,14,56,199,43,17,67,344,45,1*65
$GPGSV,2,2,07,19,45,314,38,41,27,238,39,50,47,179,38,1*56
$GPGSV,1,1,04,03,55,070,41,06,35,261,31,14,56,199,31,17,67,344,39,6*6A
$GLGSV,2,1,07,69,07,022,13,71,27,139,31,75,21,206,37,76,42,269,41,1*72
$GLGSV,2,2,07,77,21,323,32,85,40,045,43,87,08,280,09,1*44
$GLGSV,2,1,06,69,07,022,17,71,27,139,36,75,21,206,40,76,42,269,29,3*7C
$GLGSV,2,2,06,77,21,323,20,85,40,045,40,3*73
$GLGSV,1,1,02,70,39,078,,86,50,332,,0*70
$GAGSV,2,1,06,13,59,293,36,15,51,041,41,18,63,086,47,21,47,291,39,2*71
$GAGSV,2,2,06,27,49,204,41,34,05,066,23,2*78
$GAGSV,2,1,07,01,09,324,23,13,59,293,39,15,51,041,42,18,63,086,46,7*74
$GAGSV,2,2,07,21,47,291,31,27,49,204,34,34,05,066,20,7*45
$GAGSV,1,1,01,03,19,089,,0*4F
$GBGSV,3,1,09,02,27,236,33,03,44,206,37,07,77,235,31,10,70,279,39,1*7F
$GBGSV,3,2,09,13,39,232,41,27,35,295,38,28,67,015,48,33,45,107,39,1*78
$GBGSV,3,3,09,37,27,234,39,1*41
$GBGSV,2,1,05,02,27,236,34,03,44,206,35,07,77,235,34,10,70,279,40,3*7E
$GBGSV,2,2,05,13,39,232,31,3*48
$GNRMC,033626.00,A,3727.0332311,N,12639.1560883,E,0.030,,210622,,,R,V*0D
$GNVTG,,T,,M,0.030,N,0.055,K,D*3B
$GNGGA,033626.00,3727.0332311,N,12639.1560883,E,4,12,0.77,20.086,M,17.834,M,2.0,4095*59
$GNGSA,A,3,14,03,06,19,17,,,,,,,,1.71,0.77,1.53,1*0F
$GNGSA,A,3,85,75,71,76,77,,,,,,,,1.71,0.77,1.53,2*0A
$GNGSA,A,3,21,27,13,15,,,,,,,,,1.71,0.77,1.53,3*03
$GNGSA,A,3,02,37,07,10,27,28,03,13,33,,,,1.71,0.77,1.53,4*0A
$GPGSV,2,1,07,03,55,070,44,06,35,261,34,14,56,199,44,17,67,344,45,1*64
$GPGSV,2,2,07,19,45,314,38,41,27,238,40,50,47,179,37,1*57
$GPGSV,1,1,04,03,55,070,40,06,35,261,29,14,56,199,30,17,67,344,38,6*62
$GLGSV,2,1,07,69,07,022,15,71,27,139,28,75,21,206,37,76,42,269,41,1*7C
$GLGSV,2,2,07,77,21,323,31,85,40,045,41,87,08,280,11,1*4C
$GLGSV,2,1,06,69,07,022,18,71,27,139,36,75,21,206,39,76,42,269,29,3*7D
$GLGSV,2,2,06,77,21,323,18,85,40,045,40,3*78
$GLGSV,1,1,02,70,39,078,,86,50,332,,0*70
$GAGSV,2,1,06,13,59,293,36,15,51,041,41,18,63,086,46,21,47,291,38,2*71
$GAGSV,2,2,06,27,49,204,41,34,05,066,23,2*78
$GAGSV,2,1,$GAGSV,2,2,07,21,47,291,32,27,49,204,35,34,05,066,22,7*45
$GAGSV,1,1,01,03,19,089,,0*4F
$GBGSV,3,1,09,02,27,236,34,03,44,206,37,07,77,235,32,10,70,279,39,1*7B
$GBGSV,3,2,09,13,39,232,41,27,35,295,37,28,67,015,48,33,45,107,39,1*77
$GBGSV,3,3,09,37,27,234,40,1*4F
$GBGSV,2,1,05,02,27,236,34,03,44,206,35,07,77,235,35,10,70,279,40,3*7F
$GBGSV,2,2,05,13,39,232,32,3*4B
$GNRMC,033627.00,A,3727.0332302,N,12639.1560895,E,0.023,,210622,,,R,V*0B
$GNVTG,,T,,M,0.023,N,0.042,K,D*3F
$GNGNS,033627.00,3727.0332302,N,12639.1560895,E,RRRR,23,0.77,20.087,17.834,2.0,4095,V*0B
$GNGGA,033627.00,3727.0332302,N,12639.1560895,E,4,12,0.77,20.087,M,17.834,M,2.0,4095*5C
$GNGSA,A,3,14,03,06,19,17,,,,,,,,1.71,0.77,1.53,1*0F
$GNGSA,A,3,85,75,71,76,77,,,,,,,,1.71,0.77,1.53,2*0A
$GNGSA,A,3,21,27,13,15,,,,,,,,,1.71,0.77,1.53,3*03
$GNGSA,A,3,02,37,07,10,27,28,03,13,33,,,,1.71,0.77,1.53,4*0A
$GPGSV,2,1,07,03,54,069,43,06,35,261,33,14,56,199,44,17,67,344,45,1*6D
$GPGSV,2,2,07,19,45,314,39,41,27,238,38,50,47,179,37,1*59
$GPGSV,1,1,04,03,54,069,40,06,35,261,30,14,56,199,31,17,67,344,39,6*63
$GLGSV,2,1,07,69,07,022,16,71,27,139,28,75,21,206,37,76,42,269,42,1*7C
$GLGSV,2,2,07,77,21,323,30,85,40,045,42,87,08,280,16,1*49
$GLGSV,2,1,06,69,07,022,18,71,27,139,35,75,21,206,38,76,42,269,29,3*7F
$GLGSV,2,2,06,77,21,323,18,85,40,045,40,3*78
$GLGSV,1,1,02,70,39,078,,86,50,332,,0*70
$GAGSV,2,1,06,13,59,293,35,15,51,041,41,18,63,086,46,21,47,291,37,2*7D
$GAGSV,2,2,06,27,49,204,41,34,05,066,23,2*78
$GAGSV,2,1,07,01,09,324,22,13,59,293,39,15,51,041,42,18,63,086,47,7*74
$GAGSV,2,2,07,21,47,291,32,27,49,204,35,34,05,066,23,7*44
$GAGSV,1,1,01,03,19,089,,0*4F
$GBGSV,3,1,09,02,27,236,34,03,44,206,38,07,77,235,33,10,70,279,39,1*75
$GBGSV,3,2,09,13,39,232,40,27,35,295,38,28,67,015,48,33,45,107,39,1*79
$GBGSV,3,3,09,37,27,234,40,1*4F
$GBGSV,2,1,05,02,27,236,32,03,44,206,36,07,77,235,34,10,70,279,40,3*7B
$GBGSV,2,2,05,13,39,232,32,3*4B
$GNRMC,033628.00,A,3727.0332311,N,12639.1560905,E,0.007,,210622,,,R,V*08
$GNVTG,,T,,M,0.007,N,0.013,K,D*3D
$GNGNS,033628.00,3727.0332311,N,12639.1560905,E,RRRR,23,0.77,20.093,17.834,2.0,4095,V*0B
$GNGGA,033628.00,3727.0332311,N,12639.1560905,E,4,12,0.77,20.093,M,17.834,M,2.0,4095*5C
$GNGSA,A,3,14,03,06,19,17,,,,,,,,1.71,0.77,1.53,1*0F
$GNGSA,A,3,85,75,71,76,77,,,,,,,,1.71,0.77,1.53,2*0A
$GNGSA,A,3,21,27,13,15,,,,,,,,,1.71,0.77,1.53,3*03
$GNGSA,A,3,02,37,07,10,27,28,03,13,33,,,,1.71,0.77,1.53,4*0A
$GPGSV,2,1,07,03,54,069,42,06,35,262,32,14,56,199,44,17,67,344,44,1*6F
$GPGSV,2,2,07,19,45,314,39,41,27,238,38,50,47,179,37,1*59
$GPGSV,1,1,04,03,54,069,41,06,35,262,31,14,56,199,32,17,67,344,39,6*63
$GLGSV,2,1,07,69,07,022,16,71,27,139,31,75,21,206,36,76,42,269,42,1*75
$GLGSV,2,2,07,77,21,323,30,85,40,045,43,87,08,280,18,1*46
$GLGSV,2,1,06,69,07,022,18,71,27,139,34,75,21,206,39,76,42,269,29,3*7F
$GLGSV,2,2,06,77,21,323,17,85,40,045,40,3*77
$GLGSV,1,1,02,70,39,078,,86,50,332,,0*70
$GAGSV,2,1,06,13,59,293,35,15,51,041,41,18,63,086,46,21,47,291,38,2*72
$GAGSV,2,2,06,27,49,204,41,34,05,066,23,2*78
$GAGSV,2,1,07,01,09,324,23,13,59,293,39,15,51,041,43,18,63,086,47,7*74
$GAGSV,2,2,07,21,47,291,32,27,49,204,35,34,05,066,24,7*43
$GAGSV,1,1,01,03,19,089,,0*4F
$GBGSV,3,1,09,02,27,236,35,03,44,206,38,07,77,235,33,10,70,279,39,1*74
$GBGSV,3,2,09,13,39,232,41,27,35,295,38,28,67,015,48,33,45,107,39,1*78
$GBGSV,3,3,09,37,27,234,40,1*4F
$GBGSV,2,1,05,02,27,236,33,03,44,206,36,07,77,235,34,10,70,279,40,3*7A
$GBGSV,2,2,05,13,39,232,32,3*4B
$GNRMC,033629.00,A,3727.0332336,N,12639.1560871,E,0.017,,210622,,,R,V*0F
$GNVTG,,T,,M,0.017,N,0.031,K,D*3C
$GNGNS,033629.00,3727.0332336,N,12639.1560871,E,RRRR,23,0.77,20.049,17.834,2.0,4095,V*0A
$GNGGA,033629.00,3727.0332336,N,12639.1560871,E,4,12,0.77,20.049,M,17.834,M,2.0,4095*5D
$GNGSA,A,3,14,03,06,19,17,,,,,,,,1.71,0.77,1.53,1*0F
$GNGSA,A,3,85,75,71,76,77,,,,,,,,1.71,0.77,1.53,2*0A
$GNGSA,A,3,21,27,13,15,,,,,,,,,1.71,0.77,1.53,3*03
$GNGSA,A,3,02,37,07,10,27,28,03,13,33,,,,1.71,0.77,1.53,4*0A
$GPGSV,2,1,07,03,54,069,43,06,35,262,31,14,56,199,44,17,67,344,45,1*6C
$GPGSV,2,2,07,19,45,314,39,41,27,238,35,50,47,179,36,1*55
$GPGSV,1,1,04,03,54,069,40,06,35,262,31,14,56,199,32,17,67,344,39,6*62
$GPGSV,1,1,01,11,00,248,,0*5A
$GLGSV,2,1,07,69,07,022,17,71,27,139,33,75,21,206,35,76,42,269,42,1*75
$GLGSV,2,2,07,77,21,323,31,85,40,045,43,87,08,280,18,1*47
$GLGSV,2,1,06,69,07,022,17,71,27,139,34,75,21,206,39,76,42,269,29,3*70
$GLGSV,2,2,06,77,21,323,16,85,40,045,40,3*76
$GLGSV,1,1,02,70,39,078,,86,50,332,,0*70
$GAGSV,2,1,06,13,59,293,35,15,51,041,41,18,63,086,46,21,47,291,38,2*72
$GAGSV,2,2,06,27,49,204,42,34,05,066,23,2*7B
$GAGSV,2,1,07,01,09,324,23,13,59,293,40,15,51,041,43,18,63,086,47,7*7A
$GAGSV,2,2,07,21,47,291,33,27,49,204,35,34,05,066,23,7*45
$GAGSV,1,1,01,03,19,089,,0*4F
$GBGSV,3,1,09,02,27,236,34,03,44,206,39,07,77,235,33,10,70,279,39,1*74
$GBGSV,3,2,09,13,39,232,41,27,35,295,38,28,67,015,48,33,45,107,38,1*79
$GBGSV,3,3,09,37,27,234,40,1*4F
$GBGSV,2,1,05,02,27,236,33,03,44,206,36,07,77,235,34,10,70,279,39,3*74
$GBGSV,2,2,05,13,39,232,32,3*4B
$GNRMC,033630.00,A,3727.0332348,N,12639.1560835,E,0.034,,210622,,,R,V*0F
$GNVTG,,T,,M,0.034,N,0.062,K,D*3B
$GNGNS,033630.00,3727.0332348,N,12639.1560835,E,RRRR,23,0.77,20.053,17.834,2.0,4095,V*00
$GNGGA,033630.00,3727.0332348,N,12639.1560835,E,4,12,0.77,20.053,M,17.834,M,2.0,4095*57
$GNGSA,A,3,14,03,06,19,17,,,,,,,,1.71,0.77,1.53,1*0F
$GNGSA,A,3,85,75,71,76,77,,,,,,,,1.71,0.77,1.53,2*0A
$GNGSA,A,3,21,27,13,15,,,,,,,,,1.71,0.77,1.53,3*03
$GNGSA,A,3,02,37,07,10,27,28,03,13,33,,,,1.71,0.77,1.53,4*0A
$GPGSV,2,1,07,03,54,069,43,06,35,262,31,14,56,199,44,17,67,344,44,1*6D
$GPGSV,2,2,07,19,45,314,40,41,27,238,32,50,47,179,37,1*5D
$GPGSV,1,1,04,03,54,069,41,06,35,262,32,14,56,199,32,17,67,344,39,6*60
$GPGSV,1,1,01,11,00,248,,0*5A
$GLGSV,2,1,07,69,07,022,19,71,27,139,34,75,21,206,34,76,42,269,44,1*7B
$GLGSV,2,2,07,77,21,323,31,85,40,045,43,87,08,280,19,1*46
$GLGSV,2,1,06,69,07,022,17,71,27,139,34,75,21,206,38,76,42,269,29,3*71
$GLGSV,2,2,06,77,21,323,16,85,40,045,40,3*76
$GLGSV,1,1,02,70,39,078,,86,50,332,,0*70
$GAGSV,2,1,06,13,59,293,35,15,51,041,41,18,63,086,45,21,47,291,38,2*71
$GAGSV,2,2,06,27,49,204,42,34,05,066,23,2*7B
$GAGSV,2,1,07,01,09,324,23,13,59,293,39,15,51,041,44,18,63,086,48,7*7C
$GAGSV,2,2,07,21,47,291,33,27,49,204,35,34,05,066,23,7*45
$GAGSV,1,1,01,03,19,089,,0*4F
$GBGSV,3,1,09,02,27,236,34,03,44,206,38,07,77,235,33,10,70,279,39,1*75
$GBGSV,3,2,09,13,39,232,40,27,35,295,37,28,67,015,48,33,45,107,38,1*77
$GBGSV,3,3,09,37,27,234,40,1*4F
$GBGSV,2,1,05,02,27,236,32,03,44,206,37,07,77,235,34,10,70,279,40,3*7A
$GBGSV,2,2,05,13,39,232,32,3*4B
$GNRMC,033631.00,A,3727.0332357,N,12639.1560805,E,0.008,,210622,,,R,V*0C
$GNVTG,,T,,M,0.008,N,0.016,K,D*37
$GNGNS,033631.00,3727.0332357,N,12639.1560805,E,RRRR,23,0.77,20.049,17.834,2.0,4095,V*07
$GNGGA,033631.00,3727.0332357,N,12639.1560805,E,4,12,0.77,20.049,M,17.834,M,2.0,4095*50
$GNGSA,A,3,14,03,06,19,17,,,,,,,,1.71,0.77,1.53,1*0F
$GNGSA,A,3,85,75,71,76,77,,,,,,,,1.71,0.77,1.53,2*0A
$GNGSA,A,3,21,27,13,15,,,,,,,,,1.71,0.77,1.53,3*03
$GNGSA,A,3,02,37,07,10,27,28,03,13,33,,,,1.71,0.77,1.53,4*0A
$GPGSV,2,1,07,03,54,069,43,06,35,262,31,14,56,199,46,17,67,344,44,1*6F
$GPGSV,2,2,07,19,45,314,40,41,27,238,27,50,47,179,37,1*59
$GPGSV,1,1,04,03,54,069,41,06,35,262,33,14,56,199,32,17,67,344,40,6*6F
$GPGSV,1,1,01,11,00,248,,0*5A
$GLGSV,2,1,07,69,07,022,21,71,27,139,35,75,21,206,31,76,42,269,44,1*74
$GLGSV,2,2,07,77,21,323,31,85,40,045,42,87,08,280,20,1*4D
$GLGSV,2,1,06,69,07,022,18,71,27,139,34,75,21,206,36,76,42,269,29,3*70
$GLGSV,2,2,06,77,21,323,14,85,40,045,40,3*74
$GLGSV,1,1,02,70,39,078,,86,50,332,,0*70
$GAGSV,2,1,06,13,59,293,35,15,51,041,40,18,63,086,45,21,47,291,38,2*70
$GAGSV,2,2,06,27,49,204,41,34,05,066,23,2*78
$GAGSV,2,1,07,01,09,324,23,13,59,293,39,15,51,041,44,18,63,086,48,7*7C
$GAGSV,2,2,07,21,47,291,33,27,49,204,35,34,05,066,23,7*45
$GAGSV,1,1,01,03,19,089,,0*4F
$GBGSV,3,1,09,02,27,236,34,03,44,206,38,07,77,235,33,10,70,279,39,1*75
$GBGSV,3,2,09,13,39,232,40,27,35,295,37,28,67,015,48,33,45,107,37,1*78
$GBGSV,3,3,09,37,27,234,39,1*41
$GBGSV,2,1,05,02,27,236,33,03,44,206,37,07,77,235,35,10,70,279,39,3*74
$GBGSV,2,2,05,13,39,232,32,3*4B
$GNRMC,033632.00,A,3727.0332338,N,12639.1560827,E,0.011,,210622,,,R,V*0E
$GNVTG,,T,,M,0.011,N,0.020,K,D*3A
$GNGGA,033632.00,3727.0332338,N,12639.1560827,E,4,12,0.77,20.038,M,17.834,M,2.0,4095*5C
$GNGSA,A,3,14,03,06,19,17,,,,,,,,1.71,0.77,1.53,1*0F
$GNGSA,A,3,85,75,71,76,77,,,,,,,,1.71,0.77,1.53,2*0A
$GNGSA,A,3,21,27,13,15,,,,,,,,,1.71,0.77,1.53,3*03
$GNGSA,A,3,02,37,07,10,27,28,03,13,33,,,,1.71,0.77,1.53,4*0A
$GPGSV,2,1,07,03,54,069,44,06,35,262,31,14,55,199,45,17,67,344,44,1*68
$GPGSV,2,2,07,19,45,314,39,41,27,238,41,50,47,179,37,1*57
$GPGSV,1,1,04,03,54,069,41,06,35,262,33,14,55,199,33,17,67,344,40,6*6D
$GPGSV,1,1,01,11,00,248,,0*5A
$GLGSV,2,1,07,69,07,022,21,71,27,139,35,75,21,206,32,76,42,269,42,1*71
$GLGSV,2,2,07,77,21,323,32,85,40,045,44,87,08,280,22,1*4A
$GLGSV,2,1,06,69,07,022,19,71,27,139,33,75,21,206,39,76,42,269,30,3*71
$GLGSV,2,2,06,77,21,323,06,85,40,045,40,3*77
$GLGSV,1,1,02,70,39,078,,86,50,332,,0*70
$GAGSV,2,1,06,13,59,293,36,15,51,041,41,18,63,086,45,21,47,291,39,2*73
$GAGSV,2,2,06,27,49,204,42$GAGSV,2,1,07,01,09,324,22,13,59,293,39,15,51,041,44,18,63,086,47,7*72
$GAGSV,2,2,07,21,47,291,35,27,49,204,35,34,05,066,23,7*43
$GAGSV,1,1,01,03,19,089,,0*4F
$GBGSV,3,1,09,02,27,236,33,03,44,206,39,07,77,235,33,10,70,279,39,1*73
$GBGSV,3,2,09,13,39,232,40,27,35,295,37,28,67,015,47,33,45,107,36,1*76
$GBGSV,3,3,09,37,27,234,40,1*4F
$GBGSV,2,1,05,02,27,236,33,03,44,206,37,07,77,235,34,10,70,279,39,3*75
$GBGSV,2,2,05,13,39,232,31,3*48
$GNRMC,033633.00,A,3727.0332349,N,12639.1560856,E,0.016,,210622,,,R,V*08
$GNVTG,,T,,M,0.016,N,0.030,K,D*3C
$GNGNS,033633.00,3727.0332349,N,12639.1560856,E,RRRR,23,0.77,20.014,17.834,1.0,4095,V*07
$GNGGA,033633.00,3727.0332349,N,12639.1560856,E,4,12,0.77,20.014,M,17.834,M,1.0,4095*50
$GNGSA,A,3,14,03,06,19,17,,,,,,,,1.71,0.77,1.53,1*0F
$GNGSA,A,3,85,75,71,76,77,,,,,,,,1.71,0.77,1.53,2*0A
$GNGSA,A,3,21,27,13,15,,,,,,,,,1.71,0.77,1.53,3*03
$GNGSA,A,3,02,37,07,10,27,28,03,13,33,,,,1.71,0.77,1.53,4*0A
$GPGSV,2,1,07,03,54,069,43,06,35,262,29,14,55,199,45,17,67,344,43,1*61
$GPGSV,2,2,07,19,45,314,41,41,27,238,41,50,47,179,37,1*58
$GPGSV,1,1,04,03,54,069,41,06,35,262,28,14,55,199,31,17,67,344,40,6*65
$GPGSV,1,1,01,11,00,248,,0*5A
$GLGSV,2,1,07,69,07,022,20,71,27,139,35,75,21,206,38,76,42,269,39,1*76
$GLGSV,2,2,07,77,21,323,31,85,40,045,44,87,08,280,22,1*49
$GLGSV,2,1,06,69,07,022,19,71,27,139,32,75,21,206,37,76,42,269,31,3*7F
$GLGSV,2,2,06,77,21,323,11,85,40,045,40,3*71
$GLGSV,1,1,02,70,39,078,,86,50,332,,0*70
$GAGSV,2,1,06,13,59,293,37,15,51,041,41,18,63,086,45,21,47,291,38,2*73
$GAGSV,2,2,06,27,49,204,42,34,05,066,24,2*7C
$GAGSV,2,1,07,01,09,324,21,13,59,293,40,15,51,041,45,18,63,086,47,7*7E
$GAGSV,2,2,07,21,47,291,35,27,49,204,35,34,05,066,24,7*44
$GAGSV,1,1,01,03,19,089,,0*4F
$GBGSV,3,1,09,02,27,236,36,03,44,206,39,07,77,235,33,10,70,279,39,1*76
$GBGSV,3,2,09,13,39,232,40,27,35,295,35,28,67,015,47,33,45,107,39,1*7B
$GBGSV,3,3,09,37,27,234,42,1*4D
$GBGSV,2,1,05,02,27,236,33,03,44,206,39,07,77,235,35,10,70,279,39,3*7A
$GBGSV,2,2,05,13,39,232,33,3*4A
$GNRMC,033634.00,A,3727.0332344,N,12639.1560839,E,0.059,,210622,,,R,V*00
$GNVTG,,T,,M,0.059,N,0.110,K,D*34
$GNGNS,033634.00,3727.0332344,N,12639.1560839,E,RRRR,23,0.77,20.080,17.834,2.0,4095,V*0A
$GNGGA,033634.00,3727.0332344,N,12639.1560839,E,4,12,0.77,20.080,M,17.834,M,2.0,4095*5D
$GNGSA,A,3,14,03,06,19,17,,,,,,,,1.71,0.77,1.53,1*0F
$GNGSA,A,3,85,75,71,76,77,,,,,,,,1.71,0.77,1.53,2*0A
$GNGSA,A,3,21,27,13,15,,,,,,,,,1.71,0.77,1.53,3*03
$GNGSA,A,3,02,37,07,10,27,28,03,13,33,,,,1.71,0.77,1.53,4*0A
$GPGSV,2,1,07,03,54,069,43,06,35,262,28,14,55,199,45,17,67,344,43,1*60
$GPGSV,2,2,07,19,45,314,28,41,27,238,42,50,47,179,37,1*54
$GPGSV,1,1,04,03,54,069,41,06,35,262,33,14,55,199,31,17,67,344,38,6*60
$GPGSV,1,1,01,11,00,248,,0*5A
$GLGSV,2,1,07,69,07,022,18,71,27,139,38,75,21,206,38,76,42,269,42,1*7C
$GLGSV,2,2,07,77,21,323,26,85,40,045,43,87,08,280,20,1*4A
$GLGSV,2,1,06,69,07,022,19,71,27,139,32,75,21,206,39,76,42,269,32,3*72
$GLGSV,2,2,06,77,21,323,17,85,40,045,41,3*76
$GLGSV,1,1,02,70,39,078,,86,50,332,,0*70
$GAGSV,2,1,06,13,59,293,32,15,51,041,40,18,63,086,45,21,47,291,38,2*77
$GAGSV,2,2,06,27,49,204,43,34,05,066,24,2*7D
$GAGSV,2,1,07,01,09,324,21,13,59,293,40,15,51,041,45,18,63,086,47,7*7E
$GAGSV,2,2,07,21,47,291,31,27,49,204,37,34,05,066,22,7*44
$GAGSV,1,1,01,03,19,089,,0*4F
