$GNRMC,041935.00,A,3727.0708228,N,12639.2810060,E,0.006,,220622,,,F,V*1D
$GNVTG,,T,,M,0.006,N,0.012,K,D*3D
$GNGNS,041935.00,3727.0708228,N,12639.2810060,E,FFFF,27,0.61,29.123,17.838,,4095,V*28
$GNGSA,A,3,17,03,06,14,19,01,04,,,,,,1.40,0.61,1.26,1*0D
$GNGSA,A,3,65,87,71,72,,,,,,,,,1.40,0.61,1.26,2*0A
$GNGSA,A,3,30,09,05,02,34,36,,,,,,,1.40,0.61,1.26,3*0B
$GNGSA,A,3,03,14,08,07,04,11,28,10,13,34,21,,1.40,0.61,1.26,4*03
$GPGSV,3,1,10,01,12,067,23,03,39,048,45,04,21,100,35,06,48,285,29,1*6F
$GPGSV,3,2,10,09,18,133,25,14,34,189,45,17,77,051,45,19,64,332,33,1*6A
$GPGSV,3,3,10,28,,,43,50,47,179,43,1*56
$GPGSV,2,1,07,01,12,067,28,03,39,048,41,04,21,100,30,06,48,285,28,6*64
$GPGSV,2,2,07,09,18,133,22,14,34,189,40,17,77,051,36,6*54
$GPGSV,2,1,06,02,10,267,,11,14,262,,12,07,324,,20,01,220,,0*61
$GPGSV,2,2,06,20,01,220,,40,06,259,,0*6C
$GLGSV,2,1,05,65,22,167,15,71,32,045,48,72,49,112,28,87,53,359,28,1*7F
$GLGSV,2,2,05,88,27,304,19,1*47
$GLGSV,2,1,06,65,22,167,32,71,32,045,21,72,49,112,26,77,25,239,09,3*70
$GLGSV,2,2,06,78,26,302,17,88,27,304,16,3*75
$GLGSV,1,1,03,76,01,198,,79,01,344,,86,24,075,,0*4C
$GAGSV,2$GAGSV,2,2,07,30,40,288,33,34,50,296,31,36,56,038,46,2*46
$GAGSV,2,1,06,02,41,216,31,05,18,149,34,09,29,095,28,18,44,306,40,7*7D
$GAGSV,2,2,06,34,50,296,28,36,56,038,41,7*78
$GAGSV,1,1,04,04,11,044,,15,06,268,,25,09,176,,27,03,329,,0*7A
$GBGSV,3,1,11,01,43,152,30,03,44,206,41,04,35,132,34,07,69,219,40,1*76
$GBGSV,3,2,11,10,67,256,28,11,43,082,31,13,43,248,27,14,54,132,32,1*78
$GBGSV,3,3,11,21,16,040,31,28,41,306,37,34,24,097,36,1*40
$GBGSV,3,1,09,01,43,152,34,03,44,206,42,04,35,132,31,07,69,219,44,3*7B
$GBGSV,3,2,09,08,52,253,26,10,67,256,27,11,43,082,23,13,43,248,30,3*73
$GBGSV,3,3,09,14,54,132,32,3*48
$GBGSV,1,1,04,02,27,236,,05,08,256,,23,15,228,,37,18,279,,0*73
$GNRMC,041936.00,A,3727.0707355,N,12639.2812210,E,0.026,,220622,,,F,V*1F
$GNVTG,,T,,M,0.026,N,0.048,K,D*30
$GNGNS,041936.00,3727.0707355,N,12639.2812210,E,FFFF,28,0.61,29.312,17.838,,4095,V*27
$GNGGA,041936.00,3727.0707355,N,12639.2812210,E,5,12,0.61,29.312,M,17.838,M,,4095*7A
$GNGSA,A,3,17,03,06,14,19,01,04,,,,,,1.40,0.61,1.26,1*0D
$GNGSA,A,3,65,87,71,72,,,,,,,,,1.40,0.61,1.26,2*0A
$GNGSA,A,3,30,09,05,02,34,36,,,,,,,1.40,0.61,1.26,3*0B
$GNGSA,A,3,03,14,08,07,04,11,28,10,13,34,21,,1.40,0.61,1.26,4*03
$GPGSV,3,1,10,03,39,048,44,04,21,100,35,06,48,285,28,09,18,133,25,1*6B
$GPGSV,3,2,10,14,34,189,44,17,77,051,43,19,64,332,33,28,,,43,1*56
$GPGSV,3,3,10,42,43,151,27,50,47,179,43,1*6A
$GPGSV,2,1,07,01,12,067,30,03,39,048,40,04,21,100,29,06,48,285,28,6*64
$GPGSV,2,2,07,09,18,133,20,14,34,189,41,17,77,051,37,6*56
$GPGSV,2,1,06,02,10,268,,11,14,262,,12,07,324,,20,01,220,,0*6E
$GPGSV,2,2,06,20,01,220,,40,06,259,,0*6C
$GLGSV,2,1,05,65,22,167,14,71,32,045,46,72,49,112,29,87,53,359,29,1*70
$GLGSV,2,2,05,88,27,304,19,1*47
$GLGSV,2,1,06,65,22,167,32,71,32,045,20,72,49,112,26,77,25,239,10,3*79
$GLGSV,2,2,06,78,26,302,17,88,27,304,17,3*74
$GLGSV,1,1,03,76,01,198,,79,01,344,,86,24,075,,0*4C
$GAGSV,2,1,07,02,41,216,35,05,18,149,32,09,29,095,29,11,14,072,21,2*71
$GAGSV,2,2,07,30,40,288,34,34,50,296,31,36,56,038,46,2*41
$GAGSV,2,1,07,02,41,216,31,05,18,149,35,09,29,095,29,18,44,306,38,7*73
$GAGSV,2,2,07,30,40,288,30,34,50,296,31,36,56,038,42,7*44
$GAGSV,1,1,04,04,11,044,,15,06,268,,25,09,176,,27,03,329,,0*7A
$GBGSV,3,1,11,01,43,152,29,03,44,206,41,04,35,132,33,07,69,219,40,1*79
$GNRMC,041937.00,A,3727.0706817,N,12639.2813771,E,0.011,,220622,,,F,V*15
$GNVTG,,T,,M,0.011,N,0.020,K,D*3A
$GNGNS,041937.00,3727.0706817,N,12639.2813771,E,FFFF,28,0.62,29.424,17.838,,4095,V*28
$GNGGA,041937.00,3727.0706817,N,12639.2813771,E,5,12,0.62,29.424,M,17.838,M,,4095*75
$GNGSA,A,3,17,03,06,14,09,19,01,04,,,,,1.38,0.62,1.24,1*0A
$GNGSA,A,3,65,87,71,72,,,,,,,,,1.38,0.62,1.24,2*04
$GNGSA,A,3,30,09,05,02,34,36,,,,,,,1.38,0.62,1.24,3*05
$GNGSA,A,3,03,14,08,07,11,28,10,13,34,21,,,1.38,0.62,1.24,4*09
$GPGSV,3,1,11,01,12,067,24,03,38,048,45,04,21,100,37,06,48,285,28,1*6B
$GPGSV,3,2,11,09,18,133,26,14,34,189,44,17,77,051,45,19,64,332,34,1*6E
$GPGSV,3,3,11,28,,,43,42,43,151,27,50,47,179,43,1*66
$GPGSV,2,1,07,01,12,067,30,03,38,048,40,04,21,100,30,06,48,285,27,6*62
$GPGSV,2,2,07,09,18,133,18,14,34,189,37,17,77,051,37,6*5C
$GPGSV,2,1,06,02,10,268,,11,14,262,,12,07,324,,20,01,220,,0*6E
$GPGSV,2,2,06,20,01,220,,40,06,259,,0*6C
$GLGSV,2,1,06,65,22,167,17,71,32,045,47,72,49,112,29,78,26,302,19,1*7E
$GLGSV,2,2,06,87,53,359,31,88,27,304,18,1*71
$GLGSV,2,1,06,65,22,167,33,71,32,045,29,72,49,112,25,77,25,239,10,3*72
$GLGSV,2,2,06,78,26,302,16,88,27,304,16,3*74
$GLGSV,1,1,03,76,01,198,,79,01,344,,86,24,075,,0*4C
$GAGSV,2,1,07,02,41,216,35,05,18,149,36,09,29,095,30,11,14,072,22,2*7E
$GAGSV,2,2,07,30,40,288,33,34,50,296,34,36,56,038,47,2*42
$GAGSV,2,1,07,02,41,216,30,05,18,149,25,09,29,095,29,18,44,306,39,7*72
$GAGSV,2,2,07,30,40,288,30,34,50,296,30,36,56,038,44,7*43
$GAGSV,1,1,04,04,11,044,,15,06,268,,25,09,176,,27,03,329,,0*7A
$GBGSV,3,1,11,01,43,152,27,03,44,206,42,04,35,132,32,07,69,219,40,1*75
$GBGSV,3,2,11,10,67,256,28,11,43,082,30,13,43,248,28,14,54,132,26,1*73
$GBGSV,3,3,11,21,16,040,31,28,41,306,35,34,24,097,37,1*43
$GBGSV,3,1,09,01,43,152,30,03,44,206,43,04,35,132,31,07,69,219,45,3*7F
$GBGSV,3,2,09,08,52,253,28,10,67,256,27,11,43,082,25,13,43,248,30,3*7B
$GBGSV,3,3,09,14,54,132,32,3*48
$GBGSV,1,1,04,02,27,236,,05,08,256,,23,15,228,,37,18,279,,0*73
$GNRMC,041938.00,A,3727.0706122,N,12639.2815427,E,0.025,,220622,,,F,V*14
$GNVTG,,T,,M,0.025,N,0.047,K,D*3C
$GNGNS,041938.00,3727.0706122,N,12639.2815427,E,FFFF,28,0.62,29.535,17.838,,4095,V*2F
$GNGGA,041938.00,3727.0706122,N,12639.2815427,E,5,12,0.62,29.535,M,17.838,M,,4095*72
$GNGSA,A,3,17,03,06,14,09,19,01,04,,,,,1.38,0.62,1.24,1*0A
$GNGSA,A,3,65,87,71,72,,,,,,,,,1.38,0.62,1.24,2*04
$GNGSA,A,3,30,09,05,02,34,36,,,,,,,1.38,0.62,1.24,3*05
$GNGSA,A,3,03,14,08,07,11,28,10,13,34,21,,,1.38,0.62,1.24,4*09
$GPGSV,3,1,10,01,12,067,25,03,38,048,45,04,21,099,36,06,48,285,28,1*6B
$GPGSV,3,2,10,09,18,133,25,14,34,189,44,17,77,051,45,19,64,332,33,1*6B
$GPGSV,3,3,10,28,,,44,50,47,179,43,1*51
$GPGSV,2,1,07,01,12,067,30,03,38,048,40,04,21,099,30,06,48,285,27,6*63
$GPGSV,2,2,07,09,18,133,19,14,34,189,41,17,77,051,37,6*5C
$GPGSV,2,1,06,02,10,268,,11,14,262,,12,07,324,,20,01,220,,0*6E
$GPGSV,2,2,06,20,01,220,,40,06,259,,0*6C
$GLGSV,2,1,06,65,22,167,16,71,32,045,47,72,49,112,30,78,26,302,18,1*76
$GLGSV,2,2,06,87,53,359,32,88,27,304,18,1*72
$GLGSV,2,1,06,65,22,167,33,71,32,045,29,72,49,112,24,77,25,239,10,3*73
$GLGSV,2,2,06,78,26,302,15,88,27,304,15,3*74
$GLGSV,1,1,03,76,01,198,,79,01,344,,86,24,075,,0*4C
$GAGSV,2,1,07,02,41,216,36,05,18,149,34,09,29,095,29,11,14,072,23,2*76
$GAGSV,2,2,07,30,40,288,33,34,50,296,33,36,56,038,46,2*44
$GAGSV,2,1,07,02,41,216,30,05,18,149,31,09,29,095,31,18,44,306,40,7*70
$GAGSV,2,2,07,30,40,288,29,34,50,296,31,36,56,038,43,7*4D
$GAGSV,1,1,04,04,11,044,,15,06,268,,25,09,176,,27,03,329,,0*7A
$GBGSV,3,1,11,01,43,152,28,03,44,206,42,04,35,132,32,07,69,219,40,1*7A
$GBGSV,3,2,11,10,67,256,28,11,43,082,30,13,43,248,28,14,54,132,28,1*7D
$GBGSV,3,3,11,21,16,040,32,28,41,306,35,34,24,097,37,1*40
$GBGSV,3,1,09,01,43,152,31,03,44,206,42,04,35,132,32,07,69,219,44,3*7D
$GBGSV,3,2,09,08,52,253,29,10,67,256,28,11,43,082,25,13,43,248,30,3*75
$GBGSV,3,3,09,14,54,132,33,3*49
$GBGSV,1,1,04,02,27,236,,05,08,256,,23,15,228,,37,18,279,,0*73
$GNRMC,041939.00,A,3727.0705645,N,12639.2816780,E,0.027,,220622,,,F,V*1F
$GNVTG,,T,,M,0.027,N,0.051,K,D*39
$GNGNS,041939.00,3727.0705645,N,12639.2816780,E,FFFF,28,0.68,29.679,17.838,,4095,V*27
$GNGGA,041939.00,3727.0705645,N,12639.2816780,E,5,12,0.68,29.679,M,17.838,M,,4095*7A
$GNGSA,A,3,17,03,06,14,09,19,01,04,,,,,1.44,0.68,1.27,1*08
$GNGSA,A,3,65,87,71,72,,,,,,,,,1.44,0.68,1.27,2*06
$GNGSA,A,3,30,09,05,02,34,36,,,,,,,1.44,0.68,1.27,3*07
$GNGSA,A,3,03,14,08,07,11,28,10,13,34,21,,,1.44,0.68,1.27,4*0B
$GPGSV,3,1,10,01,12,067,31,03,38,048,43,04,21,099,35,06,48,285,29,1*6A
$GPGSV,3,2,10,09,18,133,26,14,34,189,43,17,77,051,45,19,64,332,34,1*68
$GPGSV,3,3,10,28,,,43,50,47,179,43,1*56
$GPGSV,2,1,07,01,12,067,31,03,38,048,39,04,21,099,29,06,48,285,26,6*65
$GPGSV,2,2,07,09,18,133,19,14,34,189,39,17,77,051,37,6*53
$GPGSV,2,1,06,02,10,268,,11,14,262,,12,07,324,,20,01,220,,0*6E
$GPGSV,2,2,06,20,01,220,,40,06,259,,0*6C
$GLGSV,2,1,06,65,22,167,16,71,32,045,47,72,49,112,29,78,26,302,16,1*70
$GLGSV,2,2,06,87,53,359,32,88,27,304,19,1*73
$GLGSV,2,1,06,65,22,167,34,71,32,045,27,72,49,112,23,77,25,239,11,3*7C
$GLGSV,2,2,06,78,26,302,13,88,27,304,14,3*73
$GLGSV,1,1,03,76,01,198,,79,01,344,,86,24,075,,0*4C
$GAGSV,2,1,07,02,41,216,36,05,18,149,34,09,29,095,29,11,14,072,23,2*76
$GAGSV,2,2,07,30,40,288,33,34,50,296,33,36,56,038,46,2*44
$GAGSV,2,1,08,02,41,216,29,05,18,149,23,09,29,095,32,11,14,072,23,7*7E
$GAGSV,2,2,08,18,44,306,40,30,40,288,28,34,50,296,32,36,56,038,42,7*79
$GAGSV,1,1,04,04,11,044,,15,06,268,,25,09,176,,27,03,329,,0*7A
$GBGSV,3,1,11,01,43,152,27,03,44,206,41,04,35,132,32,07,69,219,40,1*76
$GBGSV,3,2,11,10,67,256,27,11,43,082,29,13,43,248,28,14,54,132,31,1*72
$GBGSV,3,3,11,21,16,040,32,28,41,306,38,34,24,097,37,1*4D
$GBGSV,3,1,09,01,43,152,32,03,44,206,42,04,35,132,31,07,69,219,44,3*7D
$GBGSV,3,2,09,08,52,253,29,10,67,256,28,11,43,082,26,13,43,248,30,3*76
$GBGSV,3,3,09,14,54,132,34,3*4E
$GBGSV,1,1,04,02,27,236,,05,08,256,,23,15,228,,37,18,279,,0*73
$GNRMC,041940.00,A,3727.0705180,N,12639.2818013,E,0.015,,220622,,,F,V*1D
$GNVTG,,T,,M,0.015,N,0.029,K,D*37
$GNGNS,041940.00,3727.0705180,N,12639.2818013,E,FFFF,28,0.66,29.868,17.838,,4095,V*24
$GNGGA,041940.00,3727.0705180,N,12639.2818013,E,5,12,0.66,29.868,M,17.838,M,,4095*79
$GNGSA,A,3,17,03,14,09,19,01,04,,,,,,1.42,0.66,1.26,1*07
$GNGSA,A,3,65,87,71,72,,,,,,,,,1.42,0.66,1.26,2*0F
$GNGSA,A,3,30,09,05,02,34,36,,,,,,,1.42,0.66,1.26,3*0E
$GNGSA,A,3,03,14,08,07,04,11,28,10,13,34,21,,1.42,0.66,1.26,4*06
$GPGSV,3,1,10,01,12,067,24,03,38,048,43,04,21,099,35,06,49,286,26,1*63
$GPGSV,3,2,10,09,18,133,27,14,34,189,43,17,77,051,45,19,64,332,33,1*6E
$GPGSV,3,3,10,28,,,42,50,47,179,42,1*56
$GPGSV,2,1,07,01,12,067,32,03,38,048,40,04,21,099,30,06,49,286,25,6*61
$GPGSV,2,2,07,09,18,133,20,14,34,189,39,17,77,051,38,6*56
$GPGSV,2,1,06,02,10,268,,11,14,262,,12,07,324,,20,01,220,,0*6E
$GPGSV,2,2,06,20,01,220,,40,06,259,,0*6C
$GLGSV,2,1,06,65,22,167,16,71,32,045,46,72,49,112,29,78,26,302,15,1*72
$GLGSV,2,2,06,87,53,359,33,88,27,304,20,1*78
$GLGSV,2,1,06,65,22,167,33,71,32,045,33,72,49,112,22,77,25,239,11,3*7F
$GLGSV,2,2,06,78,26,302,11,88,27,304,12,3*77
$GLGSV,1,1,03,76,01,198,,79,01,344,,86,24,075,,0*4C
$GAGSV,2,1,07,02,41,216,35,05,18,149,35,09,29,095,31,11,14,072,24,2*7A
$GAGSV,2,2,07,30,40,288,32,34,50,296,34,36,56,038,46,2*42
$GAGSV,2,1,08,02,41,216,29,05,18,149,21,09,29,095,33,11,14,072,25,7*7B
$GAGSV,2,2,08,18,44,306,39,30,40,288,27,34,50,296,31,36,56,038,44,7*7D
$GAGSV,1,1,04,04,11,044,,15,06,268,,25,09,176,,27,03,329,,0*7A
$GBGSV,3,1,10,03,44,206,41,04,35,132,32,07,69,219,40,10,67,256,27,1*76
$GBGSV,3,2,10,11,43,082,28,13,43,248,27,14,54,132,30,21,16,040,33,1*78
$GBGSV,3,3,10,28,41,306,36,34,24,097,37,1*73
$GBGSV,3,1,09,01,43,152,30,03,44,206,42,04,35,132,31,07,69,219,44,3*7F
$GBGSV,3,2,09,08,52,253,28,10,67,256,29,11,43,082,24,13,43,248,29,3*7C
$GBGSV,3,3,09,14,54,132,33,3*49
$GNRMC,041941.00,A,3727.0704593,N,12639.2819448,E,0.041,,220622,,,F,V*11
$GNVTG,,T,,M,0.041,N,0.075,K,D*3F
$GNGNS,041941.00,3727.0704593,N,12639.2819448,E,FFFF,28,0.66,30.077,17.838,,4095,V*27
$GNGGA,041941.00,3727.0704593,N,12639.2819448,E,5,12,0.66,30.077,M,17.838,M,,4095*7A
$GNGSA,A,3,17,03,14,09,19,01,04,,,,,,1.42,0.66,1.26,1*07
$GNGSA,A,3,65,87,71,72,,,,,,,,,1.42,0.66,1.26,2*0F
$GNGSA,A,3,30,09,05,02,34,36,,,,,,,1.42,0.66,1.26,3*0E
$GNGSA,A,3,03,14,08,07,04,11,28,10,13,34,21,,1.42,0.66,1.26,4*06
$GPGSV,3,1,10,01,12,067,25,03,38,048,43,04,21,099,35,06,49,286,25,1*61
$GPGSV,3,2,10,09,18,133,27,14,34,189,41,17,77,051,44,19,64,332,33,1*6D
$GPGSV,3,3,10,28,,,42,50,47,179,43,1*57
$GPGSV,2,1,07,01,12,067,32,03,38,048,40,04,21,099,29,06,49,286,26,6*6A
$GPGSV,2,2,07,09,18,133,19,14,34,189,39,17,77,051,38,6*5C
$GPGSV,2,1,06,02,10,268,,11,14,262,,12,07,324,,20,01,220,,0*6E
$GPGSV,2,2,06,20,01,220,,40,06,259,,0*6C
$GLGSV,2,1,05,71,32,045,45,72,49,112,28,78,26,302,14,87,53,359,33,1*70
$GLGSV,2,2,05,88,27,304,21,1*4C
$GLGSV,2,1,06,65,22,167,34,71,32,045,32,72,49,112,21,77,25,239,12,3*79
$GLGSV,2,2,06,78,26,302,11,88,27,304,10,3*75
$GLGSV,1,1,03,76,01,198,,79,01,344,,86,24,075,,0*4C
$GAGSV,2,1,07,02,41,216,35,05,18,149,34,09,29,095,30,11,14,072,24,2*7A
$GAGSV,2,2,07,30,40,288,32,34,50,296,30,36,56,038,45,2*45
$GAGSV,2,1,08,02,41,216,29,05,18,149,29,09,29,095,32,11,14,072,26,7*71
$GAGSV,2,2,08,18,44,306,40,30,40,288,27,34,50,296,31,36,56,038,43,7*74
$GAGSV,1,1,04,04,11,044,,15,06,268,,25,09,176,,27,03,329,,0*7A
$GBGSV,3,1,11,01,43,152,27,03,44,206,41,04,35,132,32,07,69,219,40,1*76
$GBGSV,3,2,11,10,67,256,27,11,43,082,32,13,43,248,27,14,54,132,30,1*76
$GBGSV,3,3,11,21,16,040,33,28,41,306,37,34,24,097,39,1*4D
$GBGSV,3,1,09,01,43,152,30,03,44,206,40,04,35,132,31,07,69,219,43,3*7A
$GBGSV,3,2,09,08,52,253,28,10,67,256,28,11,43,082,24,13,43,248,29,3*7D
$GBGSV,3,3,09,14,54,132,33,3*49
$GBGSV,1,1,04,02,27,236,,05,08,256,,23,15,228,,37,18,279,,0*73
$GNRMC,041942.00,A,3727.0703955,N,12639.2820924,E,0.016,,220622,,,F,V*1C
$GNVTG,,T,,M,0.016,N,0.030,K,D*3C
$GNGNS,041942.00,3727.0703955,N,12639.2820924,E,FFFF,28,0.65,30.301,17.838,,4095,V*29
$GNGGA,041942.00,3727.0703955,N,12639.2820924,E,5,12,0.65,30.301,M,17.838,M,,4095*74
$GNGSA,A,3,17,03,06,14,09,19,01,04,,,,,1.42,0.65,1.26,1*02
$GNGSA,A,3,65,87,71,72,,,,,,,,,1.42,0.65,1.26,2*0C
$GNGSA,A,3,30,09,05,02,34,36,,,,,,,1.42,0.65,1.26,3*0D
$GNGSA,A,3,03,14,08,07,11,28,10,13,34,21,,,1.42,0.65,1.26,4*01
$GPGSV,3,1,10,01,12,067,27,03,38,048,44,04,21,099,34,06,49,286,27,1*67
$GPGSV,3,2,10,09,18,133,26,14,34,189,39,17,77,051,45,19,64,332,33,1*62
$GPGSV,3,3,10,28,,,42,50,47,179,43,1*57
$GPGSV,2,1,07,01,12,067,31,03,38,048,40,04,21,099,29,06,49,286,27,6*68
$GPGSV,2,2,07,09,18,133,16,14,34,189,40,17,77,051,37,6*52
$GPGSV,2,1,06,02,10,268,,11,14,262,,12,07,324,,20,01,220,,0*6E
$GPGSV,2,2,06,20,01,220,,40,06,259,,0*6C
$GLGSV,2,1,05,71,32,045,46,72,49,112,29,78,26,302,14,87,53,359,32,1*73
$GLGSV,2,2,05,88,27,304,21,1*4C
$GLGSV,2,1,06,65,22,167,34,71,32,045,30,72,49,112,20,77,25,239,11,3*79
$GLGSV,2,2,06,78,26,302,10,88,27,304,10,3*74
$GLGSV,1,1,03,76,01,198,,79,01,344,,86,24,075,,0*4C
$GAGSV,2,1,07,02,41,216,35,05,18,149,30,09,29,095,31,11,14,072,24,2*7F
$GAGSV,2,2,07,30,40,288,32,34,50,296,30,36,56,038,46,2*46
$GAGSV,2,1,08,02,41,216,29,05,18,149,36,09,29,095,31,11,14,072,25,7*7F
$GAGSV,2,2,08,18,44,306,40,30,40,288,28,34,50,296,33,36,56,038,43,7*79
$GNRMC,041943.00,A,3727.0703544,N,12639.2822010,E,0.007,,220622,,,F,V*1D
$GNVTG,,T,,M,0.007,N,0.012,K,D*3C
$GNGNS,041943.00,3727.0703544,N,12639.2822010,E,FFFF,28,0.66,30.452,17.838,,4095,V*2A
$GNGGA,041943.00,3727.0703544,N,12639.2822010,E,5,12,0.66,30.452,M,17.838,M,,4095*77
$GNGSA,A,3,17,03,06,14,09,19,01,04,,,,,1.45,0.66,1.29,1*09
$GNGSA,A,3,65,87,71,72,,,,,,,,,1.45,0.66,1.29,2*07
$GNGSA,A,3,30,09,05,02,34,36,,,,,,,1.45,0.66,1.29,3*06
$GNGSA,A,3,03,14,08,07,11,28,10,13,34,21,,,1.45,0.66,1.29,4*0A
$GPGSV,3,1,10,01,12,067,26,03,38,048,44,04,21,099,30,06,49,286,27,1*62
$GPGSV,3,2,10,09,19,133,24,14,34,189,39,17,77,051,44,19,64,332,33,1*60
$GPGSV,3,3,10,28,,,41,50,47,179,43,1*54
$GPGSV,2,1,07,01,12,067,29,03,38,048,41,04,21,099,29,06,49,286,26,6*61
$GPGSV,2,2,07,09,19,133,16,14,34,189,43,17,77,051,35,6*52
$GPGSV,2,1,06,02,10,268,,11,14,262,,12,07,324,,20,01,220,,0*6E
$GPGSV,2,2,06,20,01,220,,40,06,259,,0*6C
$GLGSV,2,1,06,65,22,167,23,71,32,045,47,72,49,112,33,78,26,302,13,1*78
$GLGSV,2,2,06,87,53,359,32,88,27,304,21,1*78
$GLGSV,2,1,06,65,22,167,29,71,32,045,29,72,49,112,21,77,25,239,09,3*75
$GLGSV,2,2,06,78,26,302,10,88,27,304,10,3*74
$GLGSV,1,1,03,76,01,198,,79,01,344,,86,24,075,,0*4C
$GAGSV,2,1,07,02,41,216,34,05,18,149,29,09,29,095,32,11,14,072,23,2*72
$GAGSV,2,2,07,30,40,288,33,34,50,296,30,36,56,038,46,2*47
$GAGSV,2,1,07,02,41,216,31,05,18,149,40,09,29,095,31,18,44,306,41,7*76
$GAGSV,2,2,07,30,40,288,28,34,50,296,32,36,56,038,42,7*4E
$GAGSV,1,1,04,04,11,044,,15,06,268,,25,09,176,,27,03,329,,0*7A
$GBGSV,3,1,10,03,44,206,38,04,35,132,30,07,69,219,38,10,67,256,28,1*7A
$GBGSV,3,2,10,11,43,082,29,13,43,248,27,14,54,132,34,21,16,040,27,1*78
$GBGSV,3,3,10,28,41,306,36,34,24,097,39,1*7D
$GBGSV,3,1,09,01,43,152,33,03,44,206,39,04,35,132,30,07,69,219,42,3*77
$GBGSV,3,2,09,08,52,253,27,10,67,256,28,11,43,082,31,13,43,248,30,3*7E
$GBGSV,3,3,09,14,54,132,33,3*49
$GBGSV,1,1,04,02,27,236,,05,08,256,,23,15,228,,37,18,279,,0*73
$GNRMC,041944.00,A,3727.0702866,N,12639.2823520,E,0.058,,220622,,,F,V*1B
$GNVTG,,T,,M,0.058,N,0.108,K,D*3C
$GNGNS,041944.00,3727.0702866,N,12639.2823520,E,FFFF,28,0.61,30.643,17.838,,4095,V*23
$GNGGA,041944.00,3727.0702866,N,12639.2823520,E,5,12,0.61,30.643,M,17.838,M,,4095*7E
$GNGSA,A,3,17,03,06,14,19,01,04,,,,,,1.39,0.61,1.25,1*00
$GNGSA,A,3,65,87,71,72,,,,,,,,,1.39,0.61,1.25,2*07
$GNGSA,A,3,30,09,05,02,34,36,,,,,,,1.39,0.61,1.25,3*06
$GNGSA,A,3,03,14,08,07,01,11,28,10,13,34,21,,1.39,0.61,1.25,4*0B
$GPGSV,3,1,10,01,12,067,24,03,38,048,44,04,21,099,31,06,49,286,27,1*61
$GPGSV,3,2,10,09,19,133,22,14,34,189,39,17,77,051,45,19,64,332,31,1*65
$GPGSV,3,3,10,28,,,41,50,47,179,42,1*55
$GPGSV,2,1,07,01,12,067,29,03,38,048,40,04,21,099,28,06,49,286,25,6*62
$GPGSV,2,2,07,09,19,133,17,14,34,189,42,17,77,051,36,6*51
$GPGSV,2,1,06,02,10,268,,11,14,262,,12,07,324,,20,01,220,,0*6E
$GPGSV,2,2,06,20,01,220,,40,06,259,,0*6C
$GLGSV,2,1,06,65,22,167,24,71,32,045,48,72,49,112,33,78,26,302,11,1*72
$GLGSV,2,2,06,87,53,359,33,88,27,304,21,1*79
$GLGSV,2,1,06,65,22,167,30,71,32,045,29,72,49,112,21,77,25,239,11,3*74
$GLGSV,2,2,06,78,26,302,14,88,27,304,15,3*75
$GLGSV,1,1,03,76,01,198,,79,01,344,,86,24,075,,0*4C
$GAGSV,2,1,07,02,41,216,34,05,18,149,30,09,29,095,32,11,14,072,23,2*7A
$GAGSV,2,2,07,30,40,288,33,34,50,296,30,36,56,038,46,2*47
$GAGSV,2,1,07,02,41,216,31,05,18,149,39,09,29,095,32,18,44,306,41,7*7B
$GAGSV,2,2,07,30,40,288,28,34,50,296,33,36,56,038,42,7*4F
$GAGSV,1,1,04,04,11,044,,15,06,268,,25,09,176,,27,03,329,,0*7A
$GBGSV,3,1,10,03,44,206,39,04,35,132,30,07,69,219,39,10,67,256,27,1*75
$GBGSV,3,2,10,11,43,082,29,13,43,248,27,14,54,132,35,21,16,040,32,1*7D
$GBGSV,3,3,10,28,41,306,37,34,24,097,38,1*7D
$GBGSV,3,1,09,01,43,152,33,03,44,206,38,04,35,132,31,07,69,219,42,3*77
$GBGSV,3,2,09,08,52,253,27,10,67,256,29,11,43,082,26,13,43,248,29,3*71
$GBGSV,3,3,09,14,54,132,34,3*4E
$GNRMC,041945.00,A,3727.0702464,N,12639.2824584,E,0.006,,220622,,,F,V*16
$GNVTG,,T,,M,0.006,N,0.011,K,D*3E
$GNGNS,041945.00,3727.0702464,N,12639.2824584,E,FFFF,28,0.63,30.771,17.838,,4095,V*27
$GNGGA,041945.00,3727.0702464,N,12639.2824584,E,5,12,0.63,30.771,M,17.838,M,,4095*7A
$GNGSA,A,3,17,03,06,14,19,01,04,,,,,,1.40,0.63,1.25,1*0C
$GNGSA,A,3,65,87,71,72,,,,,,,,,1.40,0.63,1.25,2*0B
$GNGSA,A,3,30,09,05,02,34,36,,,,,,,1.40,0.63,1.25,3*0A
$GNGSA,A,3,03,14,08,07,01,11,28,10,13,34,21,,1.40,0.63,1.25,4*07
$GPGSV,3,1,10,01,12,067,22,03,38,048,43,04,21,099,32,06,49,286,26,1*62
$GPGSV,3,2,10,09,19,133,22,14,34,189,35,17,77,051,44,19,64,332,31,1*68
$GPGSV,3,3,10,28,,,41,50,47,179,40,1*57
$GPGSV,2,1,07,01,12,067,28,03,38,048,40,04,21,099,28,06,49,286,25,6*63
$GPGSV,2,2,07,09,19,133,16,14,34,189,40,17,77,051,38,6*5C
$GPGSV,2,1,06,02,10,268,,11,14,262,,12,07,324,,20,01,220,,0*6E
$GPGSV,2,2,06,20,01,220,,40,06,259,,0*6C
$GLGSV,2,1,06,65,22,167,21,71,32,045,47,72,49,112,33,78,26,302,11,1*78
$GLGSV,2,2,06,87,53,359,32,88,27,304,21,1*78
$GLGSV,2,1,06,65,22,167,30,71,32,045,30,72,49,112,21,77,25,239,13,3*7E
$GLGSV,2,2,06,78,26,302,16,88,27,304,17,3*75
$GLGSV,1,1,03,76,01,198,,79,01,344,,86,24,075,,0*4C
$GAGSV,2,1,07,02,41,216,34,05,18,149,35,09,29,095,32,11,14,072,23,2*7F
$GAGSV,2,2,07,30,40,288,33,34,50,296,32,36,56,038,47,2*44
$GAGSV,2,1,07,02,41,216,30,05,18,149,35,09,29,095,33,18,44,306,40,7*76
$GAGSV,2,2,07,30,40,288,28,34,50,296,34,36,56,038,42,7*48
$GAGSV,1,1,04,04,11,044,,15,06,268,,25,09,176,,27,03,329,,0*7A
$GBGSV,3,1,10,03,44,206,39,04,35,132,30,07,69,219,40,10,67,256,26,1*7A
$GBGSV,3,2,10,11,43,082,30,13,43,248,26,14,54,132,35,21,16,040,31,1*77
$GBGSV,3,3,10,28,41,306,36,34,24,097,39,1*7D
$GNRMC,041946.00,A,3727.0702058,N,12639.2825768,E,0.002,,220622,,,F,V*1B
$GNVTG,,T,,M,0.002,N,0.004,K,D*3E
$GNGNS,041946.00,3727.0702058,N,12639.2825768,E,FFFF,28,0.61,30.919,17.838,,4095,V*2C
$GNGGA,041946.00,3727.0702058,N,12639.2825768,E,5,12,0.61,30.919,M,17.838,M,,4095*71
$GNGSA,A,3,17,03,06,14,19,01,04,,,,,,1.39,0.61,1.25,1*00
$GNGSA,A,3,65,87,71,72,,,,,,,,,1.39,0.61,1.25,2*07
$GNGSA,A,3,30,09,05,02,34,36,,,,,,,1.39,0.61,1.25,3*06
$GNGSA,A,3,03,14,08,07,01,11,28,10,13,34,21,,1.39,0.61,1.25,4*0B
$GPGSV,3,1,10,01,12,067,22,03,38,048,43,04,21,099,33,06,49,286,27,1*62
$GPGSV,3,2,10,09,19,133,23,14,34,189,36,17,77,051,45,19,64,332,31,1*6B
$GPGSV,3,3,10,28,,,41,50,47,179,41,1*56
$GPGSV,2,1,07,01,12,067,27,03,38,048,39,04,21,099,29,06,49,286,25,6*63
$GPGSV,2,2,07,09,19,133,17,14,34,189,40,17,77,051,38,6*5D
$GPGSV,2,1,06,02,10,268,,11,14,262,,12,08,324,,20,01,220,,0*61
$GPGSV,2,2,06,20,01,220,,40,06,259,,0*6C
$GLGSV,2,1,06,65,22,167,20,71,32,045,46,72,49,112,32,78,26,302,13,1*7B
$GLGSV,2,2,06,87,53,359,32,88,27,304,21,1*78
$GLGSV,2,1,06,65,22,167,33,71,32,045,32,72,49,112,22,77,25,239,10,3*7F
$GLGSV,2,2,06,78,26,302,15,88,27,304,18,3*79
$GLGSV,1,1,03,76,01,198,,79,01,344,,86,24,075,,0*4C
$GAGSV,2,1,07,02,41,216,34,05,18,149,33,09,29,095,31,11,14,072,24,2*7D
$GAGSV,2,2,07,30,40,288,32,34,50,296,33,36,56,038,47,2*44
$GAGSV,2,1,07,02,41,216,30,05,18,149,35,09,29,095,33,18,44,306,40,7*76
$GAGSV,2,2,07,30,40,288,28,34,50,296,33,36,56,038,42,7*4F
$GAGSV,1,1,04,04,11,044,,15,06,268,,25,09,176,,27,03,329,,0*7A
$GBGSV,3,1,10,03,44,206,39,04,35,132,31,07,69,219,40,10,67,256,26,1*7B
$GBGSV,3,2,10,11,43,082,30,13,43,248,25,14,54,132,35,21,16,040,34,1*71
$GBGSV,3,3,10,28,41,306,36,34,24,097,39,1*7D
$GBGSV,3,1,09,01,43,152,32,03,44,206,37,04,35,132,30,07,69,219,43,3*79
$GBGSV,3,2,09,08,52,253,27,10,67,256,30,11,43,082,29,13,43,248,29,3*76
$GBGSV,3,3,09,14,54,132,35,3*4F
$GNRMC,041947.00,A,3727.0701769,N,12639.2826827,E,0.017,,220622,,,F,V*1F
$GNVTG,,T,,M,0.017,N,0.031,K,D*3C
$GNGNS,041947.00,3727.0701769,N,12639.2826827,E,FFFF,28,0.61,31.076,17.838,,4095,V*2D
$GNGGA,041947.00,3727.0701769,N,12639.2826827,E,5,12,0.61,31.076,M,17.838,M,,4095*70
$GNGSA,A,3,17,03,06,14,19,01,04,,,,,,1.39,0.61,1.25,1*00
$GNGSA,A,3,65,87,71,72,,,,,,,,,1.39,0.61,1.25,2*07
$GNGSA,A,3,30,09,05,02,34,36,,,,,,,1.39,0.61,1.25,3*06
$GNGSA,A,3,03,14,08,07,01,11,28,10,13,34,21,,1.39,0.61,1.25,4*0B
$GPGSV,3,1,10,01,12,067,21,03,38,048,43,04,21,099,29,06,49,286,27,1*6A
$GPGSV,3,2,10,09,19,133,22,14,34,189,39,17,77,051,43,19,64,332,31,1*63
$GPGSV,3,3,10,28,,,42,50,47,179,41,1*55
$GPGSV,2,1,07,01,12,067,27,03,38,048,40,04,21,099,28,06,49,286,25,6*6C
$GPGSV,2,2,07,09,19,133,20,14,34,189,42,17,77,051,36,6*55
$GPGSV,2,1,06,02,10,268,,11,14,262,,12,08,324,,20,01,220,,0*61
$GPGSV,2,2,06,20,01,220,,40,06,259,,0*6C
$GLGSV,2,1,06,65,22,167,20,71,32,045,47,72,49,112,34,78,26,302,12,1*7D
$GLGSV,2,2,06,87,53,359,34,88,27,304,19,1*75
$GLGSV,2,1,06,65,22,167,31,71,32,045,31,72,49,112,22,77,25,239,11,3*7F
$GLGSV,2,2,06,78,26,302,16,88,27,304,18,3*7A
$GLGSV,1,1,03,76,01,198,,79,01,344,,86,24,075,,0*4C
$GAGSV,2,1,07,02,41,216,34,05,18,149,31,09,29,095,31,11,14,072,25,2*7E
$GAGSV,2,2,07,30,40,288,32,34,50,296,29,36,56,038,46,2*4E
$GAGSV,2,1,07,02,41,216,29,05,18,149,38,09,29,095,33,18,44,306,40,7*73
$GAGSV,2,2,07,30,40,288,28,34,50,296,33,36,56,038,41,7*4C
$GAGSV,1,1,04,04,11,044,,15,06,268,,25,09,176,,27,03,329,,0*7A
$GBGSV,3,1,10,03,44,206,38,04,35,132,30,07,69,219,38,10,67,256,26,1*74
$GBGSV,3,2,10,11,43,082,30,13,43,248,25,14,54,132,35,21,16,040,29,1*7D
$GBGSV,3,3,10,28,41,306,35,34,24,097,36,1*71
$GBGSV,3,1,09,01,43,152,33,03,44,206,37,04,35,132,28,07,69,219,43,3*71
$GBGSV,3,2,09,08,52,253,26,10,67,256,30,11,43,082,29,13,43,248,30,3*7F
$GBGSV,3,3,09,14,54,132,35,3*4F
$GBGSV,1,1,04,02,27,236,,05,08,256,,23,15,228,,37,18,279,,0*73
$GNRMC,041948.00,A,3727.0701425,N,12639.2828033,E,0.026,,220622,,,F,V*1A
$GNVTG,,T,,M,0.026,N,0.049,K,D*31
$GNGNS,041948.00,3727.0701425,N,12639.2828033,E,FFFF,28,0.61,31.194,17.838,,4095,V*27
$GNGGA,041948.00,3727.0701425,N,12639.2828033,E,5,12,0.61,31.194,M,17.838,M,,4095*7A
$GNGSA,A,3,17,03,06,14,19,01,04,,,,,,1.39,0.61,1.25,1*00
$GNGSA,A,3,65,87,71,72,,,,,,,,,1.39,0.61,1.25,2*07
$GNGSA,A,3,30,09,05,02,34,36,,,,,,,1.39,0.61,1.25,3*06
$GNGSA,A,3,03,14,08,07,01,11,28,10,13,34,21,,1.39,0.61,1.25,4*0B
$GPGSV,3,1,10,01,12,067,22,03,38,048,43,04,21,099,31,06,49,286,27,1*60
$GPGSV,3,2,10,09,19,133,20,14,33,189,37,17,77,051,44,19,64,332,31,1*6F
$GPGSV,3,3,10,28,,,41,50,47,179,41,1*56
$GPGSV,2,1,07,01,12,067,28,03,38,048,40,04,21,099,28,06,49,286,24,6*62
$GPGSV,2,2,07,09,19,133,20,14,33,189,42,17,77,051,36,6*52
$GPGSV,2,1,06,02,10,268,,11,14,262,,12,08,324,,20,01,220,,0*61
$GPGSV,2,2,06,20,01,220,,40,06,259,,0*6C
$GLGSV,2,1,06,65,22,167,20,71,32,045,47,72,49,112,33,78,26,302,12,1*7A
$GLGSV,2,2,06,87,53,359,35,88,27,304,17,1*7A
$GLGSV,2,1,06,65,22,167,31,71,32,045,32,72,49,112,22,77,25,239,11,3*7C
$GLGSV,2,2,06,78,26,302,17,88,27,304,16,3*75
$GLGSV,1,1,03,76,01,198,,79,01,344,,86,24,075,,0*4C
$GAGSV,2,1,07,02,41,216,34,05,18,149,30,09,29,095,30,11,14,072,25,2*7E
$GAGSV,2,2,07,30,40,288,32,34,50,296,31,36,56,038,46,2*47
$GAGSV,2,1,07,02,41,216,28,05,18,149,38,09,29,095,33,18,44,306,40,7*72
$GAGSV,2,2,07,30,40,288,28,34,50,296,33,36,56,038,41,7*4C
$GAGSV,1,1,04,04,11,044,,15,06,268,,25,09,176,,27,03,329,,0*7A
$GBGSV,3,1,10,03,44,206,38,04,35,132,29,07,69,219,39,10,67,256,26,1*7D
$GBGSV,3,2,10,11,43,082,30,13,43,248,25,14,54,132,36,21,16,040,30,1*76
$GBGSV,3,3,10,28,41,306,35,34,24,097,37,1*70
$GBGSV,3,1,09,01,43,152,33,03,44,206,37,04,35,132,29,07,69,219,43,3*70
$GBGSV,3,2,09,08,52,253,26,10,67,256,30,11,43,082,29,13,43,248,31,3*7E
$GBGSV,3,3,09,14,54,132,35,3*4F
$GBGSV,1,1,04,02,27,236,,05,08,256,,23,15,228,,37,18,279,,0*73
$GNRMC,041949.00,A,3727.0701072,N,12639.2829051,E,0.027,,220622,,,F,V*19
$GNVTG,,T,,M,0.027,N,0.050,K,D*38
$GNGNS,041949.00,3727.0701072,N,12639.2829051,E,FFFF,28,0.67,31.301,17.838,,4095,V*2D
$GNGGA,041949.00,3727.0701072,N,12639.2829051,E,5,12,0.67,31.301,M,17.838,M,,4095*70
$GNGSA,A,3,17,03,06,14,19,01,04,,,,,,1.44,0.67,1.27,1*0E
$GNGSA,A,3,65,87,71,72,,,,,,,,,1.44,0.67,1.27,2*09
$GNGSA,A,3,30,09,05,02,34,36,,,,,,,1.44,0.67,1.27,3*08
$GNGSA,A,3,03,14,08,07,01,11,28,10,13,34,21,,1.44,0.67,1.27,4*05
$GPGSV,3,1,10,01,12,067,22,03,38,048,44,04,21,099,31,06,49,286,27,1*67
$GPGSV,3,2,10,09,19,133,18,14,33,189,38,17,77,051,44,19,64,332,31,1*6B
$GPGSV,3,3,10,28,,,42,50,47,179,43,1*57
$GPGSV,2,1,07,01,12,067,29,03,38,048,40,04,21,099,27,06,49,286,24,6*6C
$GPGSV,2,2,07,09,19,133,20,14,33,189,42,17,77,051,37,6*53
$GPGSV,2,1,06,02,10,268,,11,14,262,,12,08,324,,20,01,220,,0*61
$GPGSV,2,2,06,20,01,220,,40,06,259,,0*6C
$GLGSV,2,1,06,65,22,167,20,71,32,045,48,72,49,112,35,78,26,302,12,1*73
$GLGSV,2,2,06,87,53,359,34,88,27,304,16,1*7A
$GLGSV,2,1,06,65,22,167,30,71,32,045,32,72,49,112,22,77,25,239,14,3*78
$GLGSV,2,2,06,78,26,302,17,88,27,304,15,3*76
$GLGSV,1,1,03,76,01,198,,79,01,344,,86,24,075,,0*4C
$GAGSV,2,1,07,02,41,216,34,05,18,149,29,09,29,095,30,11,14,072,25,2*76
$GAGSV,2,2,07,30,40,288,32,34,50,296,30,36,56,038,46,2*46
$GAGSV,2,1,07,02,41,216,29,05,18,149,38,09,29,095,33,18,44,306,41,7*72
$GAGSV,2,2,07,30,40,288,27,34,50,296,33,36,56,038,42,7*40
$GAGSV,1,1,04,04,11,044,,15,06,268,,25,09,176,,27,03,329,,0*7A
$GBGSV,3,1,10,03,44,206,38,04,35,132,29,07,69,219,39,10,67,256,28,1*73
$GBGSV,3,2,10,11,43,082,30,13,43,248,24,14,54,132,37,21,16,040,31,1*77
$GBGSV,3,3,10,28,41,306,35,34,24,097,38,1*7F
$GBGSV,3,1,09,01,43,152,33,03,44,206,38,04,35,132,28,07,69,219,43,3*7E
$GBGSV,3,2,09,08,52,253,26,10,67,256,29,11,43,082,29,13,43,248,31,3*76
$GBGSV,3,3,09,14,54,132,34,3*4E
$GNRMC,041950.00,A,3727.0700850,N,12639.2829759,E,0.016,,220622,,,F,V*15
$GNVTG,,T,,M,0.016,N,0.029,K,D*34
$GNGNS,041950.00,3727.0700850,N,12639.2829759,E,FFFF,28,0.61,31.406,17.838,,4095,V*25
$GNGGA,041950.00,3727.0700850,N,12639.2829759,E,5,12,0.61,31.406,M,17.838,M,,4095*78
$GNGSA,A,3,17,03,06,14,19,01,04,,,,,,1.39,0.61,1.25,1*00
$GNGSA,A,3,65,87,71,72,,,,,,,,,1.39,0.61,1.25,2*07
$GNGSA,A,3,30,09,05,02,34,36,,,,,,,1.39,0.61,1.25,3*06
$GNGSA,A,3,03,14,08,07,01,11,28,10,13,34,21,,1.39,0.61,1.25,4*0B
$GPGSV,3,1,10,01,12,067,22,03,38,048,44,04,21,099,32,06,49,286,26,1*65
$GPGSV,3,2,10,09,19,133,18,14,33,189,34,17,77,051,46,19,64,332,31,1*65
$GPGSV,3,3,10,28,,,42,50,47,179,42,1*56
$GPGSV,2,1,07,01,12,067,29,03,38,048,40,04,21,099,27,06,49,286,24,6*6C
$GPGSV,2,2,07,09,19,133,19,14,33,189,40,17,77,051,38,6*54
$GPGSV,2,1,06,02,10,268,,11,14,262,,12,08,324,,20,01,220,,0*61
$GPGSV,2,2,06,20,01,220,,40,06,259,,0*6C
$GLGSV,2,1,06,65,22,167,20,71,32,045,47,72,49,112,35,78,26,302,12,1*7C
$GLGSV,2,2,06,87,53,359,32,88,27,304,19,1*73
$GLGSV,2,1,06,65,22,167,30,71,32,045,33,72,49,112,23,77,25,239,13,3*7F
$GLGSV,2,2,06,78,26,302,17,88,27,304,15,3*76
$GLGSV,1,1,03,76,01,198,,79,01,344,,86,24,075,,0*4C
$GAGSV,2,1,07,02,41,216,35,05,18,149,29,09,29,095,30,11,14,072,25,2*77
$GAGSV,2,2,07,30,40,288,32,34,50,296,31,36,56,038,46,2*47
$GAGSV,2,1,07,02,41,216,29,05,18,149,38,09,29,095,34,18,44,306,41,7*75
$GAGSV,2,2,07,30,40,288,28,34,50,296,34,36,56,038,42,7*48
$GAGSV,1,1,04,04,11,044,,15,06,268,,25,09,176,,27,03,329,,0*7A
$GBGSV,3,1,10,03,44,206,38,04,35,132,30,07,69,219,38,10,67,256,27,1*75
$GBGSV,3,2,10,11,43,082,31,13,43,248,22,14,54,132,36,21,16,040,34,1*74
$GBGSV,3,3,10,28,41,306,35,34,24,097,37,1*70
$GBGSV,3,1,09,01,43,152,32,03,44,206,37,04,35,132,28,07,69,219,42,3*71
$GBGSV,3,2,09,08,52,253,26,10,67,256,29,11,43,082,30,13,43,248,30,3*7F
$GBGSV,3,3,09,14,54,132,34,3*4E
$GBGSV,1,1,04,02,27,236,,05,08,256,,23,15,228,,37,18,279,,0*73
$GNRMC,041951.00,A,3727.0700859,N,12639.2830135,E,0.009,,220622,,,F,V*17
$GNVTG,,T,,M,0.009,N,0.016,K,D*36
$GNGNS,041951.00,3727.0700859,N,12639.2830135,E,FFFF,28,0.61,31.527,17.838,,4095,V*2B
$GNGGA,041951.00,3727.0700859,N,12639.2830135,E,5,12,0.61,31.527,M,17.838,M,,4095*76
$GNGSA,A,3,17,03,06,14,19,01,04,,,,,,1.39,0.61,1.25,1*00
$GNGSA,A,3,65,87,71,72,,,,,,,,,1.39,0.61,1.25,2*07
$GNGSA,A,3,30,09,05,02,34,36,,,,,,,1.39,0.61,1.25,3*06
$GNGSA,A,3,03,14,08,07,01,11,28,10,13,34,21,,1.39,0.61,1.25,4*0B
$GPGSV,3,1,10,01,12,067,22,03,38,048,43,04,21,099,33,06,49,286,25,1*60
$GPGSV,3,2,10,09,19,133,20,14,33,189,30,17,77,055,46,19,64,332,32,1*6D
$GPGSV,3,3,10,28,,,42,50,47,179,42,1*56
$GPGSV,2,1,07,01,12,067,28,03,38,048,36,04,21,099,27,06,49,286,25,6*6D
$GPGSV,2,2,07,09,19,133,17,14,33,189,37,17,77,055,36,6*50
$GPGSV,2,1,06,02,10,268,,11,14,262,,12,08,324,,20,01,220,,0*61
$GPGSV,2,2,06,20,01,220,,40,06,259,,0*6C
$GLGSV,2,1,06,65,22,167,18,71,32,045,47,72,49,112,31,78,26,302,12,1*73
$GLGSV,2,2,06,87,53,359,27,88,27,304,22,1*7F
$GLGSV,2,1,06,65,22,167,29,71,32,045,34,72,49,112,22,77,25,239,13,3*71
$GLGSV,2,2,06,78,26,302,15,88,27,304,13,3*72
$GLGSV,1,1,03,76,01,198,,79,01,344,,86,24,075,,0*4C
$GAGSV,2,1,07,02,41,216,34,05,18,149,32,09,29,095,31,11,14,072,25,2*7D
$GAGSV,2,2,07,30,40,288,31,34,50,296,33,36,56,038,45,2*45
$GAGSV,2,1,07,02,41,216,29,05,18,149,37,09,29,095,34,18,44,306,40,7*7B
$GAGSV,2,2,07,30,40,288,28,34,50,296,35,36,56,038,41,7*4A
$GAGSV,1,1,04,04,11,044,,15,06,268,,25,09,176,,27,03,329,,0*7A
$GBGSV,3,1,10,03,44,206,38,04,35,132,31,07,69,219,38,10,67,256,27,1*74
$GBGSV,3,2,10,11,43,082,31,13,43,248,21,14,54,132,36,21,16,040,34,1*77
$GBGSV,3,3,10,28,41,306,35,34,24,097,37,1*70
$GBGSV,3,1,09,01,43,152,31,03,44,206,34,04,35,132,27,07,69,219,40,3*7C
$GBGSV,3,2,09,08,52,253,24,10,67,256,29,11,43,082,28,13,43,248,29,3*7C
$GNRMC,041952.00,A,3727.0701019,N,12639.2830226,E,0.037,,220622,,,F,V*15
$GNVTG,,T,,M,0.037,N,0.068,K,D*32
$GNGNS,041952.00,3727.0701019,N,12639.2830226,E,FFFF,28,0.61,31.647,17.838,,4095,V*21
$GNGGA,041952.00,3727.0701019,N,12639.2830226,E,5,12,0.61,31.647,M,17.838,M,,4095*7C
$GNGSA,A,3,17,03,06,14,19,01,04,,,,,,1.39,0.61,1.25,1*00
$GNGSA,A,3,65,87,71,72,,,,,,,,,1.39,0.61,1.25,2*07
$GNGSA,A,3,30,09,05,02,34,36,,,,,,,1.39,0.61,1.25,3*06
$GNGSA,A,3,03,14,08,07,01,11,28,10,13,34,21,,1.39,0.61,1.25,4*0B
$GPGSV,3,1,09,01,12,067,21,03,38,048,45,04,21,099,33,09,19,133,19,1*65
$GPGSV,3,2,09,14,33,189,31,17,77,055,46,19,64,332,31,28,,,42,1*59
$GPGSV,3,3,09,50,47,179,41,1*51
$GPGSV,2,1,07,01,12,067,28,03,38,048,38,04,21,099,27,06,49,286,25,6*63
$GPGSV,2,2,07,09,19,133,16,14,33,189,39,17,77,055,37,6*5E
$GPGSV,2,1,06,02,10,268,,11,14,262,,12,08,324,,20,01,220,,0*61
$GPGSV,2,2,06,20,01,220,,40,06,259,,0*6C
$GLGSV,2,1,06,65,22,167,18,71,32,045,48,72,49,112,33,78,26,302,09,1*74
$GLGSV,2,2,06,87,53,359,29,88,27,304,22,1*71
$GLGSV,2,1,06,65,22,167,29,71,32,045,34,72,49,112,23,77,25,239,13,3*70
$GLGSV,2,2,06,78,26,302,16,88,27,304,12,3*70
$GLGSV,1,1,03,76,01,198,,79,01,344,,86,24,075,,0*4C
$GAGSV,2,1,07,02,41,216,33,05,18,149,25,09,29,095,30,11,14,072,25,2*7D
$GAGSV,2,2,07,30,40,288,31,34,50,296,30,36,56,038,46,2*45
$GAGSV,2,1,07,02,41,216,29,05,18,149,39,09,29,095,34,18,44,306,40,7*75
$GAGSV,2,2,07,30,40,288,28,34,50,296,34,36,56,038,41,7*4B
$GAGSV,1,1,04,04,11,044,,15,06,268,,25,09,176,,27,03,329,,0*7A
$GBGSV,3,1,10,03,44,206,37,04,35,132,31,07,69,219,38,10,67,256,27,1*7B
$GNRMC,041953.00,A,3727.0701401,N,12639.2829862,E,0.032,,220622,,,F,V*1E
$GNVTG,,T,,M,0.032,N,0.060,K,D*3F
$GNGNS,041953.00,3727.0701401,N,12639.2829862,E,FFFF,28,0.63,31.749,17.838,,4095,V*22
$GNGGA,041953.00,3727.0701401,N,12639.2829862,E,5,12,0.63,31.749,M,17.838,M,,4095*7F
$GNGSA,A,3,17,03,14,19,01,04,,,,,,,1.40,0.63,1.25,1*0A
$GNGSA,A,3,65,87,71,72,,,,,,,,,1.40,0.63,1.25,2*0B
$GNGSA,A,3,30,09,05,02,34,36,,,,,,,1.40,0.63,1.25,3*0A
$GNGSA,A,3,03,14,08,07,04,01,11,28,10,13,34,21,1.40,0.63,1.25,4*03
$GPGSV,3,1,10,01,12,067,21,03,38,048,44,04,21,099,32,06,49,286,26,1*66
$GPGSV,3,2,10,09,19,133,20,14,33,189,30,17,77,055,46,19,65,333,31,1*6E
$GPGSV,3,3,10,28,,,42,50,47,179,41,1*55
$GPGSV,2,1,07,01,12,067,29,03,38,048,39,04,21,099,27,06,49,286,24,6*62
$GPGSV,2,2,07,09,19,133,14,14,33,189,41,17,77,055,37,6*53
$GPGSV,2,1,06,02,10,268,,11,14,262,,12,08,324,,20,01,220,,0*61
$GPGSV,2,2,06,20,01,220,,40,06,259,,0*6C
$GLGSV,2,1,06,65,22,167,20,71,32,045,45,72,49,112,33,78,26,302,12,1*78
$GLGSV,2,2,06,87,53,359,29,88,27,304,22,1*71
$GLGSV,2,1,06,65,22,167,30,71,32,045,30,72,49,112,23,77,25,239,13,3*7C
$GLGSV,2,2,06,78,26,302,17,88,27,304,15,3*76
$GLGSV,1,1,03,76,01,198,,79,01,344,,86,24,075,,0*4C
$GAGSV,2,1,07,02,41,216,34,05,18,149,27,09,29,095,30,11,14,072,22,2*7F
$GAGSV,2,2,07,30,40,288,32,34,50,296,32,36,56,038,45,2*47
$GAGSV,2,1,07,02,41,216,28,05,18,149,39,09,29,095,34,18,44,306,40,7*74
$GAGSV,2,2,07,30,40,288,29,34,50,296,33,36,56,038,41,7*4D
$GAGSV,1,1,04,04,11,044,,15,06,268,,25,09,176,,27,03,329,,0*7A
$GBGSV,3,1,10,03,44,206,38,04,35,132,30,07,69,219,39,10,67,256,27,1*74
$GBGSV,3,2,10,11,43,082,31,13,43,248,18,14,54,132,36,21,16,040,29,1*71
$GBGSV,3,3,10,28,41,306,36,34,24,097,37,1*73
$GBGSV,3,1,09,01,43,152,31,03,44,206,37,04,35,132,28,07,69,219,42,3*72
$GBGSV,3,2,09,08,52,253,25,10,67,256,30,11,43,082,28,13,43,248,30,3*7D
$GBGSV,3,3,09,14,54,132,33,3*49
$GBGSV,1,1,04,02,27,236,,05,08,256,,23,15,228,,37,18,279,,0*73
$GNRMC,041954.00,A,3727.0701692,N,12639.2829907,E,0.019,,220622,,,F,V*1A
$GNVTG,,T,,M,0.019,N,0.036,K,D*35
$GNGNS,041954.00,3727.0701692,N,12639.2829907,E,FFFF,28,0.67,31.859,17.838,,4095,V*25
$GPGSV,3,1,09,01,12,067,24,03,38,048,44,04,21,099,32,09,19,133,19,1*60
$GPGSV,3,2,09,14,33,189,33,17,77,055,46,19,65,333,31,28,,,42,1*5B
$GPGSV,3,3,09,50,47,179,41,1*51
$GPGSV,2,1,07,01,12,067,29,03,38,048,40,04,21,099,27,06,49,286,22,6*6A
$GPGSV,2,2,07,09,19,133,14,14,33,189,41,17,77,055,38,6*5C
$GPGSV,2,1,06,02,10,268,,11,14,262,,12,08,324,,20,02,220,,0*62
$GPGSV,2,2,06,20,02,220,,40,06,259,,0*6F
$GLGSV,2,1,06,65,22,167,21,71,32,045,48,72,49,112,33,78,26,302,14,1*72
$GLGSV,2,2,06,87,53,359,29,88,27,304,23,1*70
$GLGSV,2,1,06,65,22,167,30,71,32,045,36,72,49,112,23,77,25,239,08,3*70
$GLGSV,2,2,06,78,26,302,17,88,27,304,18,3*7B
$GLGSV,1,1,03,76,01,198,,79,01,344,,86,24,075,,0*4C
$GAGSV,2,1,07,02,41,216,34,05,18,149,29,09,29,095,25,11,14,072,21,2*76
$GAGSV,2,2,07,30,40,288,32,34,50,296,32,36,56,038,47,2*45
$GAGSV,2,1,08,02,41,216,28,05,18,149,39,09,29,095,34,11,14,072,26,7*77
$GAGSV,2,2,08,18,44,306,41,30,40,288,29,34,50,296,34,36,56,038,42,7*7F
$GAGSV,1,1,04,04,11,044,,15,06,268,,25,08,176,,27,03,329,,0*7B
$GBGSV,3,1,10,03,44,206,39,04,35,132,30,07,69,219,39,10,67,256,27,1*75
$GBGSV,3,2,10,11,43,082,30,13,43,248,18,14,54,132,36,21,16,040,37,1*7F
$GBGSV,3,3,10,28,41,306,37,34,24,097,36,1*73
$GBGSV,3,1,09,01,43,152,32,03,44,206,39,04,35,132,29,07,69,219,44,3*78
$GBGSV,3,2,09,08,52,253,25,10,67,256,31,11,43,082,26,13,43,248,30,3*72
$GNRMC,041955.00,A,3727.0701899,N,12639.2830202,E,0.031,,220622,,,F,V*12
$GNVTG,,T,,M,0.031,N,0.058,K,D*37
$GNGNS,041955.00,3727.0701899,N,12639.2830202,E,FFFF,28,0.63,31.962,17.838,,4095,V*2A
$GNGGA,041955.00,3727.0701899,N,12639.2830202,E,5,12,0.63,31.962,M,17.838,M,,4095*77
$GNGSA,A,3,17,03,14,19,01,04,,,,,,,1.40,0.63,1.25,1*0A
$GNGSA,A,3,65,87,71,72,,,,,,,,,1.40,0.63,1.25,2*0B
$GNGSA,A,3,30,09,11,05,02,34,36,,,,,,1.40,0.63,1.25,3*0A
$GNGSA,A,3,03,14,07,04,01,11,28,10,13,34,21,,1.40,0.63,1.25,4*0B
$GPGSV,3,1,10,01,12,067,24,03,38,048,45,04,21,099,32,06,49,286,26,1*62
$GPGSV,3,2,10,09,19,133,18,14,33,189,29,17,77,055,46,19,65,333,32,1*6E
$GPGSV,3,3,10,28,,,42,50,47,179,41,1*55
$GPGSV,2,1,07,01,12,067,29,03,38,048,40,04,21,099,27,06,49,286,22,6*6A
$GPGSV,2,2,07,09,19,133,17,14,33,189,41,17,77,055,37,6*50
$GPGSV,2,1,06,02,10,268,,11,14,262,,12,08,324,,20,02,220,,0*62
$GPGSV,2,2,06,20,02,220,,40,06,259,,0*6F
$GLGSV,2,1,06,65,22,167,20,71,32,045,48,72,49,112,35,78,26,302,14,1*75
$GLGSV,2,2,06,87,53,359,29,88,27,304,23,1*70
$GLGSV,2,1,06,65,22,167,30,71,32,045,34,72,49,112,25,77,25,239,11,3*7C
$GLGSV,2,2,06,78,26,302,18,88,27,304,17,3*7B
$GLGSV,1,1,03,76,01,198,,79,01,344,,86,24,075,,0*4C
$GAGSV,2,1,07,02,41,216,34,05,18,149,28,09,29,095,31,11,14,072,20,2*73
$GAGSV,2,2,07,30,40,288,32,34,50,296,31,36,56,038,47,2*46
$GAGSV,2,1,08,02,41,216,29,05,18,149,39,09,29,095,34,11,14,072,27,7*77
$GAGSV,2,2,08,18,44,306,41,30,40,288,30,34,50,296,34,36,56,038,41,7*74
$GAGSV,1,1,04,04,11,044,,15,06,268,,25,08,176,,27,03,329,,0*7B
$GBGSV,3,1,10,03,44,206,38,04,35,132,29,07,69,219,38,10,67,256,28,1*72
$GBGSV,3,2,10,11,43,082,31,13,43,248,17,14,54,132,36,21,16,040,36,1*70
$GBGSV,3,3,10,28,41,306,35,34,24,097,38,1*7F
$GBGSV,3,1,09,01,43,152,32,03,44,206,38,04,35,132,28,07,69,219,43,3*7F
$GBGSV,3,2,09,08,52,253,26,10,67,256,32,11,43,082,27,13,43,248,31,3*72
$GBGSV,3,3,09,14,54,132,34,3*4E
$GBGSV,1,1,04,02,27,236,,05,08,256,,23,15,228,,37,18,279,,0*73
$GNRMC,041956.00,A,3727.0701920,N,12639.2830683,E,0.009,,220622,,,F,V*14
$GNVTG,,T,,M,0.009,N,0.017,K,D*37
$GNGNS,041956.00,3727.0701920,N,12639.2830683,E,FFFF,28,0.63,32.065,17.838,,4095,V*2A
$GNGGA,041956.00,3727.0701920,N,12639.2830683,E,5,12,0.63,32.065,M,17.838,M,,4095*77
$GNGSA,A,3,17,03,14,19,01,04,,,,,,,1.40,0.63,1.25,1*0A
$GNGSA,A,3,65,87,71,72,,,,,,,,,1.40,0.63,1.25,2*0B
$GNGSA,A,3,30,09,11,05,02,34,36,,,,,,1.40,0.63,1.25,3*0A
$GNGSA,A,3,03,14,07,04,01,11,28,10,13,34,21,,1.40,0.63,1.25,4*0B
$GPGSV,3,1,10,01,12,067,23,03,38,048,45,04,21,099,32,06,49,286,27,1*64
$GPGSV,3,2,10,09,19,133,17,14,33,189,31,17,77,055,46,19,65,333,32,1*68
$GPGSV,3,3,10,28,,,42,50,47,179,41,1*55
$GPGSV,2,1,07,01,12,067,30,03,38,048,42,04,21,099,27,06,49,286,23,6*61
$GPGSV,2,2,07,09,19,133,19,14,33,189,42,17,77,055,38,6*52
$GPGSV,2,1,06,02,10,268,,11,14,262,,12,08,324,,20,02,220,,0*62
$GPGSV,2,2,06,20,02,220,,40,06,259,,0*6F
$GLGSV,2,1,06,65,22,167,20,71,32,045,47,72,49,112,35,78,26,302,11,1*7F
$GLGSV,2,2,06,87,53,359,28,88,27,304,23,1*71
$GLGSV,2,1,06,65,22,167,29,71,32,045,35,72,49,112,25,77,25,239,10,3*74
$GLGSV,2,2,06,78,26,302,19,88,27,304,18,3*75
$GLGSV,1,1,03,76,01,198,,79,01,344,,86,24,075,,0*4C
$GAGSV,2,1,07,02,41,216,34,05,18,149,27,09,29,095,30,11,14,072,21,2*7C
$GAGSV,2,2,07,30,40,288,32,34,50,296,31,36,56,038,47,2*46
$GAGSV,2,1,08,02,41,216,29,05,18,149,39,09,29,095,35,11,14,072,27,7*76
$GAGSV,2,2,08,18,44,306,41,30,40,288,30,34,50,296,34,36,56,038,41,7*74
$GAGSV,1,1,04,04,11,044,,15,06,268,,25,08,176,,27,03,329,,0*7B
$GBGSV,3,1,10,03,44,206,38,04,35,132,28,07,69,219,38,10,67,256,28,1*73
$GBGSV,3,2,10,11,43,082,31,13,43,248,18,14,54,132,35,21,16,040,36,1*7C
$GBGSV,3,3,10,28,41,306,35,34,24,097,37,1*70
$GBGSV,3,1,09,01,43,152,32,03,44,206,38,04,35,132,28,07,69,219,43,3*7F
$GBGSV,3,2,09,08,52,253,25,10,67,256,32,11,43,082,26,13,43,248,31,3*70
$GBGSV,3,3,09,14,54,132,35,3*4F
$GBGSV,1,1,04,02,27,236,,05,08,256,,23,15,228,,37,18,279,,0*73
$GNRMC,041957.00,A,3727.0701942,N,12639.2831022,E,0.020,,220622,,,F,V*16
$GNVTG,,T,,M,0.020,N,0.037,K,D*3E
$GNGNS,041957.00,3727.0701942,N,12639.2831022,E,FFFF,28,0.63,32.135,17.838,,4095,V*27
$GNGGA,041957.00,3727.0701942,N,12639.2831022,E,5,12,0.63,32.135,M,17.838,M,,4095*7A
$GNGSA,A,3,17,03,14,19,01,04,,,,,,,1.40,0.63,1.25,1*0A
$GNGSA,A,3,65,87,71,72,,,,,,,,,1.40,0.63,1.25,2*0B
$GNGSA,A,3,30,09,11,05,02,34,36,,,,,,1.40,0.63,1.25,3*0A
$GNGSA,A,3,03,14,07,04,01,11,28,10,13,34,21,,1.40,0.63,1.25,4*0B
$GPGSV,3,1,10,01,12,067,23,03,38,048,44,04,21,099,31,06,49,286,27,1*66
$GPGSV,3,2,10,09,19,133,17,14,33,189,33,17,77,055,46,19,65,333,32,1*6A
$GPGSV,3,3,10,28,,,41,50,47,179,41,1*56
$GPGSV,2,1,07,01,12,067,30,03,38,048,41,04,21,099,27,06,49,286,23,6*62
$GPGSV,2,2,07,09,19,133,20,14,33,189,42,17,77,055,38,6*58
$GPGSV,2,1,06,02,10,268,,11,14,262,,12,08,324,,20,02,220,,0*62
$GPGSV,2,2,06,20,02,220,,40,06,259,,0*6F
$GLGSV,2,1,06,65,22,167,20,71,32,045,48,72,49,112,34,78,26,302,12,1*72
$GLGSV,2,2,06,87,53,359,28,88,27,304,23,1*71
$GLGSV,2,1,06,65,22,167,30,71,32,045,36,72,49,112,28,77,25,239,14,3*76
$GLGSV,2,2,06,78,26,302,19,88,27,304,18,3*75
$GLGSV,1,1,03,76,01,198,,79,01,344,,86,24,075,,0*4C
$GAGSV,2,1,07,02,41,216,34,05,18,149,28,09,29,095,29,11,14,072,21,2*7B
$GAGSV,2,2,07,30,40,288,32,34,50,296,31,36,56,038,47,2*46
$GAGSV,2,1,08,02,41,216,29,05,18,149,39,09,29,095,35,11,14,072,27,7*76
$GAGSV,2,2,08,18,44,306,41,30,40,288,31,34,50,296,34,36,56,038,41,7*75
$GAGSV,1,1,04,04,11,044,,15,06,268,,25,08,176,,27,03,329,,0*7B
$GBGSV,3,1,10,03,44,206,38,04,35,132,28,07,69,219,38,10,67,256,28,1*73
$GBGSV,3,2,10,11,43,082,31,13,43,248,19,14,54,132,34,21,16,040,37,1*7D
$GBGSV,3,3,10,28,41,306,34,34,24,097,37,1*71
$GBGSV,3,1,10,01,43,152,32,03,44,206,39,04,35,132,28,07,69,219,43,3*76
$GBGSV,3,2,10,08,52,253,26,10,67,256,32,11,43,082,26,13,43,248,31,3*7B
$GBGSV,3,3,10,14,54,132,36,21,16,040,18,3*7D
$GBGSV,1,1,04,02,27,236,,05,08,256,,23,15,228,,37,18,279,,0*73
$GNRMC,041958.00,A,3727.0702090,N,12639.2831308,E,0.021,,220622,,,F,V*16
$GNVTG,,T,,M,0.021,N,0.039,K,D*31
$GNGNS,041958.00,3727.0702090,N,12639.2831308,E,FFFF,28,0.61,32.201,17.838,,4095,V*20
$GNGGA,041958.00,3727.0702090,N,12639.2831308,E,5,12,0.61,32.201,M,17.838,M,,4095*7D
$GNGSA,A,3,17,03,06,14,19,01,04,,,,,,1.39,0.61,1.25,1*00
$GNGSA,A,3,65,87,71,72,,,,,,,,,1.39,0.61,1.25,2*07
$GNGSA,A,3,30,09,11,05,02,34,36,,,,,,1.39,0.61,1.25,3*06
$GNGSA,A,3,03,14,07,01,11,28,10,13,34,21,,,1.39,0.61,1.25,4*03
$GPGSV,3,1,10,01,12,067,23,03,38,048,45,04,21,099,30,06,49,286,28,1*69
$GPGSV,3,2,10,09,19,133,18,14,33,189,32,17,77,055,46,19,65,333,33,1*65
$GPGSV,3,3,10,28,,,42,50,47,179,41,1*55
$GPGSV,2,1,07,01,12,067,30,03,38,048,41,04,21,099,27,06,49,286,23,6*62
$GPGSV,2,2,07,09,19,133,20,14,33,189,41,17,77,055,38,6*5B
$GPGSV,2,1,06,02,10,268,,11,14,262,,12,08,324,,20,02,220,,0*62
$GPGSV,2,2,06,20,02,220,,40,06,259,,0*6F
$GLGSV,2,1,06,65,22,167,20,71,32,045,48,72,49,112,34,78,26,302,13,1*73
$GLGSV,2,2,06,87,53,359,27,88,27,304,23,1*7E
$GLGSV,2,1,06,65,22,167,30,71,32,045,35,72,49,112,27,77,25,239,08,3*77
$GLGSV,2,2,06,78,26,302,20,88,27,304,18,3*7F
$GLGSV,1,1,03,76,01,198,,79,01,344,,86,24,075,,0*4C
$GAGSV,2,1,07,02,41,216,34,05,18,149,28,09,29,095,29,11,14,072,21,2*7B
$GAGSV,2,2,07,30,40,288,32,34,50,296,31,36,56,038,47,2*46
$GAGSV,2,1,08,02,41,216,29,05,18,149,39,09,29,095,35,11,14,072,27,7*76
$GAGSV,2,2,08,18,44,306,41,30,40,288,30,34,50,296,34,36,56,038,41,7*74
$GAGSV,1,1,04,04,11,044,,15,06,268,,25,08,176,,27,03,329,,0*7B
$GBGSV,3,1,10,03,44,206,38,04,35,132,27,07,69,219,37,10,67,256,28,1*73
$GBGSV,3,2,10,11,43,082,31,13,43,248,19,14,54,132,34,21,16,040,37,1*7D
$GBGSV,3,3,10,28,41,306,34,34,24,097,37,1*71
$GNRMC,041959.00,A,3727.0702084,N,12639.2831959,E,0.018,,220622,,,F,V*16
$GNVTG,,T,,M,0.018,N,0.034,K,D*36
$GNGNS,041959.00,3727.0702084,N,12639.2831959,E,FFFF,28,0.61,32.300,17.838,,4095,V*2A
$GNGGA,041959.00,3727.0702084,N,12639.2831959,E,5,12,0.61,32.300,M,17.838,M,,4095*77
$GNGSA,A,3,17,03,06,14,19,01,04,,,,,,1.39,0.61,1.25,1*00
$GNGSA,A,3,65,87,71,72,,,,,,,,,1.39,0.61,1.25,2*07
$GNGSA,A,3,30,09,11,05,02,34,36,,,,,,1.39,0.61,1.25,3*06
$GNGSA,A,3,03,14,07,01,11,28,10,13,34,21,,,1.39,0.61,1.25,4*03
$GPGSV,3,1,10,01,12,067,23,03,38,048,45,04,21,099,30,06,49,286,28,1*69
$GPGSV,3,2,10,09,19,133,20,14,33,189,33,17,77,055,46,19,65,333,32,1*6E
$GPGSV,3,3,10,28,,,42,50,47,179,41,1*55
$GPGSV,2,1,07,01,12,067,30,03,38,048,41,04,21,099,28,06,49,286,22,6*6C
$GPGSV,2,2,07,09,19,133,21,14,33,189,41,17,77,055,38,6*5A
$GPGSV,2,1,06,02,10,268,,11,14,262,,12,08,324,,20,02,220,,0*62
$GPGSV,2,2,06,20,02,220,,40,06,259,,0*6F
$GLGSV,2,1,06,65,22,167,22,71,32,045,48,72,49,112,33,78,26,302,14,1*71
$GLGSV,2,2,06,87,53,359,27,88,27,304,23,1*7E
$GLGSV,2,1,06,65,22,167,30,71,32,045,35,72,49,112,27,77,25,239,07,3*78
$GLGSV,2,2,06,78,26,302,20,88,27,304,18,3*7F
$GLGSV,1,1,03,76,01,198,,79,01,344,,86,24,075,,0*4C
$GAGSV,2,1,07,02,41,216,34,05,18,149,28,09,29,095,29,11,14,072,20,2*7A
$GAGSV,2,2,07,30,40,288,32,34,50,296,31,36,56,038,47,2*46
$GAGSV,2,1,08,02,41,216,30,05,18,149,39,09,29,095,35,11,14,072,27,7*7E
$GAGSV,2,2,08,18,44,306,41,30,40,288,30,34,50,296,34,36,56,038,41,7*74
$GAGSV,1,1,04,04,11,044,,15,06,268,,25,08,176,,27,03,329,,0*7B
$GBGSV,3,1,10,03,44,206,38,04,35,132,28,07,69,219,38,10,67,256,28,1*73
$GBGSV,3,2,10,11,43,082,31,13,43,248,19,14,54,132,34,21,16,040,38,1*72
$GBGSV,3,3,10,28,41,306,34,34,24,097,37,1*71
$GBGSV,3,1,10,01,43,152,31,03,44,206,38,04,35,132,27,07,69,219,43,3*7B
$GBGSV,3,2,10,08,52,253,26,10,67,256,32,11,43,082,25,13,43,248,31,3*78
$GBGSV,3,3,10,14,54,132,35,21,16,040,11,3*77
$GBGSV,1,1,04,02,27,236,,05,08,256,,23,15,228,,37,18,279,,0*73
$GNRMC,042000.00,A,3727.0702055,N,12639.2832634,E,0.011,,220622,,,F,V*12
$GNVTG,,T,,M,0.011,N,0.020,K,D*3A
$GNGNS,042000.00,3727.0702055,N,12639.2832634,E,FFFF,28,0.61,32.434,17.838,,4095,V*27
$GNGGA,042000.00,3727.0702055,N,12639.2832634,E,5,12,0.61,32.434,M,17.838,M,,4095*7A
$GNGSA,A,3,17,03,06,14,19,01,04,,,,,,1.39,0.61,1.25,1*00
$GNRMC,042001.00,A,3727.0702032,N,12639.2833285,E,0.013,,220622,,,F,V*1F
$GNVTG,,T,,M,0.013,N,0.024,K,D*3C
$GNGNS,042001.00,3727.0702032,N,12639.2833285,E,FFFF,28,0.64,32.572,17.838,,4095,V*2E
$GNGGA,042001.00,3727.0702032,N,12639.2833285,E,5,12,0.64,32.572,M,17.838,M,,4095*73
$GNGSA,A,3,17,03,06,14,19,01,04,,,,,,1.42,0.64,1.27,1*0B
$GNGSA,A,3,65,87,71,72,,,,,,,,,1.42,0.64,1.27,2*0C
$GNGSA,A,3,30,09,11,05,02,34,36,,,,,,1.42,0.64,1.27,3*0D
$GNGSA,A,3,03,14,07,01,11,28,10,13,34,21,,,1.42,0.64,1.27,4*08
$GPGSV,3,1,10,01,12,067,22,03,38,048,45,04,21,099,29,06,49,286,29,1*61
$GPGSV,3,2,10,09,19,133,23,14,33,189,32,17,77,055,46,19,65,333,32,1*6C
$GPGSV,3,3,10,28,,,41,50,47,179,41,1*56
$GPGSV,2,1,07,01,12,067,30,03,38,048,41,04,21,099,28,06,49,286,20,6*6E
$GPGSV,2,2,07,09,19,133,20,14,33,189,41,17,77,055,38,6*5B
$GPGSV,2,1,06,02,10,268,,11,14,262,,12,08,324,,20,02,220,,0*62
$GPGSV,2,2,06,20,02,220,,40,06,259,,0*6F
$GLGSV,2,1,06,65,22,167,25,71,32,045,47,72,49,112,31,78,26,302,15,1*7A
$GLGSV,2,2,06,87,53,359,27,88,27,304,24,1*79
$GLGSV,2,1,06,65,22,167,30,71,32,045,35,72,49,112,27,77,25,239,09,3*76
$GLGSV,2,2,06,78,26,302,19,88,27,304,16,3*7B
$GLGSV,1,1,03,76,01,198,,79,01,344,,86,24,075,,0*4C
$GAGSV,2,1,07,02,41,216,34,05,18,149,29,09,29,095,30,11,14,072,21,2*72
$GAGSV,2,2,07,30,40,288,32,34,50,296,32,36,56,038,47,2*45
$GAGSV,2,1,08,02,41,216,30,05,18,149,39,09,29,095,35,11,14,072,26,7*7F
$GAGSV,2,2,08,18,44,306,41,30,40,288,29,34,50,296,34,36,56,038,42,7*7F
$GAGSV,1,1,04,04,11,044,,15,06,268,,25,08,176,,27,03,329,,0*7B
$GBGSV,3,1,10,03,44,206,38,04,35,132,28,07,69,219,38,10,67,256,27,1*7C
$GBGSV,3,2,10,11,43,082,31,13,43,248,19,14,54,132,33,21,16,040,38,1*75
$GBGSV,3,3,10,28,41,306,34,34,24,097,37,1*71
$GBGSV,3,1,10,01,43,152,30,03,44,206,38,04,35,132,27,07,69,219,43,3*7A
$GBGSV,3,2,10,08,52,253,26,10,67,256,32,11,43,082,24,13,43,248,31,3*79
$GBGSV,3,3,10,14,54,132,36,21,16,040,08,3*7C
$GBGSV,1,1,04,02,27,236,,05,08,256,,23,15,228,,37,18,279,,0*73
$GNRMC,042002.00,A,3727.0702003,N,12639.2833971,E,0.045,,220622,,,F,V*1D
$GNVTG,,T,,M,0.045,N,0.084,K,D*35
$GNGNS,042002.00,3727.0702003,N,12639.2833971,E,FFFF,28,0.61,32.679,17.838,,4095,V*22
$GNGGA,042002.00,3727.0702003,N,12639.2833971,E,5,12,0.61,32.679,M,17.838,M,,4095*7F
$GNGSA,A,3,17,03,06,14,19,01,04,,,,,,1.39,0.61,1.25,1*00
$GNGSA,A,3,65,87,71,72,,,,,,,,,1.39,0.61,1.25,2*07
$GNGSA,A,3,30,09,11,05,02,34,36,,,,,,1.39,0.61,1.25,3*06
$GNGSA,A,3,03,14,07,01,11,28,10,13,34,21,,,1.39,0.61,1.25,4*03
$GPGSV,3,1,10,01,12,067,22,03,38,048,45,04,21,099,30,06,49,286,28,1*68
$GPGSV,3,2,10,09,19,133,22,14,33,189,31,17,77,055,46,19,65,333,32,1*6E
$GPGSV,3,3,10,28,,,41,50,47,179,41,1*56
$GPGSV,2,1,07,01,12,067,30,03,38,048,41,04,21,099,28,06,49,286,20,6*6E
$GPGSV,2,2,07,09,19,133,19,14,33,189,41,17,77,055,38,6*51
$GPGSV,2,1,06,02,10,268,,11,14,262,,12,08,324,,20,02,220,,0*62
$GPGSV,2,2,06,20,02,220,,40,06,259,,0*6F
$GLGSV,2,1,06,65,22,167,25,71,32,045,47,72,49,112,30,78,26,302,14,1*7A
$GLGSV,2,2,06,87,53,359,26,88,27,304,23,1*7F
$GLGSV,2,1,06,65,22,167,29,71,32,045,35,72,49,112,27,77,25,239,10,3*76
$GLGSV,2,2,06,78,26,302,20,88,27,304,14,3*73
$GLGSV,1,1,03,76,01,198,,79,01,344,,86,24,075,,0*4C
$GAGSV,2,1,07,02,41,216,34,05,18,149,29,09,29,095,30,11,14,072,21,2*72
$GAGSV,2,2,07,30,40,288,31,34,50,296,31,36,56,038,47,2*45
$GAGSV,2,1,08,02,41,216,30,05,18,149,39,09,29,095,34,11,14,072,26,7*7E
$GAGSV,2,2,08,18,44,306,41,30,40,288,29,34,50,296,34,36,56,038,42,7*7F
$GAGSV,1,1,04,04,11,044,,15,06,268,,25,08,176,,27,03,329,,0*7B
$GBGSV,3,1,10,03,44,206,38,04,35,132,28,07,69,219,37,10,67,256,28,1*7C
$GBGSV,3,2,10,11,43,082,31,13,43,248,19,14,54,132,33,21,16,040,38,1*75
$GNRMC,042003.00,A,3727.0701955,N,12639.2834575,E,0.036,,220622,,,F,V*1E
$GNVTG,,T,,M,0.036,N,0.068,K,D*33
$GNGNS,042003.00,3727.0701955,N,12639.2834575,E,FFFF,28,0.61,32.773,17.838,,4095,V*2E
$GNGGA,042003.00,3727.0701955,N,12639.2834575,E,5,12,0.61,32.773,M,17.838,M,,4095*73
$GNGSA,A,3,17,03,06,14,19,01,04,,,,,,1.39,0.61,1.25,1*00
$GNGSA,A,3,65,87,71,72,,,,,,,,,1.39,0.61,1.25,2*07
$GNGSA,A,3,30,09,11,05,02,34,36,,,,,,1.39,0.61,1.25,3*06
$GNGSA,A,3,03,14,07,01,11,28,10,13,34,21,,,1.39,0.61,1.25,4*03
$GPGSV,3,1,10,01,12,067,21,03,38,048,45,04,21,099,30,06,49,286,28,1*6B
$GPGSV,3,2,10,09,19,133,21,14,33,189,32,17,77,055,46,19,65,333,33,1*6F
$GPGSV,3,3,10,28,,,41,50,47,179,41,1*56
$GPGSV,2,1,07,01,12,067,30,03,38,048,40,04,21,099,28,06,49,286,19,6*65
$GPGSV,2,2,07,09,19,133,17,14,33,189,41,17,77,055,38,6*5F
$GPGSV,2,1,06,02,10,268,,11,14,262,,12,08,324,,20,02,220,,0*62
$GPGSV,2,2,06,20,02,220,,40,06,259,,0*6F
$GLGSV,2,1,06,65,22,167,26,71,32,045,47,72,49,112,29,78,26,302,15,1*70
$GLGSV,2,2,06,87,53,359,24,88,27,304,22,1*7C
$GLGSV,2,1,06,65,22,167,29,71,32,045,34,72,49,112,26,77,25,239,07,3*70
$GLGSV,2,2,06,78,26,302,20,88,27,304,11,3*76
$GLGSV,1,1,03,76,01,198,,79,01,344,,86,24,075,,0*4C
$GAGSV,2,1,07,02,41,216,34,05,18,149,27,09,29,095,31,11,14,072,21,2*7D
$GAGSV,2,2,07,30,40,288,31,34,50,296,31,36,56,038,47,2*45
$GAGSV,2,1,08,02,41,216,30,05,18,149,39,09,29,095,35,11,14,072,26,7*7F
$GAGSV,2,2,08,18,44,306,40,30,40,288,29,34,50,296,34,36,56,038,42,7*7E
$GAGSV,1,1,04,04,11,044,,15,06,268,,25,08,176,,27,03,329,,0*7B
$GBGSV,3,1,10,03,44,206,38,04,35,132,28,07,69,219,38,10,67,256,28,1*73
$GBGSV,3,2,10,11,43,082,31,13,43,248,19,14,54,132,33,21,16,040,38,1*75
$GBGSV,3,3,10,28,41,306,34,34,24,097,36,1*70
$GBGSV,3,1,09,01,43,152,32,03,44,206,38,07,69,219,43,08,52,253,26,3*78
$GBGSV,3,2,09,10,67,256,32,11,43,082,24,13,43,248,30,14,54,132,36,3*7E
$GBGSV,3,3,09,21,16,040,07,3*4A
$GBGSV,1,1,04,02,27,236,,05,08,256,,23,15,228,,37,18,279,,0*73
$GNRMC,042004.00,A,3727.0701997,N,12639.2835118,E,0.017,,220622,,,F,V*1A
$GNVTG,,T,,M,0.017,N,0.031,K,D*3C
$GNGNS,042004.00,3727.0701997,N,12639.2835118,E,FFFF,28,0.61,32.849,17.838,,4095,V*2F
$GNGGA,042004.00,3727.0701997,N,12639.2835118,E,5,12,0.61,32.849,M,17.838,M,,4095*72
$GNGSA,A,3,17,03,06,14,19,01,04,,,,,,1.39,0.61,1.25,1*00
$GNGSA,A,3,65,87,71,72,,,,,,,,,1.39,0.61,1.25,2*07
$GNGSA,A,3,30,09,11,05,02,34,36,,,,,,1.39,0.61,1.25,3*06
$GNGSA,A,3,03,14,07,01,11,28,10,13,34,21,,,1.39,0.61,1.25,4*03
$GPGSV,3,1,10,01,12,067,22,03,38,048,44,04,21,099,30,06,49,286,28,1*69
$GPGSV,3,2,10,09,19,133,22,14,33,189,31,17,77,055,47,19,65,333,28,1*64
$GPGSV,3,3,10,28,,,42,50,47,179,40,1*54
$GPGSV,2,1,07,01,12,067,30,03,38,048,39,04,21,099,28,06,49,286,19,6*6B
$GPGSV,2,2,07,09,19,133,15,14,33,189,40,17,77,055,38,6*5C
$GPGSV,2,1,06,02,10,268,,11,14,262,,12,08,324,,20,02,220,,0*62
$GPGSV,2,2,06,20,02,220,,40,06,259,,0*6F
$GLGSV,2,1,06,65,22,167,26,71,32,045,47,72,49,112,29,78,26,302,15,1*70
$GLGSV,2,2,06,87,53,359,26,88,27,304,21,1*7D
$GLGSV,2,1,06,65,22,167,28,71,32,045,33,72,49,112,25,77,25,239,10,3*73
$GLGSV,2,2,06,78,26,302,18,88,27,304,08,3*75
$GLGSV,1,1,03,76,01,198,,79,01,344,,86,24,075,,0*4C
$GAGSV,2,1,07,02,41,216,35,05,18,149,27,09,29,095,24,11,14,072,21,2*78
$GAGSV,2,2,07,30,40,288,31,34,50,296,30,36,56,038,46,2*45
$GAGSV,2,1,08,02,41,216,30,05,18,149,39,09,29,095,34,11,14,072,26,7*7E
$GAGSV,2,2,08,18,44,306,40,30,40,288,29,34,50,296,34,36,56,038,41,7*7D
$GAGSV,1,1,04,04,11,044,,15,06,268,,25,08,176,,27,03,329,,0*7B
$GBGSV,3,1,10,03,44,206,38,04,35,132,29,07,69,219,38,10,67,256,28,1*72
$GBGSV,3,2,10,11,43,082,30,13,43,248,19,14,54,132,34,21,16,040,41,1*7D
$GBGSV,3,3,10,28,41,306,34,34,24,097,35,1*73
$GBGSV,3,1,10,01,43,152,32,03,44,206,38,04,35,132,29,07,69,219,43,3*76
$GBGSV,3,2,10,08,52,253,26,10,67,256,32,11,43,082,23,13,43,248,31,3*7E
$GBGSV,3,3,10,14,54,132,36,21,16,040,08,3*7C
$GBGSV,1,1,04,02,27,236,,05,08,256,,23,15,228,,37,18,279,,0*73
$GNRMC,042005.00,A,3727.0701904,N,12639.2835667,E,0.048,,220622,,,F,V*14
$GNVTG,,T,,M,0.048,N,0.089,K,D*35
$GNGNS,042005.00,3727.0701904,N,12639.2835667,E,FFFF,28,0.61,32.947,17.838,,4095,V*24
$GNGGA,042005.00,3727.0701904,N,12639.2835667,E,5,12,0.61,32.947,M,17.838,M,,4095*79
$GNGSA,A,3,17,03,06,14,19,01,04,,,,,,1.43,0.61,1.29,1*01
$GNGSA,A,3,65,71,72,,,,,,,,,,1.43,0.61,1.29,2*09
$GNGSA,A,3,30,09,11,05,02,34,36,,,,,,1.43,0.61,1.29,3*07
$GNGSA,A,3,03,14,07,04,01,11,28,10,13,34,21,,1.43,0.61,1.29,4*06
$GPGSV,3,1,10,01,12,067,23,03,38,048,44,04,21,099,30,06,49,286,28,1*68
$GPGSV,3,2,10,09,19,133,25,14,33,189,23,17,77,055,47,19,65,333,32,1*6B
$GPGSV,3,3,10,28,,,42,50,47,179,42,1*56
$GPGSV,2,1,07,01,12,067,23,03,38,048,40,04,21,099,28,06,49,286,17,6*69
$GPGSV,2,2,07,09,19,133,14,14,33,189,39,17,77,055,38,6*53
$GPGSV,2,1,06,02,10,268,,11,14,262,,12,08,324,,20,02,220,,0*62
$GPGSV,2,2,06,20,02,220,,40,06,259,,0*6F
$GLGSV,2,1,06,65,22,167,32,71,32,045,47,72,49,112,22,78,26,302,15,1*7E
$GLGSV,2,2,06,87,53,359,25,88,27,304,20,1*7F
$GLGSV,2,1,06,65,22,167,28,71,32,045,37,72,49,112,24,77,25,239,08,3*7F
$GLGSV,2,2,06,78,26,302,16,88,27,304,08,3*7B
$GLGSV,1,1,03,76,01,198,,79,01,344,,86,24,075,,0*4C
$GAGSV,2,1,07,02,41,216,34,05,18,149,28,09,29,095,31,11,14,072,20,2*73
$GAGSV,2,2,07,30,40,288,32,34,50,296,31,36,56,038,46,2*47
$GAGSV,2,1,07,02,41,216,29,05,18,149,39,09,29,095,34,11,14,072,25,7*7A
$GAGSV,2,2,07,18,44,306,37,34,50,296,35,36,56,038,42,7*4E
$GAGSV,1,1,04,04,11,044,,15,06,268,,25,08,176,,27,03,329,,0*7B
$GBGSV,3,1,10,03,44,206,38,04,35,132,30,07,69,219,38,10,67,256,28,1*7A
$GBGSV,3,2,10,11,43,082,29,13,43,248,19,14,54,132,33,21,16,040,40,1*73
$GBGSV,3,3,10,28,41,306,33,34,24,097,36,1*77
$GBGSV,3,1,10,01,43,152,31,03,44,206,38,04,35,132,29,07,69,219,43,3*75
$GBGSV,3,2,10,08,52,253,25,10,67,256,31,11,43,082,24,13,43,248,31,3*79
$GBGSV,3,3,10,14,54,132,37,21,16,040,08,3*7D
$GBGSV,1,1,04,02,27,236,,05,08,256,,23,15,228,,37,18,279,,0*73
$GNGNS,042006.00,3727.0701868,N,12639.2835977,E,FFFF,28,0.62,33.111,17.838,,4095,V*2B
$GNGGA,042006.00,3727.0701868,N,12639.2835977,E,5,12,0.62,33.111,M,17.838,M,,4095*76
$GNGSA,A,3,17,09,03,06,14,19,01,04,,,,,1.43,0.62,1.28,1*0A
$GNGSA,A,3,65,71,72,,,,,,,,,,1.43,0.62,1.28,2*0B
$GNGSA,A,3,30,09,05,02,34,36,,,,,,,1.43,0.62,1.28,3*05
$GNGSA,A,3,03,14,07,04,08,11,28,10,13,34,21,,1.43,0.62,1.28,4*0D
$GPGSV,3,1,10,01,12,067,22,03,38,048,45,04,21,099,31,06,49,286,28,1*69
$GPGSV,3,2,10,09,19,133,26,14,33,189,39,17,77,055,46,19,65,333,33,1*63
$GPGSV,3,3,10,28,,,43,50,47,179,42,1*57
$GPGSV,2,1,07,01,12,067,30,03,38,048,40,04,21,099,28,06,49,286,17,6*6B
$GPGSV,2,2,07,09,19,133,16,14,33,189,41,17,77,055,38,6*5E
$GPGSV,2,1,06,02,10,268,,11,14,262,,12,08,324,,20,02,220,,0*62
$GPGSV,2,2,06,20,02,220,,40,06,259,,0*6F
$GLGSV,2,1,06,65,22,167,32,71,32,045,47,72,49,112,22,78,26,302,14,1*7F
$GLGSV,2,2,06,87,53,359,26,88,27,304,20,1*7C
$GLGSV,2,1,06,65,22,167,34,71,32,045,34,72,49,112,23,77,25,239,07,3*79
$GLGSV,2,2,06,78,26,302,16,88,27,304,10,3*72
$GLGSV,1,1,03,76,01,198,,79,01,344,,86,24,075,,0*4C
$GAGSV,2,1,07,02,41,216,35,05,18,149,32,09,29,095,31,11,14,072,20,2*79
$GAGSV,2,2,07,30,40,288,32,34,50,296,29,36,56,038,46,2*4E
$GAGSV,2,1,07,02,41,216,30,05,18,149,31,09,29,095,34,11,14,072,25,7*7A
$GAGSV,2,2,07,18,44,306,40,34,50,296,36,36,56,038,43,7*4C
$GAGSV,1,1,04,04,11,044,,15,06,268,,25,08,176,,27,03,329,,0*7B
$GBGSV,3,1,09,03,44,206,41,04,35,132,31,07,69,219,41,10,67,256,28,1*73
$GBGSV,3,2,09,11,43,082,30,14,54,132,32,21,16,040,34,28,41,306,36,1*7D
$GBGSV,3,3,09,34,24,097,34,1*47
$GBGSV,3,1,10,01,43,152,31,03,44,206,40,04,35,132,30,07,69,219,44,3*75
$GBGSV,3,2,10,08,52,253,27,10,67,256,32,11,43,082,23,13,43,248,31,3*7F
$GBGSV,3,3,10,14,54,132,36,21,16,040,08,3*7C
$GBGSV,1,1,04,02,27,236,,05,08,256,,23,15,228,,37,18,279,,0*73
$GNRMC,042007.00,A,3727.0701898,N,12639.2836168,E,0.007,,220622,,,F,V*12
$GNVTG,,T,,M,0.007,N,0.014,K,D*3A
$GNGNS,042007.00,3727.0701898,N,12639.2836168,E,FFFF,27,0.65,33.269,17.838,,4095,V*24
$GNGGA,042007.00,3727.0701898,N,12639.2836168,E,5,12,0.65,33.269,M,17.838,M,,4095*76
$GNGSA,A,3,17,09,03,06,14,19,01,04,,,,,1.46,0.65,1.31,1*00
$GNGSA,A,3,65,71,,,,,,,,,,,1.46,0.65,1.31,2*04
$GNGSA,A,3,30,09,05,02,34,36,,,,,,,1.46,0.65,1.31,3*0F
$GNGSA,A,3,03,14,07,04,08,11,28,01,10,13,34,21,1.46,0.65,1.31,4*06
$GPGSV,3,1,10,01,12,067,22,03,38,048,44,04,21,099,30,06,49,286,28,1*69
$GPGSV,3,2,10,09,19,133,27,14,33,189,39,17,77,055,46,19,65,333,33,1*62
$GPGSV,3,3,10,28,,,44,50,47,179,43,1*51
$GPGSV,2,1,07,01,12,067,30,03,38,048,40,04,21,099,28,06,49,286,19,6*65
$GPGSV,2,2,07,09,19,133,17,14,33,189,40,17,77,055,38,6*5E
$GPGSV,2,1,06,02,10,268,,11,14,262,,12,08,324,,20,02,220,,0*62
$GPGSV,2,2,06,20,02,220,,40,06,259,,0*6F
$GLGSV,2,1,06,65,22,167,31,71,32,045,46,72,49,112,25,78,26,302,13,1*7D
$GLGSV,2,2,06,87,53,359,25,88,27,304,17,1*7B
$GLGSV,2,1,06,65,22,167,33,71,32,045,33,72,49,112,23,77,25,239,09,3*77
$GLGSV,2,2,06,78,26,302,15,88,27,304,08,3*78
$GLGSV,1,1,03,76,01,198,,79,01,344,,86,24,075,,0*4C
$GAGSV,2,1,07,02,41,216,36,05,18,149,33,09,29,095,31,11,14,072,21,2*7A
$GAGSV,2,2,07,30,40,288,30,34,50,296,30,36,56,038,46,2*44
$GAGSV,2,1,08,02,41,216,31,05,18,149,27,09,29,095,35,11,14,072,24,7*73
$GAGSV,2,2,08,18,44,306,39,30,40,288,30,34,50,296,36,36,56,038,42,7*7A
$GAGSV,1,1,04,04,11,044,,15,06,268,,25,08,176,,27,03,329,,0*7B
$GBGSV,3,1,10,03,44,206,41,04,35,132,31,07,69,219,41,10,67,256,28,1*7B
$GBGSV,3,2,10,11,43,082,30,13,43,248,23,14,54,132,31,21,16,040,34,1*73
$GBGSV,3,3,10,28,41,306,35,34,24,097,35,1*72
$GBGSV,3,1,10,01,43,152,31,03,44,206,41,04,35,132,30,07,69,219,44,3*74
$GBGSV,3,2,10,08,52,253,27,10,67,256,32,11,43,082,19,13,43,248,31,3*76
$GBGSV,3,3,10,14,54,132,35,21,16,040,08,3*7F
