$GNRMC,040849.00,A,3727.0270333,N,12639.2504570,E,0.002,,220622,,,F,V*1F
$GNVTG,,T,,M,0.002,N,0.004,K,D*3E
$GNGNS,040849.00,3727.0270333,N,12639.2504570,E,FFFF,28,0.65,23.111,17.837,15.0,4095,V*3B
$GNGGA,040849.00,3727.0270333,N,12639.2504570,E,5,12,0.65,23.111,M,17.837,M,15.0,4095*66
$GNGSA,A,3,04,06,17,03,14,01,41,,,,,,1.26,0.65,1.08,1*08
$GNGSA,A,3,71,88,65,72,78,77,,,,,,,1.26,0.65,1.08,2*02
$GNGSA,A,3,04,09,11,02,36,05,,,,,,,1.26,0.65,1.08,3*03
$GNGSA,A,3,14,34,03,37,08,11,07,04,21,,,,1.26,0.65,1.08,4*06
$GPGSV,3,1,10,01,16,063,36,03,43,051,48,04,18,104,35,06,45,279,22,1*68
$GPGSV,3,2,10,09,15,137,32,14,38,191,41,17,76,030,45,28,,,44,1*50
$GPGSV,3,3,10,41,27,238,32,50,43,151,42,1*6C
$GPGSV,2,1,05,01,16,063,29,03,43,051,39,04,18,104,36,14,38,191,42,6*6B
$GPGSV,2,2,05,17,76,030,41,6*57
$GPGSV,2,1,05,02,07,264,,11,11,258,,12,04,326,,19,60,327,,0*61
$GPGSV,2,2,05,19,60,327,,0*58
$GLGSV,2,1,05,65,16,168,35,71,35,052,47,72,45,120,27,77,30,244,10,1*75
$GLGSV,2,2,05,78,25,308,21,1*4D
$GLGSV,2,1,06,65,16,168,31,71,35,052,36,72,45,120,31,77,30,244,10,3*71
$GLGSV,2,2,06,78,25,308,13,88,23,298,10,3*7E
$GLGSV,1,1,04,70,00,019,,76,07,200,,86,27,069,,87,52,348,,0*75
$GAGSV,2,1,05,02,45,218,44,05,15,151,26,09,27,099,34,11,16,069,32,2*7A
$GAGSV,2,2,05,36,58,033,44,2*4B
$GAGSV,2,1,07,02,45,218,41,04,12,047,29,05,15,151,35,09,27,099,25,7*7C
$GAGSV,2,2,07,11,16,069,38,30,39,293,10,36,58,033,44,7*4F
$GAGSV,2,1,05,15,04,265,,18,38,305,,25,12,176,,27,01,331,,0*76
$GAGSV,2,2,05,27,01,331,,0*44
$GBGSV,3,1,10,03,44,206,40,04,35,132,32,07,71,221,41,08,52,248,19,1*79
$GBGSV,3,2,10,10,68,261,21,11,45,077,42,14,50,137,44,21,19,042,38,1*7B
$GBGSV,3,3,10,34,27,093,37,37,20,284,18,1*7A
$GBGSV,2,1,07,03,44,206,41,04,35,132,33,07,71,221,36,10,68,261,19,3*77
$GBGSV,2,2,07,11,45,077,39,14,50,137,45,21,19,042,08,3*49
$GBGSV,2,1,05,05,08,255,,12,01,100,,13,42,245,,23,19,231,,0*73
$GBGSV,2,2,05,23,19,231,,0*4B
$GNRMC,040850.00,A,3727.0270100,N,12639.2504801,E,0.004,,220622,,,F,V*18
$GNVTG,,T,,M,0.004,N,0.007,K,D*3B
$GNGNS,040850.00,3727.0270100,N,12639.2504801,E,FFFF,28,0.72,23.089,17.837,16.0,4095,V*3F
$GNGGA,040850.00,3727.0270100,N,12639.2504801,E,5,12,0.72,23.089,M,17.837,M,16.0,4095*62
$GNGSA,A,3,04,06,17,03,14,01,41,,,,,,1.35,0.72,1.14,1*01
$GNGSA,A,3,71,88,65,72,78,77,,,,,,,1.35,0.72,1.14,2*0B
$GNGSA,A,3,04,09,11,02,36,05,,,,,,,1.35,0.72,1.14,3*0A
$GNGSA,A,3,14,34,03,37,08,11,07,04,21,,,,1.35,0.72,1.14,4*0F
$GPGSV,3,1,10,01,16,063,37,03,43,051,48,04,18,104,35,06,45,279,22,1*69
$GPGSV,3,2,10,09,15,137,32,14,38,191,41,17,76,030,45,28,,,44,1*50
$GPGSV,3,3,10,41,27,238,32,50,43,151,42,1*6C
$GPGSV,2,1,05,01,16,063,29,03,43,051,39,04,18,104,36,14,38,191,42,6*6B
$GPGSV,2,2,05,17,76,030,41,6*57
$GPGSV,2,1,05,02,07,264,,11,11,258,,12,04,326,,19,60,327,,0*61
$GPGSV,2,2,05,19,60,327,,0*58
$GLGSV,2,1,06,65,16,168,35,71,35,052,47,72,45,120,26,76,07,200,37,1*77
$GLGSV,2,2,06,77,30,244,09,78,25,308,21,1*76
$GLGSV,2,1,06,65,16,168,30,71,35,052,35,72,45,120,31,77,30,244,10,3*73
$GLGSV,2,2,06,78,25,308,15,88,23,298,07,3*7E
$GLGSV,1,1,03,70,00,019,,86,27,069,,87,52,348,,0*46
$GAGSV,2,1,05,02,45,218,44,05,15,151,27,09,27,099,35,11,16,069,32,2*7A
$GAGSV,2,2,05,36,58,033,45,2*4A
$GAGSV,2,1,07,02,45,218,41,04,12,047,28,05,15,151,35,09,27,099,25,7*7D
$GAGSV,2,2,07,11,16,069,38,30,39,293,07,36,58,033,44,7*49
$GAGSV,2,1,05,15,04,265,,18,38,305,,25,12,176,,27,01,331,,0*76
$GAGSV,2,2,05,27,01,331,,0*44
$GBGSV,3,1,10,03,44,206,40,04,35,132,33,07,71,221,41,08,52,248,20,1*72
$GBGSV,3,2,10,10,68,261,23,11,45,077,42,14,50,137,45,21,19,042,38,1*78
$GBGSV,3,3,10,34,27,093,38,37,20,284,19,1*74
$GBGSV,2,1,07,03,44,206,42,04,35,132,33,07,71,221,36,10,68,261,19,3*74
$GBGSV,2,2,07,11,45,077,38,14,50,137,45,21,19,042,07,3*47
$GBGSV,2,1,05,05,08,255,,12,01,100,,13,42,245,,23,19,231,,0*73
$GBGSV,2,2,05,23,19,231,,0*4B
$GNRMC,040851.00,A,3727.0269816,N,12639.2505113,E,0.029,,220622,,,F,V*1B
$GNVTG,,T,,M,0.029,N,0.054,K,D*32
$GNGNS,040851.00,3727.0269816,N,12639.2505113,E,FFFF,28,0.64,23.088,17.837,17.0,4095,V*34
$GNGGA,040851.00,3727.0269816,N,12639.2505113,E,5,12,0.64,23.088,M,17.837,M,17.0,4095*69
$GNGSA,A,3,04,06,17,03,14,01,41,,,,,,1.25,0.64,1.08,1*0A
$GNGSA,A,3,71,88,65,72,78,77,,,,,,,1.25,0.64,1.08,2*00
$GNGSA,A,3,04,09,11,02,36,05,,,,,,,1.25,0.64,1.08,3*01
$GNGSA,A,3,14,34,03,37,08,11,07,04,21,,,,1.25,0.64,1.08,4*04
$GPGSV,3,1,10,01,16,063,37,03,43,051,49,04,18,104,36,06,45,279,23,1*6A
$GPGSV,3,2,10,09,15,137,32,14,38,191,41,17,76,030,45,28,,,44,1*50
$GPGSV,3,3,10,41,27,238,32,50,43,151,42,1*6C
$GPGSV,2,1,05,01,16,063,29,03,43,051,38,04,18,104,36,14,38,191,42,6*6A
$GPGSV,2,2,05,17,76,030,41,6*57
$GPGSV,2,1,05,02,07,264,,11,11,258,,12,04,326,,19,60,327,,0*61
$GPGSV,2,2,05,19,60,327,,0*58
$GLGSV,2,1,06,65,16,168,36,71,35,052,47,72,45,120,30,76,07,200,38,1*7C
$GLGSV,2,2,06,77,30,244,13,78,25,308,22,1*7E
$GLGSV,2,1,06,65,16,168,30,71,35,052,35,72,45,120,31,77,30,244,11,3*72
$GLGSV,2,2,06,78,25,308,18,88,23,298,09,3*7D
$GLGSV,1,1,03,70,00,019,,86,27,069,,87,52,348,,0*46
$GAGSV,2,1,05,02,45,218,44,05,15,151,27,09,27,099,34,11,16,069,31,2*78
$GAGSV,2,2,05,36,58,033,45,2*4A
$GAGSV,2,1,07,02,45,218,41,04,12,047,28,05,15,151,35,09,27,099,25,7*7D
$GAGSV,2,2,07,11,16,069,38,30,39,293,09,36,58,033,44,7*47
$GAGSV,2,1,05,15,04,265,,18,38,305,,25,12,176,,27,01,331,,0*76
$GAGSV,2,2,05,27,01,331,,0*44
$GBGSV,3,1,10,03,44,206,41,04,35,132,34,07,71,221,41,08,52,248,20,1*74
$GBGSV,3,2,10,10,68,261,23,11,45,077,42,14,50,137,45,21,19,042,39,1*79
$GBGSV,3,3,10,34,27,093,38,37,20,284,20,1*7E
$GBGSV,2,1,07,03,44,206,42,04,35,132,33,07,71,221,36,10,68,261,20,3*7E
$GBGSV,2,2,07,11,45,077,37,14,50,137,45,21,19,042,08,3*47
$GBGSV,2,1,05,05,08,255,,12,01,100,,13,42,245,,23,19,231,,0*73
$GBGSV,2,2,05,23,19,231,,0*4B
$GNRMC,040852.00,A,3727.0269582,N,12639.2505387,E,0.016,,220622,,,F,V*1B
$GNVTG,,T,,M,0.016,N,0.030,K,D*3C
$GNGNS,040852.00,3727.0269582,N,12639.2505387,E,FFFF,28,0.64,23.086,17.837,18.0,4095,V*39
$GNGGA,040852.00,3727.0269582,N,12639.2505387,E,5,12,0.64,23.086,M,17.837,M,18.0,4095*64
$GNGSA,A,3,04,06,17,03,14,01,41,,,,,,1.25,0.64,1.08,1*0A
$GNGSA,A,3,71,88,65,72,78,77,,,,,,,1.25,0.64,1.08,2*00
$GNGSA,A,3,04,09,11,02,36,05,,,,,,,1.25,0.64,1.08,3*01
$GNGSA,A,3,14,34,03,37,08,11,07,04,21,,,,1.25,0.64,1.08,4*04
$GPGSV,3,1,10,01,16,063,37,03,43,051,48,04,18,104,36,06,45,279,23,1*6B
$GPGSV,3,2,10,09,15,137,33,14,38,191,41,17,76,030,45,28,,,44,1*51
$GPGSV,3,3,10,41,27,238,32,50,43,151,42,1*6C
$GPGSV,2,1,05,01,16,063,29,03,43,051,38,04,18,104,36,14,38,191,41,6*69
$GPGSV,2,2,05,17,76,030,41,6*57
$GPGSV,2,1,05,02,07,264,,11,11,258,,12,04,326,,19,60,327,,0*61
$GPGSV,2,2,05,19,60,327,,0*58
$GLGSV,2,1,06,65,16,168,36,71,35,052,47,72,45,120,31,76,07,200,39,1*7C
$GLGSV,2,2,06,77,30,244,13,78,25,308,21,1*7D
$GLGSV,2,1,06,65,16,168,30,71,35,052,35,72,45,120,29,77,30,244,14,3*7E
$GLGSV,2,2,06,78,25,308,16,88,23,298,08,3*72
$GLGSV,1,1,03,70,00,019,,86,27,069,,87,52,348,,0*46
$GAGSV,2,1,05,02,45,218,44,05,15,151,27,09,27,099,34,11,16,069,32,2*7B
$GAGSV,2,2,05,36,58,033,45,2*4A
$GAGSV,2,1,07,02,45,218,41,04,12,047,28,05,15,151,34,09,27,099,25,7*7C
$GAGSV,2,2,07,11,16,069,39,30,39,293,14,36,58,033,44,7*4A
$GAGSV,2,1,05,15,04,265,,18,38,305,,25,12,176,,27,01,331,,0*76
$GAGSV,2,2,05,27,01,331,,0*44
$GBGSV,3,1,10,03,44,206,40,04,35,132,33,07,71,221,41,08,52,248,20,1*72
$GBGSV,3,2,10,10,68,261,22,11,45,077,41,14,50,137,45,21,19,042,39,1*7B
$GBGSV,3,3,10,34,27,093,38,37,20,284,19,1*74
$GBGSV,2,1,07,03,44,206,41,04,35,132,33,07,71,221,36,10,68,261,20,3*7D
$GBGSV,2,2,07,11,45,077,38,14,50,137,45,21,19,042,08,3*48
$GBGSV,2,1,05,05,08,255,,12,01,100,,13,42,245,,23,19,231,,0*73
$GBGSV,2,2,05,23,19,231,,0*4B
$GNRMC,040853.00,A,3727.0269362,N,12639.2505654,E,0.037,,220622,,,F,V*1A
$GNVTG,,T,,M,0.037,N,0.068,K,D*32
$GNGNS,040853.00,3727.0269362,N,12639.2505654,E,FFFF,28,0.72,23.089,17.837,19.0,4095,V*32
$GNGGA,040853.00,3727.0269362,N,12639.2505654,E,5,12,0.72,23.089,M,17.837,M,19.0,4095*6F
$GNGSA,A,3,04,06,17,03,14,01,41,,,,,,1.35,0.72,1.14,1*01
$GNGSA,A,3,71,88,65,72,78,77,,,,,,,1.35,0.72,1.14,2*0B
$GNGSA,A,3,04,09,11,02,36,05,,,,,,,1.35,0.72,1.14,3*0A
$GNGSA,A,3,14,34,03,37,08,11,07,04,21,,,,1.35,0.72,1.14,4*0F
$GPGSV,3,1,10,01,16,063,37,03,43,051,49,04,18,104,36,06,45,279,23,1*6A
$GPGSV,3,2,10,09,15,137,34,14,38,191,41,17,76,030,45,28,,,44,1*56
$GPGSV,3,3,10,41,27,238,32,50,43,151,42,1*6C
$GPGSV,2,1,05,01,16,063,30,03,43,051,38,04,18,104,36,14,38,191,41,6*61
$GPGSV,2,2,05,17,76,030,41,6*57
$GPGSV,2,1,05,02,07,264,,11,11,258,,12,04,326,,19,60,327,,0*61
$GPGSV,2,2,05,19,60,327,,0*58
$GLGSV,2,1,06,65,16,168,36,71,35,052,47,72,45,120,29,76,07,200,40,1*7B
$GLGSV,2,2,06,77,30,244,13,78,25,308,21,1*7D
$GLGSV,2,1,06,65,16,168,29,71,35,052,35,72,45,120,29,77,30,244,09,3*7A
$GLGSV,2,2,06,78,25,308,14,88,23,298,09,3*71
$GLGSV,1,1,03,70,00,019,,86,27,069,,87,52,348,,0*46
$GAGSV,2,1,05,02,45,218,44,05,15,151,27,09,27,099,34,11,16,069,32,2*7B
$GAGSV,2,2,05,36,58,033,45,2*4A
$GAGSV,2,1,07,02,45,218,41,04,12,047,28,05,15,151,34,09,27,099,24,7*7D
$GAGSV,2,2,07,11,16,069,39,30,39,293,08,36,58,033,44,7*47
$GAGSV,2,1,05,15,04,265,,18,38,305,,25,12,176,,27,01,331,,0*76
$GAGSV,2,2,05,27,01,331,,0*44
$GBGSV,3,1,10,03,44,206,41,04,35,132,33,07,71,221,42,08,52,248,19,1*7A
$GBGSV,3,2,10,10,68,261,22,11,45,077,41,14,50,137,45,21,18,042,39,1*7A
$GBGSV,3,3,10,34,27,093,38,37,20,284,19,1*74
$GBGSV,2,1,07,03,44,206,41,04,35,132,34,07,71,221,36,10,68,261,19,3*70
$GBGSV,2,2,07,11,45,077,35,14,50,137,45,21,18,042,08,3*44
$GBGSV,2,1,05,05,08,255,,12,01,100,,13,42,245,,23,19,231,,0*73
$GBGSV,2,2,05,23,19,231,,0*4B
$GNRMC,040854.00,A,3727.0269131,N,12639.2505973,E,0.054,,220622,,,F,V*16
$GNVTG,,T,,M,0.054,N,0.101,K,D*39
$GPGSV,2,1,05,01,16,063,29,03,43,051,37,04,18,104,35,14,38,191,39,6*6A
$GPGSV,2,2,05,17,76,030,39,6*58
$GPGSV,2,1,05,02,07,264,,11,11,258,,12,04,326,,19,60,327,,0*61
$GPGSV,2,2,05,19,60,327,,0*58
$GLGSV,2,1,06,65,16,168,36,71,35,052,47,72,45,120,29,76,07,200,40,1*7B
$GLGSV,2,2,06,77,30,244,14,78,25,308,22,1*79
$GLGSV,2,1,06,65,16,168,29,71,35,052,35,72,45,120,29,77,30,244,07,3*74
$GLGSV,2,2,06,78,25,308,12,88,23,298,10,3*7F
$GLGSV,1,1,03,70,00,019,,86,27,069,,87,52,348,,0*46
$GAGSV,2,1,05,02,45,218,45,05,15,151,26,09,27,099,34,11,16,069,31,2*78
$GAGSV,2,2,05,36,58,033,45,2*4A
$GAGSV,2,1,07,02,45,218,41,04,12,047,27,05,15,151,35,09,27,099,25,7*72
$GAGSV,2,2,07,11,16,069,39,30,39,293,11,36,58,033,44,7*4F
$GAGSV,2,1,05,15,04,265,,18,38,305,,25,12,176,,27,01,331,,0*76
$GNRMC,040855.00,A,3727.0268863,N,12639.2506338,E,0.038,,220622,,,F,V*14
$GNVTG,,T,,M,0.038,N,0.070,K,D*34
$GNGNS,040855.00,3727.0268863,N,12639.2506338,E,FFFF,28,0.66,23.088,17.837,21.0,4095,V*3C
$GNGGA,040855.00,3727.0268863,N,12639.2506338,E,5,12,0.66,23.088,M,17.837,M,21.0,4095*61
$GNGSA,A,3,04,06,17,03,14,01,41,,,,,,1.26,0.66,1.08,1*0B
$GNGSA,A,3,71,88,65,72,78,77,,,,,,,1.26,0.66,1.08,2*01
$GNGSA,A,3,04,09,11,02,36,05,,,,,,,1.26,0.66,1.08,3*00
$GNGSA,A,3,14,34,03,37,08,11,07,04,21,,,,1.26,0.66,1.08,4*05
$GPGSV,3,1,10,01,16,063,38,03,43,051,49,04,18,104,37,06,45,279,22,1*65
$GPGSV,3,2,10,09,15,137,34,14,38,191,40,17,76,030,46,28,,,44,1*54
$GPGSV,3,3,10,41,27,238,32,50,43,151,42,1*6C
$GPGSV,2,1,05,01,16,063,30,03,43,051,38,04,18,104,35,14,38,191,40,6*63
$GPGSV,2,2,05,17,76,030,41,6*57
$GPGSV,2,1,05,02,07,264,,11,11,258,,12,04,326,,19,60,327,,0*61
$GPGSV,2,2,05,19,60,327,,0*58
$GLGSV,2,1,06,65,16,168,36,71,35,052,47,72,45,120,29,76,07,200,39,1*75
$GLGSV,2,2,06,77,30,244,13,78,25,308,22,1*7E
$GLGSV,2,1,06,65,16,168,28,71,35,052,34,72,45,120,29,77,30,244,10,3*72
$GLGSV,2,2,06,78,25,308,15,88,23,298,07,3*7E
$GLGSV,1,1,03,70,00,019,,86,27,069,,87,52,348,,0*46
$GAGSV,2,1,05,02,45,218,44,05,15,151,27,09,27,099,34,11,16,069,31,2*78
$GAGSV,2,2,05,36,58,033,45,2*4A
$GAGSV,2,1,07,02,45,218,41,04,12,047,27,05,15,151,35,09,27,099,24,7*73
$GAGSV,2,2,07,11,16,069,39,30,39,293,10,36,58,033,44,7*4E
$GAGSV,2,1,05,15,04,265,,18,38,305,,25,12,176,,27,01,331,,0*76
$GAGSV,2,2,05,27,01,331,,0*44
$GBGSV,3,1,10,03,44,206,41,04,35,132,33,07,71,221,42,08,52,248,19,1*7A
$GBGSV,3,2,10,10,68,261,21,11,45,077,42,14,50,137,46,21,18,042,40,1*77
$GBGSV,3,3,10,34,27,093,38,37,20,284,17,1*7A
$GBGSV,2,1,07,03,44,206,41,04,35,132,34,07,71,221,35,10,68,261,18,3*72
$GBGSV,2,2,07,11,45,077,36,14,50,137,45,21,18,042,08,3*47
$GBGSV,2,1,05,05,08,255,,12,01,100,,13,42,245,,23,18,231,,0*72
$GBGSV,2,2,05,23,18,231,,0*4A
$GNRMC,040856.00,A,3727.0268637,N,12639.2506671,E,0.010,,220622,,,F,V*1A
$GNVTG,,T,,M,0.010,N,0.019,K,D*31
$GNGNS,040856.00,3727.0268637,N,12639.2506671,E,FFFF,27,0.64,23.084,17.837,22.0,4095,V*3A
$GNGGA,040856.00,3727.0268637,N,12639.2506671,E,5,12,0.64,23.084,M,17.837,M,22.0,4095*68
$GNGSA,A,3,04,06,17,03,14,01,41,,,,,,1.25,0.64,1.08,1*0A
$GNGSA,A,3,71,88,65,72,78,77,,,,,,,1.25,0.64,1.08,2*00
$GNGSA,A,3,04,09,11,02,36,05,,,,,,,1.25,0.64,1.08,3*01
$GNGSA,A,3,14,34,03,37,08,11,07,04,21,,,,1.25,0.64,1.08,4*04
$GPGSV,3,1,10,01,16,063,38,03,43,051,49,04,18,104,37,06,45,279,22,1*65
$GPGSV,3,2,10,09,15,137,34,14,38,191,40,17,76,030,46,28,,,44,1*54
$GPGSV,3,3,10,41,27,238,32,50,43,151,42,1*6C
$GPGSV,2,1,05,01,16,063,30,03,43,051,38,04,18,104,35,14,38,191,40,6*63
$GPGSV,2,2,05,17,76,030,41,6*57
$GPGSV,2,1,05,02,07,264,,11,11,258,,12,04,326,,19,60,327,,0*61
$GPGSV,2,2,05,19,60,327,,0*58
$GLGSV,2,1,06,65,16,168,37,71,35,052,48,72,45,120,29,76,07,200,41,1*74
$GLGSV,2,2,06,77,30,244,15,78,25,308,21,1*7B
$GLGSV,2,1,06,65,16,168,28,71,35,052,34,72,45,120,30,77,30,244,06,3*7D
$GLGSV,2,2,06,78,25,308,10,88,23,298,11,3*7C
$GLGSV,1,1,03,70,00,019,,86,27,069,,87,52,348,,0*46
$GAGSV,2,1,05,02,45,218,44,05,15,151,27,09,27,099,34,11,16,069,32,2*7B
$GAGSV,2,2,05,36,58,033,45,2*4A
$GAGSV,2,1,07,02,45,218,42,04,12,047,26,05,15,151,35,09,27,099,24,7*71
$GAGSV,2,2,07,11,16,069,39,30,39,293,08,36,58,033,44,7*47
$GAGSV,2,1,05,15,04,265,,18,38,305,,25,12,176,,27,01,331,,0*76
$GAGSV,2,2,05,27,01,331,,0*44
$GBGSV,3,1,10,03,44,206,41,04,35,132,33,07,71,221,42,08,52,248,20,1*70
$GBGSV,3,2,10,10,68,261,20,11,45,077,41,14,50,137,47,21,18,042,39,1*7A
$GBGSV,3,3,10,34,27,093,38,37,20,284,18,1*75
$GBGSV,2,1,07,03,44,206,41,04,35,132,34,07,71,221,36,10,68,261,18,3*71
$GBGSV,2,2,07,11,45,077,36,14,50,137,46,21,18,042,08,3*44
$GBGSV,2,1,05,05,08,255,,12,01,100,,13,42,245,,23,18,231,,0*72
$GBGSV,2,2,05,23,18,231,,0*4A
$GNRMC,040857.00,A,3727.0268495,N,12639.2506877,E,0.018,,220622,,,F,V*11
$GNVTG,,T,,M,0.018,N,0.033,K,D*31
$GNGNS,040857.00,3727.0268495,N,12639.2506877,E,FFFF,28,0.72,23.070,17.837,23.0,4095,V*3B
$GNGGA,040857.00,3727.0268495,N,12639.2506877,E,5,12,0.72,23.070,M,17.837,M,23.0,4095*66
$GNGSA,A,3,04,06,17,03,14,01,41,,,,,,1.35,0.72,1.14,1*01
$GNGSA,A,3,71,65,72,78,77,,,,,,,,1.35,0.72,1.14,2*0B
$GNGSA,A,3,04,09,11,02,30,36,05,,,,,,1.35,0.72,1.14,3*09
$GNGSA,A,3,14,34,03,37,08,11,07,04,21,,,,1.35,0.72,1.14,4*0F
$GPGSV,3,1,10,01,16,063,38,03,43,051,49,04,18,104,34,06,45,279,22,1*66
$GPGSV,3,2,10,09,15,137,34,14,38,191,40,17,76,030,46,28,,,44,1*54
$GPGSV,3,3,10,41,27,238,31,50,43,151,42,1*6F
$GPGSV,2,1,05,01,16,063,31,03,43,051,37,04,18,104,36,14,38,191,40,6*6E
$GPGSV,2,2,05,17,76,030,41,6*57
$GPGSV,2,1,05,02,07,264,,11,11,258,,12,04,326,,19,60,327,,0*61
$GPGSV,2,2,05,19,60,327,,0*58
$GLGSV,2,1,06,65,16,168,37,71,35,052,48,72,45,120,28,76,07,200,40,1*74
$GLGSV,2,2,06,77,30,244,16,78,25,308,20,1*79
$GLGSV,2,1,06,65,16,168,28,71,35,052,34,72,45,120,30,77,30,244,15,3*7F
$GLGSV,2,2,06,78,25,308,11,88,23,298,06,3*7B
$GLGSV,1,1,03,70,00,019,,86,27,069,,87,52,348,,0*46
$GAGSV,2,1,05,02,45,218,44,05,15,151,27,09,27,099,34,11,16,069,31,2*78
$GAGSV,2,2,05,36,58,033,45,2*4A
$GAGSV,2,1,07,02,45,218,42,04,12,047,25,05,15,151,35,09,27,099,24,7*72
$GAGSV,2,2,07,11,16,069,39,30,39,293,11,36,58,033,44,7*4F
$GAGSV,2,1,05,15,04,265,,18,38,305,,25,12,176,,27,01,331,,0*76
$GAGSV,2,2,05,27,01,331,,0*44
$GBGSV,3,1,09,03,44,206,41,04,35,132,33,07,71,221,42,08,52,248,21,1*79
$GBGSV,3,2,09,11,45,077,40,14,50,137,46,21,18,042,39,34,27,093,39,1*78
$GBGSV,3,3,09,37,20,284,21,1*44
$GBGSV,2,1,07,03,44,206,42,04,35,132,33,07,71,221,36,10,68,261,18,3*75
$GBGSV,2,2,07,11,45,077,38,14,50,137,46,21,18,042,07,3*45
$GBGSV,2,1,05,05,08,255,,12,01,100,,13,42,245,,23,18,231,,0*72
$GBGSV,2,2,05,23,18,231,,0*4A
$GNRMC,040858.00,A,3727.0268356,N,12639.2507064,E,0.038,,220622,,,F,V*1F
$GNVTG,,T,,M,0.038,N,0.069,K,D*3C
$GNGNS,040858.00,3727.0268356,N,12639.2507064,E,FFFF,28,0.64,23.060,17.837,24.0,4095,V*36
$GNGGA,040858.00,3727.0268356,N,12639.2507064,E,5,12,0.64,23.060,M,17.837,M,24.0,4095*6B
$GNGSA,A,3,04,06,17,03,14,01,41,,,,,,1.25,0.64,1.08,1*0A
$GNGSA,A,3,71,88,65,72,78,77,,,,,,,1.25,0.64,1.08,2*00
$GNGSA,A,3,04,09,11,02,36,05,,,,,,,1.25,0.64,1.08,3*01
$GNGSA,A,3,14,34,03,37,08,11,07,04,21,,,,1.25,0.64,1.08,4*04
$GPGSV,3,1,10,01,16,063,40,03,43,051,50,04,18,104,34,06,45,279,21,1*62
$GPGSV,3,2,10,09,15,137,33,14,38,191,39,17,76,030,46,28,,,44,1*5D
$GPGSV,3,3,10,41,27,238,31,50,43,151,42,1*6F
$GPGSV,2,1,05,01,16,063,33,03,43,051,38,04,18,104,35,14,38,191,40,6*60
$GPGSV,2,2,05,17,76,030,41,6*57
$GPGSV,2,1,05,02,07,264,,11,11,258,,12,04,326,,19,60,327,,0*61
$GPGSV,2,2,05,19,60,327,,0*58
$GLGSV,2,1,07,65,16,168,37,71,35,052,49,72,45,120,32,76,07,200,40,1*7F
$GLGSV,2,2,07,77,30,244,16,78,25,308,18,87,52,348,19,1*4C
$GLGSV,2,1,06,65,16,168,27,71,35,052,34,72,45,120,30,77,30,244,12,3*77
$GLGSV,2,2,06,78,25,308,12,88,23,298,10,3*7F
$GLGSV,1,1,02,70,00,019,,86,27,069,,0*70
$GAGSV,2,1,05,02,45,218,44,05,15,151,26,09,27,099,33,11,16,069,28,2*76
$GAGSV,2,2,05,36,58,033,44,2*4B
$GAGSV,2,1,07,02,45,218,42,04,12,047,24,05,15,151,34,09,27,099,24,7*72
$GAGSV,2,2,07,11,16,069,42,30,39,293,09,36,58,033,44,7*4A
$GAGSV,2,1,05,15,04,265,,18,38,305,,25,12,176,,27,01,331,,0*76
$GAGSV,2,2,05,27,01,331,,0*44
$GBGSV,3,1,09,03,44,206,41,04,35,132,34,07,71,221,42,08,52,248,21,1*7E
$GBGSV,3,2,09,11,45,077,40,14,50,137,46,21,18,042,40,34,27,093,37,1*78
$GBGSV,3,3,09,37,20,284,22,1*47
$GBGSV,2,1,06,03,44,206,42,04,35,132,36,07,71,221,36,10,68,261,19,3*70
$GBGSV,2,2,06,11,45,077,36,14,50,137,46,3*71
$GBGSV,2,1,05,05,08,255,,12,01,100,,13,42,245,,23,18,231,,0*72
$GBGSV,2,2,05,23,18,231,,0*4A
$GNRMC,040859.00,A,3727.0268160,N,12639.2507419,E,0.002,,220622,,,F,V*1E
$GNVTG,,T,,M,0.002,N,0.004,K,D*3E
$GNGNS,040859.00,3727.0268160,N,12639.2507419,E,FFFF,28,0.61,23.074,17.837,25.0,4095,V*3F
$GNGGA,040859.00,3727.0268160,N,12639.2507419,E,5,12,0.61,23.074,M,17.837,M,25.0,4095*62
$GNGSA,A,3,04,06,17,03,14,01,41,,,,,,1.22,0.61,1.06,1*06
$GNGSA,A,3,71,88,65,72,78,77,,,,,,,1.22,0.61,1.06,2*0C
$GNGSA,A,3,04,09,11,02,36,05,,,,,,,1.22,0.61,1.06,3*0D
$GNGSA,A,3,14,34,03,37,08,11,07,04,21,,,,1.22,0.61,1.06,4*08
$GPGSV,3,1,10,01,16,063,41,03,43,051,50,04,18,104,36,06,45,279,23,1*63
$GPGSV,3,2,10,09,15,137,36,14,38,191,41,17,76,030,46,28,,,45,1*56
$GPGSV,3,3,10,41,27,238,32,50,43,151,42,1*6C
$GPGSV,2,1,05,01,16,063,29,03,43,051,38,04,18,104,37,14,38,191,42,6*6B
$GPGSV,2,2,05,17,76,030,42,6*54
$GPGSV,2,1,05,02,07,264,,11,11,258,,12,04,326,,19,60,327,,0*61
$GPGSV,2,2,05,19,60,327,,0*58
$GLGSV,2,1,07,65,16,168,39,71,35,052,48,72,45,120,31,76,07,200,42,1*71
$GLGSV,2,2,07,77,30,244,16,87,52,348,17,88,23,298,18,1*43
$GLGSV,2,1,06,65,16,168,27,71,35,052,33,72,45,120,28,77,30,244,08,3*72
$GLGSV,2,2,06,78,25,308,10,88,23,298,13,3*7E
$GLGSV,1,1,02,70,00,019,,86,27,069,,0*70
$GAGSV,2,1,05,02,45,218,44,05,15,151,26,09,27,099,33,11,16,069,29,2*77
$GAGSV,2,2,05,36,58,033,45,2*4A
$GAGSV,2,1,07,02,45,218,43,04,12,047,24,05,15,151,36,09,27,099,26,7*73
$GAGSV,2,2,07,11,16,069,40,30,39,293,09,36,58,033,45,7*49
$GAGSV,2,1,05,15,04,265,,18,38,305,,25,12,176,,27,01,331,,0*76
$GAGSV,2,2,05,27,01,331,,0*44
$GBGSV,3,1,09,03,44,206,41,04,35,132,30,07,71,221,42,08,52,248,21,1*7A
$GBGSV,3,2,09,11,45,077,40,14,50,137,46,21,18,042,40,34,27,093,38,1*77
$GBGSV,3,3,09,37,20,284,21,1*44
$GBGSV,2,1,06,03,44,206,42,04,35,132,35,07,71,221,37,10,68,261,18,3*73
$GBGSV,2,2,06,11,45,077,35,14,50,137,45,3*71
$GBGSV,2,1,05,05,08,255,,12,01,100,,13,42,245,,23,18,231,,0*72
$GBGSV,2,2,05,23,18,231,,0*4A
$GNRMC,040900.00,A,3727.0268004,N,12639.2507694,E,0.024,,220622,,,F,V*13
$GNVTG,,T,,M,0.024,N,0.044,K,D*3E
$GNGNS,040900.00,3727.0268004,N,12639.2507694,E,FFFF,28,0.73,23.080,17.837,26.0,4095,V*3D
$GNGGA,040900.00,3727.0268004,N,12639.2507694,E,5,12,0.73,23.080,M,17.837,M,26.0,4095*60
$GNGSA,A,3,04,06,17,03,14,01,41,,,,,,1.34,0.73,1.12,1*07
$GNGSA,A,3,71,88,65,72,78,77,,,,,,,1.34,0.73,1.12,2*0D
$GNGSA,A,3,04,09,11,02,36,05,,,,,,,1.34,0.73,1.12,3*0C
$GNGSA,A,3,14,34,03,37,08,11,07,04,21,,,,1.34,0.73,1.12,4*09
$GPGSV,3,1,10,01,16,063,41,03,43,051,50,04,18,104,36,06,45,279,22,1*62
$GPGSV,3,2,10,09,15,137,35,14,38,191,42,17,76,030,46,28,,,45,1*56
$GPGSV,3,3,10,41,27,238,31,50,43,151,43,1*6E
$GPGSV,2,1,05,01,16,063,31,03,43,051,38,04,18,104,36,14,38,191,42,6*63
$GPGSV,2,2,05,17,76,030,41,6*57
$GPGSV,2,1,05,02,07,264,,11,11,258,,12,04,326,,19,60,327,,0*61
$GPGSV,2,2,05,19,60,327,,0*58
$GLGSV,2,1,07,65,16,168,37,71,35,052,48,72,45,120,30,76,07,200,41,1*7D
$GLGSV,2,2,07,77,30,244,16,87,52,348,18,88,23,298,15,1*41
$GLGSV,2,1,06,65,16,168,26,71,35,052,33,72,45,120,30,77,30,244,15,3*76
$GLGSV,2,2,06,78,25,308,10,88,23,298,13,3*7E
$GLGSV,1,1,02,70,00,019,,86,27,069,,0*70
$GAGSV,2,1,06,02,45,218,44,05,15,151,27,09,27,099,34,11,16,069,30,2*7A
$GAGSV,2,2,06,34,48,291,18,36,58,033,45,2*71
$GAGSV,2,1,07,02,45,218,43,04,12,047,23,05,15,151,35,09,27,099,25,7*74
$GAGSV,2,2,07,11,16,069,40,30,39,293,13,36,58,033,45,7*42
$GAGSV,1,1,04,15,04,265,,18,38,305,,25,12,176,,27,01,331,,0*74
$GBGSV,3,1,09,03,44,206,40,04,35,132,33,07,71,221,42,08,52,248,20,1*79
$GBGSV,3,2,09,11,45,077,40,14,50,137,47,21,18,042,40,34,27,093,38,1*76
$GBGSV,3,3,09,37,20,284,19,1*4F
$GBGSV,2,1,06,03,44,206,42,04,35,132,33,07,71,221,36,10,68,261,18,3*74
$GBGSV,2,2,06,11,45,077,36,14,50,137,46,3*71
$GNRMC,040901.00,A,3727.0267842,N,12639.2507961,E,0.016,,220622,,,F,V*13
$GNVTG,,T,,M,0.016,N,0.029,K,D*34
$GNGNS,040901.00,3727.0267842,N,12639.2507961,E,FFFF,28,0.71,23.089,17.837,27.0,4095,V*36
$GNGGA,040901.00,3727.0267842,N,12639.2507961,E,5,12,0.71,23.089,M,17.837,M,27.0,4095*6B
$GNGSA,A,3,04,06,17,03,14,01,41,09,,,,,1.33,0.71,1.12,1*0B
$GNGSA,A,3,71,88,87,65,72,78,,,,,,,1.33,0.71,1.12,2*07
$GNGSA,A,3,04,09,11,02,36,05,,,,,,,1.33,0.71,1.12,3*09
$GNGSA,A,3,14,34,03,08,11,07,04,21,,,,,1.33,0.71,1.12,4*08
$GPGSV,3,1,10,01,16,063,40,03,43,051,50,04,18,104,35,06,45,279,22,1*60
$GPGSV,3,2,10,09,15,136,34,14,38,191,40,17,76,030,46,28,,,44,1*55
$GPGSV,3,3,10,41,27,238,31,50,43,151,43,1*6E
$GPGSV,2,1,05,01,16,063,32,03,43,051,38,04,18,104,36,14,38,191,41,6*63
$GPGSV,2,2,05,17,76,030,41,6*57
$GPGSV,2,1,05,02,07,264,,11,11,258,,12,04,326,,19,60,327,,0*61
$GPGSV,2,2,05,19,60,327,,0*58
$GLGSV,2,1,07,65,16,168,33,71,35,052,48,72,45,120,29,76,07,200,41,1*71
$GLGSV,2,2,07,77,30,244,17,87,52,348,18,88,23,298,15,1*40
$GLGSV,2,1,06,65,16,168,26,71,35,052,33,72,45,120,29,77,30,244,10,3*7B
$GLGSV,2,2,06,78,25,308,11,88,23,298,09,3*74
$GLGSV,1,1,02,70,00,019,,86,27,069,,0*70
$GAGSV,2,1,05,02,45,218,44,05,15,151,27,09,27,099,34,11,16,069,30,2*79
$GAGSV,2,2,05,36,58,033,45,2*4A
$GAGSV,2,1,07,02,45,218,43,04,12,047,25,05,15,151,35,09,27,099,26,7*71
$GAGSV,2,2,07,11,16,069,40,30,39,293,10,36,58,033,45,7*41
$GAGSV,2,1,05,15,04,265,,18,38,305,,25,12,176,,27,01,331,,0*76
$GAGSV,2,2,05,27,01,331,,0*44
$GBGSV,3,1,09,03,44,206,41,04,35,132,32,07,71,221,42,08,52,248,21,1*78
$GBGSV,3,2,09,11,45,077,40,14,50,137,46,21,18,042,39,34,27,093,38,1*79
$GBGSV,3,3,09,37,20,284,20,1*45
$GBGSV,2,1,07,03,44,206,42,04,35,132,34,07,71,221,36,10,68,261,19,3*73
$GBGSV,2,2,07,11,45,077,36,13,42,245,25,14,50,137,46,3*40
$GBGSV,1,1,04,05,08,255,,12,01,100,,23,18,231,,28,38,303,,0*76
$GNRMC,040902.00,A,3727.0267676,N,12639.2508171,E,0.019,,220622,,,F,V*10
$GNVTG,,T,,M,0.019,N,0.034,K,D*37
$GNGNS,040902.00,3727.0267676,N,12639.2508171,E,FFFF,28,0.74,23.100,17.837,28.0,4095,V*30
$GNGGA,040902.00,3727.0267676,N,12639.2508171,E,5,12,0.74,23.100,M,17.837,M,28.0,4095*6D
$GNGSA,A,3,04,06,17,03,14,01,41,09,,,,,1.38,0.74,1.16,1*01
$GNGSA,A,3,71,88,87,65,72,78,,,,,,,1.38,0.74,1.16,2*0D
$GNGSA,A,3,04,09,11,02,36,05,,,,,,,1.38,0.74,1.16,3*03
$GNGSA,A,3,14,34,03,08,11,07,04,21,,,,,1.38,0.74,1.16,4*02
$GPGSV,3,1,10,01,16,063,40,03,43,051,49,04,18,104,34,06,45,279,23,1*68
$GPGSV,3,2,10,09,15,136,34,14,38,191,42,17,76,030,46,28,,,44,1*57
$GPGSV,3,3,10,41,27,238,31,50,43,151,42,1*6F
$GPGSV,2,1,05,01,16,063,32,03,43,051,38,04,18,104,36,14,38,191,41,6*63
$GPGSV,2,2,05,17,76,030,42,6*54
$GPGSV,2,1,05,02,07,264,,11,11,258,,12,04,326,,19,60,327,,0*61
$GPGSV,2,2,05,19,60,327,,0*58
$GLGSV,2,1,07,65,16,168,33,71,35,052,48,72,45,120,30,76,07,200,40,1*78
$GLGSV,2,2,07,77,30,244,18,87,52,348,18,88,23,298,16,1*4C
$GLGSV,2,1,06,65,16,168,27,71,35,052,33,72,45,120,29,77,30,244,12,3*78
$GLGSV,2,2,06,78,25,308,13,88,23,298,11,3*7F
$GLGSV,1,1,02,70,00,019,,86,27,069,,0*70
$GAGSV,2,1,05,02,45,218,44,05,15,151,27,09,27,099,34,11,16,069,29,2*71
$GAGSV,2,2,05,36,58,033,44,2*4B
$GAGSV,2,1,07,02,45,218,43,04,12,047,25,05,15,151,35,09,27,099,26,7*71
$GAGSV,2,2,07,11,16,069,40,30,39,293,13,36,58,033,44,7*43
$GAGSV,2,1,05,15,04,265,,18,38,305,,25,12,176,,27,01,331,,0*76
$GAGSV,2,2,05,27,01,331,,0*44
$GBGSV,3,1,09,03,44,206,41,04,35,132,33,07,71,221,42,08,52,248,21,1*79
$GBGSV,3,2,09,11,45,077,40,14,50,137,46,21,18,042,38,34,27,093,38,1*78
$GBGSV,3,3,09,37,19,283,20,1*48
$GBGSV,2,1,06,03,44,206,42,04,35,132,34,07,71,221,36,10,68,261,20,3*78
$GBGSV,2,2,06,11,45,077,37,14,50,137,46,3*70
$GNRMC,040903.00,A,3727.0267487,N,12639.2508390,E,0.026,,220622,,,F,V*1C
$GNVTG,,T,,M,0.026,N,0.048,K,D*30
$GNGNS,040903.00,3727.0267487,N,12639.2508390,E,FFFF,28,0.71,23.102,17.837,29.0,4095,V*36
$GNGGA,040903.00,3727.0267487,N,12639.2508390,E,5,12,0.71,23.102,M,17.837,M,29.0,4095*6B
$GNGSA,A,3,04,06,17,03,14,01,41,09,,,,,1.33,0.71,1.12,1*0B
$GNGSA,A,3,71,88,87,65,72,78,,,,,,,1.33,0.71,1.12,2*07
$GNGSA,A,3,04,09,11,02,36,05,,,,,,,1.33,0.71,1.12,3*09
$GNGSA,A,3,14,34,03,08,11,07,04,21,,,,,1.33,0.71,1.12,4*08
$GPGSV,3,1,10,01,16,063,41,03,43,051,49,04,18,104,34,06,45,279,22,1*68
$GPGSV,3,2,10,09,15,136,34,14,38,191,43,17,76,030,46,28,,,44,1*56
$GPGSV,3,3,10,41,27,238,32,50,43,151,43,1*6D
$GPGSV,2,1,05,01,16,063,32,03,43,051,38,04,18,104,37,14,38,191,41,6*62
$GPGSV,2,2,05,17,76,030,41,6*57
$GPGSV,2,1,05,02,07,264,,11,11,258,,12,04,326,,19,60,327,,0*61
$GPGSV,2,2,05,19,60,327,,0*58
$GLGSV,2,1,07,65,16,168,33,71,35,052,48,72,45,120,31,76,07,200,40,1*79
$GLGSV,2,2,07,77,30,244,15,87,52,348,19,88,23,298,14,1*42
$GLGSV,2,1,06,65,16,168,26,71,35,052,34,72,45,120,30,77,30,244,11,3*75
$GLGSV,2,2,06,78,25,308,08,88,23,298,07,3*72
$GLGSV,1,1,02,70,00,019,,86,27,069,,0*70
$GAGSV,2,1,05,02,45,218,44,05,15,151,27,09,27,099,34,11,16,069,29,2*71
$GAGSV,2,2,05,36,58,033,44,2*4B
$GAGSV,2,1,07,02,45,218,43,04,12,047,25,05,15,151,36,09,27,099,26,7*72
$GAGSV,2,2,07,11,16,069,40,30,39,293,12,36,58,033,45,7*43
$GAGSV,2,1,05,15,04,265,,18,38,305,,25,12,176,,27,01,331,,0*76
$GAGSV,2,2,05,27,01,331,,0*44
$GBGSV,3,1,09,03,44,206,40,04,35,132,33,07,71,221,42,08,52,248,21,1*78
$GBGSV,3,2,09,11,45,077,40,14,50,137,46,21,18,042,38,34,27,093,38,1*78
$GBGSV,3,3,09,37,19,283,20,1*48
$GBGSV,2,1,06,03,44,206,42,04,35,132,34,07,71,221,36,10,68,261,20,3*78
$GBGSV,2,2,06,11,45,077,38,14,50,137,46,3*7F
$GBGSV,2,1,05,05,08,255,,12,01,100,,13,42,245,,23,18,231,,0*72
$GBGSV,2,2,05,23,18,231,,0*4A
$GNRMC,040904.00,A,3727.0267274,N,12639.2508666,E,0.028,,220622,,,F,V*13
$GNVTG,,T,,M,0.028,N,0.053,K,D*34
$GNGNS,040904.00,3727.0267274,N,12639.2508666,E,FFFF,28,0.71,23.091,17.837,30.0,4095,V*34
$GNGGA,040904.00,3727.0267274,N,12639.2508666,E,5,12,0.71,23.091,M,17.837,M,30.0,4095*69
$GNGSA,A,3,04,06,17,03,14,01,41,09,,,,,1.33,0.71,1.12,1*0B
$GNGSA,A,3,71,88,87,65,72,78,,,,,,,1.33,0.71,1.12,2*07
$GNGSA,A,3,04,09,11,02,36,05,,,,,,,1.33,0.71,1.12,3*09
$GNGSA,A,3,14,34,03,08,11,07,04,21,,,,,1.33,0.71,1.12,4*08
$GPGSV,3,1,10,01,16,063,40,03,43,051,49,04,18,104,34,06,45,279,22,1*69
$GPGSV,3,2,10,09,15,136,35,14,38,191,43,17,76,030,46,28,,,44,1*57
$GPGSV,3,3,10,41,27,238,32,50,43,151,43,1*6D
$GPGSV,2,1,05,01,16,063,31,03,43,051,37,04,18,104,36,14,38,191,40,6*6E
$GPGSV,2,2,05,17,76,030,41,6*57
$GPGSV,2,1,05,02,07,264,,11,11,258,,12,04,326,,19,60,327,,0*61
$GPGSV,2,2,05,19,60,327,,0*58
$GLGSV,2,1,08,65,16,168,33,71,35,052,48,72,45,120,33,76,07,200,40,1*74
$GLGSV,2,2,08,77,30,244,12,78,25,308,22,87,52,348,19,88,23,298,13,1*7E
$GLGSV,2,1,06,65,16,168,26,71,35,052,33,72,45,120,30,77,30,244,10,3*73
$GLGSV,2,2,06,78,25,308,10,88,23,298,11,3*7C
$GLGSV,1,1,02,70,00,019,,86,27,069,,0*70
$GAGSV,2,1,05,02,45,218,44,05,15,151,28,09,27,099,34,11,16,069,29,2*7E
$GAGSV,2,2,05,36,58,033,44,2*4B
$GAGSV,2,1,07,02,45,218,43,04,12,047,24,05,15,151,36,09,27,099,26,7*73
$GAGSV,2,2,07,11,16,069,39,30,39,293,14,36,58,033,45,7*4B
$GAGSV,2,1,05,15,04,265,,18,38,305,,25,12,176,,27,01,331,,0*76
$GAGSV,2,2,05,27,01,331,,0*44
$GBGSV,3,1,09,03,44,206,40,04,35,132,33,07,71,221,42,08,52,248,22,1*7B
$GBGSV,3,2,09,11,45,077,39,14,50,137,46,21,18,042,38,34,27,093,37,1*79
$GBGSV,3,3,09,37,19,283,21,1*49
$GNRMC,040905.00,A,3727.0267010,N,12639.2509068,E,0.035,,220622,,,F,V*17
$GNVTG,,T,,M,0.035,N,0.065,K,D*3D
$GNGNS,040905.00,3727.0267010,N,12639.2509068,E,FFFF,28,0.71,23.116,17.837,31.0,4095,V*33
$GNGGA,040905.00,3727.0267010,N,12639.2509068,E,5,12,0.71,23.116,M,17.837,M,31.0,4095*6E
$GNGSA,A,3,04,06,17,03,14,01,41,09,,,,,1.33,0.71,1.12,1*0B
$GNGSA,A,3,71,88,87,65,72,78,,,,,,,1.33,0.71,1.12,2*07
$GNGSA,A,3,04,09,11,02,36,05,,,,,,,1.33,0.71,1.12,3*09
$GNGSA,A,3,14,34,03,08,11,07,04,21,,,,,1.33,0.71,1.12,4*08
$GPGSV,3,1,10,01,16,063,40,03,43,051,49,04,18,104,33,06,45,279,22,1*6E
$GPGSV,3,2,10,09,15,136,36,14,38,191,43,17,76,030,45,28,,,44,1*57
$GPGSV,3,3,10,41,27,238,32,50,43,151,43,1*6D
$GPGSV,2,1,05,01,16,063,32,03,43,051,37,04,18,104,36,14,38,191,42,6*6F
$GPGSV,2,2,05,17,76,030,41,6*57
$GPGSV,2,1,05,02,07,264,,11,11,258,,12,04,326,,19,60,327,,0*61
$GPGSV,2,2,05,19,60,327,,0*58
$GLGSV,2,1,08,65,16,168,33,71,35,052,48,72,45,120,33,76,07,200,39,1*7A
$GLGSV,2,2,08,77,30,244,09,78,25,308,21,87,52,348,19,88,23,298,15,1*71
$GLGSV,2,1,06,65,16,168,26,71,35,052,33,72,45,120,31,77,30,244,10,3*72
$GLGSV,2,2,06,78,25,308,13,88,23,298,10,3*7E
$GLGSV,1,1,02,70,00,019,,86,27,069,,0*70
$GAGSV,2,1,05,02,45,218,44,05,15,151,27,09,27,099,34,11,16,069,29,2*71
$GAGSV,2,2,05,36,58,033,44,2*4B
$GAGSV,2,1,07,02,45,218,44,04,12,047,24,05,15,151,36,09,27,099,27,7*75
$GAGSV,2,2,07,11,16,069,39,30,39,293,11,36,58,033,45,7*4E
$GAGSV,2,1,05,15,04,265,,18,38,305,,25,12,176,,27,01,331,,0*76
$GAGSV,2,2,05,27,01,331,,0*44
$GBGSV,3,1,09,03,44,206,40,04,35,132,34,07,71,221,42,08,52,248,23,1*7D
$GBGSV,3,2,09,11,45,077,40,14,50,137,46,21,18,042,39,34,27,093,38,1*79
$GBGSV,3,3,09,37,19,283,22,1*4A
$GBGSV,2,1,06,03,44,206,42,04,35,132,34,07,71,221,36,10,68,261,20,3*78
$GBGSV,2,2,06,11,45,077,40,14,50,137,47,3*71
$GBGSV,2,1,05,05,08,255,,12,01,100,,13,42,245,,23,18,231,,0*72
$GBGSV,2,2,05,23,18,231,,0*4A
$GNVTG,,T,,M,0.020,N,0.037,K,D*3E
$GNGNS,040906.00,3727.0266791,N,12639.2509408,E,FFFF,28,0.71,23.138,17.837,32.0,4095,V*32
$GNGSA,A,3,04,06,17,03,14,01,41,09,,,,,1.33,0.71,1.12,1*0B
$GNGSA,A,3,71,88,87,65,72,78,,,,,,,1.33,0.71,1.12,2*07
$GNGSA,A,3,04,09,11,02,36,05,,,,,,,1.33,0.71,1.12,3*09
$GNGSA,A,3,14,34,03,08,11,07,04,21,,,,,1.33,0.71,1.12,4*08
$GPGSV,3,1,10,01,16,063,41,03,43,051,48,04,18,104,33,06,45,279,22,1*6E
$GPGSV,3,2,10,09,15,136,36,14,38,191,43,17,76,030,45,28,,,44,1*57
$GPGSV,3,3,10,41,27,238,32,50,43,151,42,1*6C
$GPGSV,2,1,05,01,16,063,32,03,43,051,37,04,18,104,36,14,38,191,42,6*6F
$GPGSV,2,2,05,17,76,030,41,6*57
$GPGSV,2,1,05,02,07,264,,11,11,258,,12,04,326,,19,60,327,,0*61
$GPGSV,2,2,05,19,60,327,,0*58
$GLGSV,2,1,08,65,16,168,35,71,35,052,48,72,45,120,32,76,07,200,39,1*7D
$GLGSV,2,2,08,77,30,244,07,78,25,308,20,87,52,348,18,88,23,298,14,1*7E
$GLGSV,2,1,06,65,16,168,26,71,35,052,33,72,45,120,31,77,30,244,13,3*71
$GLGSV,2,2,06,78,25,308,07,88,23,298,10,3*7B
$GLGSV,1,1,02,70,00,019,,86,27,069,,0*70
$GAGSV,2,1,05,02,45,218,44,05,15,151,27,09,27,099,34,11,16,069,30,2*79
$GAGSV,2,2,05,36,58,033,45,2*4A
$GAGSV,2,1,07,02,45,218,44,04,12,047,25,05,15,151,36,09,27,099,27,7*74
$GAGSV,2,2,07,11,16,069,39,30,39,293,09,36,58,033,44,7*46
$GAGSV,2,1,05,15,04,265,,18,38,305,,25,12,176,,27,01,331,,0*76
$GAGSV,2,2,05,27,01,331,,0*44
$GBGSV,3,1,09,03,44,206,40,04,35,132,33,07,71,221,42,08,52,248,22,1*7B
$GBGSV,3,2,09,11,45,077,40,14,50,137,46,21,18,042,37,34,27,093,37,1*78
$GBGSV,3,3,09,37,19,283,22,1*4A
$GBGSV,2,1,07,03,44,206,42,04,35,132,33,07,71,221,36,10,68,261,20,3*7E
$GBGSV,2,2,07,11,45,077,41,13,42,245,27,14,50,137,47,3*43
$GNRMC,040907.00,A,3727.0266680,N,12639.2509572,E,0.029,,220622,,,F,V*18
$GNVTG,,T,,M,0.029,N,0.053,K,D*35
$GNGNS,040907.00,3727.0266680,N,12639.2509572,E,FFFF,28,0.74,23.132,17.837,33.0,4095,V*30
$GNGGA,040907.00,3727.0266680,N,12639.2509572,E,5,12,0.74,23.132,M,17.837,M,33.0,4095*6D
$GNGSA,A,3,04,06,17,03,14,01,41,09,,,,,1.36,0.74,1.14,1*0D
$GNGSA,A,3,71,88,87,65,72,78,,,,,,,1.36,0.74,1.14,2*01
$GNGSA,A,3,04,09,11,02,36,05,,,,,,,1.36,0.74,1.14,3*0F
$GNGSA,A,3,14,34,03,08,11,07,04,21,,,,,1.36,0.74,1.14,4*0E
$GPGSV,3,1,10,01,16,063,40,03,43,051,48,04,18,104,32,06,45,279,20,1*6C
$GPGSV,3,2,10,09,15,136,36,14,38,191,44,17,76,030,45,28,,,44,1*50
$GPGSV,3,3,10,41,27,238,32,50,43,151,43,1*6D
$GPGSV,2,1,05,01,16,063,32,03,43,051,37,04,18,104,36,14,38,191,42,6*6F
$GPGSV,2,2,05,17,76,030,41,6*57
$GPGSV,2,1,05,02,07,264,,11,11,258,,12,04,326,,19,60,327,,0*61
$GPGSV,2,2,05,19,60,327,,0*58
$GLGSV,2,1,08,65,17,168,31,71,35,052,48,72,45,120,31,76,07,200,39,1*7B
$GLGSV,2,2,08,77,30,244,07,78,25,308,19,87,52,348,17,88,23,298,12,1*7D
$GLGSV,2,1,06,65,17,168,26,71,35,052,33,72,45,120,31,77,30,244,10,3*73
$GLGSV,2,2,06,78,25,308,12,88,23,298,11,3*7E
$GLGSV,1,1,02,70,00,019,,86,27,069,,0*70
$GAGSV,2,1,05,02,45,218,44,05,15,151,27,09,27,099,33,11,16,069,29,2*76
$GAGSV,2,2,05,36,58,033,45,2*4A
$GAGSV,2,1,07,02,45,218,44,04,12,047,25,05,15,151,36,09,27,099,27,7*74
$GAGSV,2,2,07,11,16,069,39,30,39,293,10,36,58,033,44,7*4E
$GAGSV,2,1,05,15,04,265,,18,38,305,,25,12,176,,27,01,331,,0*76
$GAGSV,2,2,05,27,01,331,,0*44
$GBGSV,3,1,09,03,44,206,40,04,35,132,33,07,71,221,42,08,52,248,22,1*7B
$GBGSV,3,2,09,11,45,077,39,14,50,137,46,21,18,042,40,34,27,093,38,1*79
$GBGSV,3,3,09,37,19,283,23,1*4B
$GBGSV,2,1,07,03,44,206,42,04,35,132,33,07,71,221,36,10,68,261,20,3*7E
$GBGSV,2,2,07,11,45,077,41,13,42,245,25,14,50,137,47,3*41
$GBGSV,1,1,04,05,08,255,,12,01,100,,23,18,231,,28,38,303,,0*76
$GNRMC,040908.00,A,3727.0266546,N,12639.2509727,E,0.045,,220622,,,F,V*16
$GNVTG,,T,,M,0.045,N,0.083,K,D*32
$GNGNS,040908.00,3727.0266546,N,12639.2509727,E,FFFF,28,0.72,23.126,17.837,34.0,4095,V*30
$GNGGA,040908.00,3727.0266546,N,12639.2509727,E,5,12,0.72,23.126,M,17.837,M,34.0,4095*6D
$GNGSA,A,3,04,06,17,03,14,01,41,09,,,,,1.35,0.72,1.14,1*08
$GNGSA,A,3,71,88,87,65,72,78,,,,,,,1.35,0.72,1.14,2*04
$GNGSA,A,3,04,09,11,02,36,05,,,,,,,1.35,0.72,1.14,3*0A
$GNGSA,A,3,14,34,03,08,11,07,04,21,,,,,1.35,0.72,1.14,4*0B
$GPGSV,3,1,10,01,16,063,39,03,43,051,48,04,18,104,34,06,45,279,18,1*6F
$GPGSV,3,2,10,09,15,136,36,14,38,191,44,17,76,030,45,28,,,44,1*50
$GPGSV,3,3,10,41,27,238,32,50,43,151,43,1*6D
$GPGSV,2,1,05,01,16,063,33,03,43,051,37,04,18,104,36,14,38,191,43,6*6F
$GPGSV,2,2,05,17,76,030,41,6*57
$GPGSV,2,1,05,02,07,264,,11,11,258,,12,04,326,,19,60,327,,0*61
$GPGSV,2,2,05,19,60,327,,0*58
$GLGSV,2,1,08,65,17,168,31,71,35,052,48,72,45,120,32,76,07,200,38,1*79
$GLGSV,2,2,08,77,30,244,11,78,25,308,18,87,52,348,15,88,23,298,10,1*7B
$GLGSV,2,1,06,65,17,168,25,71,35,052,34,72,45,120,32,77,30,244,10,3*74
$GLGSV,2,2,06,78,25,308,11,88,23,298,09,3*74
$GLGSV,1,1,02,70,00,019,,86,27,069,,0*70
$GAGSV,2,1,05,02,45,218,44,05,15,151,26,09,27,099,34,11,16,069,30,2*78
$GAGSV,2,2,05,36,58,033,44,2*4B
$GAGSV,2,1,07,02,45,218,44,04,12,047,25,05,15,151,37,09,27,099,27,7*75
$GAGSV,2,2,07,11,16,069,39,30,39,293,09,36,58,033,44,7*46
$GAGSV,2,1,05,15,04,265,,18,38,305,,25,12,176,,27,01,331,,0*76
$GAGSV,2,2,05,27,01,331,,0*44
$GBGSV,3,1,09,03,44,206,40,04,35,132,34,07,71,221,42,08,52,248,22,1*7C
$GBGSV,3,2,09,11,45,077,39,14,50,137,46,21,18,042,41,34,27,093,37,1*77
$GBGSV,3,3,09,37,19,283,23,1*4B
$GBGSV,2,1,06,03,44,206,42,04,35,132,33,07,71,221,36,10,68,261,20,3*7F
$GBGSV,2,2,06,11,45,077,40,14,50,137,47,3*71
$GBGSV,2,1,05,05,08,255,,12,01,100,,13,42,245,,23,18,231,,0*72
$GBGSV,2,2,05,23,18,231,,0*4A
$GNRMC,040909.00,A,3727.0266391,N,12639.2509918,E,0.014,,220622,,,F,V*1D
$GNVTG,,T,,M,0.014,N,0.026,K,D*39
$GNGNS,040909.00,3727.0266391,N,12639.2509918,E,FFFF,27,1.00,23.120,17.837,35.0,4095,V*33
$GNGGA,040909.00,3727.0266391,N,12639.2509918,E,5,12,1.00,23.120,M,17.837,M,35.0,4095*61
$GNGSA,A,3,04,06,17,03,14,01,41,09,,,,,1.66,1.00,1.32,1*0E
$GNGSA,A,3,71,88,87,65,72,78,,,,,,,1.66,1.00,1.32,2*02
$GNGSA,A,3,04,09,11,02,36,05,,,,,,,1.66,1.00,1.32,3*0C
$GNGSA,A,3,14,34,03,08,11,07,04,21,,,,,1.66,1.00,1.32,4*0D
$GPGSV,3,1,10,01,16,063,39,03,43,051,48,04,18,104,34,06,45,279,18,1*6F
$GPGSV,3,2,10,09,15,136,36,14,38,191,44,17,76,030,45,28,,,44,1*50
$GPGSV,3,3,10,41,27,238,32,50,43,151,42,1*6C
$GPGSV,2,1,05,01,16,063,33,03,43,051,38,04,18,104,35,14,38,191,42,6*62
$GPGSV,2,2,05,17,76,030,41,6*57
$GPGSV,2,1,05,02,07,264,,11,11,258,,12,04,326,,19,60,327,,0*61
$GPGSV,2,2,05,19,60,327,,0*58
$GLGSV,2,1,08,65,17,168,31,71,35,052,48,72,45,120,36,76,07,200,37,1*72
$GLGSV,2,2,08,77,30,244,11,78,25,308,18,87,52,348,12,88,23,298,11,1*7D
$GLGSV,2,1,06,65,17,168,26,71,35,052,34,72,45,120,33,77,30,244,13,3*75
$GLGSV,2,2,06,78,25,308,09,88,23,298,06,3*72
$GLGSV,1,1,02,70,00,019,,86,27,069,,0*70
$GNRMC,040910.00,A,3727.0266234,N,12639.2510100,E,0.012,,220622,,,F,V*14
$GNVTG,,T,,M,0.012,N,0.022,K,D*3B
$GNGNS,040910.00,3727.0266234,N,12639.2510100,E,FFFF,28,0.71,23.120,17.837,36.0,4095,V*37
$GNGGA,040910.00,3727.0266234,N,12639.2510100,E,5,12,0.71,23.120,M,17.837,M,36.0,4095*6A
$GNGSA,A,3,04,06,17,03,14,01,41,09,,,,,1.33,0.71,1.12,1*0B
$GNGSA,A,3,71,88,87,65,72,78,,,,,,,1.33,0.71,1.12,2*07
$GNGSA,A,3,04,09,11,02,36,05,,,,,,,1.33,0.71,1.12,3*09
$GNGSA,A,3,14,34,03,08,11,07,04,21,,,,,1.33,0.71,1.12,4*08
$GPGSV,3,1,10,01,16,063,40,03,43,051,48,04,18,104,33,06,45,279,18,1*66
$GPGSV,3,2,10,09,15,136,36,14,38,191,44,17,76,030,45,28,,,44,1*50
$GPGSV,3,3,10,41,27,238,33,50,43,151,43,1*6C
$GPGSV,2,1,05,01,16,063,32,03,43,051,37,04,18,104,35,14,38,191,41,6*6F
$GPGSV,2,2,05,17,76,030,40,6*56
$GPGSV,2,1,05,02,07,264,,11,11,258,,12,04,326,,19,60,327,,0*61
$GPGSV,2,2,05,19,60,327,,0*58
$GLGSV,2,1,08,65,17,168,31,71,35,052,48,72,45,120,36,76,07,200,37,1*72
$GLGSV,2,2,08,77,30,244,12,78,25,308,19,87,52,348,11,88,23,298,11,1*7C
$GLGSV,2,1,06,65,17,168,26,71,35,052,34,72,45,120,33,77,30,244,10,3*76
$GLGSV,2,2,06,78,25,308,10,88,23,298,09,3*75
$GLGSV,1,1,02,70,00,019,,86,27,069,,0*70
$GAGSV,2,1,05,02,45,218,44,05,15,151,27,09,27,099,33,11,16,069,30,2*7E
$GAGSV,2,2,05,36,58,033,45,2*4A
$GAGSV,2,1,07,02,45,218,43,04,12,047,26,05,15,151,36,09,27,099,26,7*71
$GAGSV,2,2,07,11,16,069,39,30,39,293,09,36,58,033,44,7*46
$GAGSV,2,1,05,15,04,265,,18,38,305,,25,12,176,,27,01,331,,0*76
$GAGSV,2,2,05,27,01,331,,0*44
$GBGSV,3,1,09,03,44,206,40,04,35,132,33,07,71,221,42,08,52,248,23,1*7A
$GBGSV,3,2,09,11,45,077,39,14,50,137,46,21,18,042,40,34,27,093,35,1*74
$GBGSV,3,3,09,37,19,283,21,1*49
$GBGSV,2,1,06,03,44,206,41,04,35,132,33,07,71,221,36,10,68,261,22,3*7E
$GBGSV,2,2,06,11,45,077,41,14,50,137,47,3*70
$GNRMC,040911.00,A,3727.0266103,N,12639.2510239,E,0.010,,220622,,,F,V*19
$GNVTG,,T,,M,0.010,N,0.018,K,D*30
$GNGNS,040911.00,3727.0266103,N,12639.2510239,E,FFFF,28,0.71,23.119,17.837,37.0,4095,V*33
$GNGGA,040911.00,3727.0266103,N,12639.2510239,E,5,12,0.71,23.119,M,17.837,M,37.0,4095*6E
$GNGSA,A,3,04,06,17,03,14,01,41,09,,,,,1.33,0.71,1.12,1*0B
$GNGSA,A,3,71,88,87,65,72,78,,,,,,,1.33,0.71,1.12,2*07
$GNGSA,A,3,04,09,11,02,36,05,,,,,,,1.33,0.71,1.12,3*09
$GNGSA,A,3,14,34,03,08,11,07,04,21,,,,,1.33,0.71,1.12,4*08
$GPGSV,3,1,10,01,16,063,39,03,43,051,48,04,18,104,34,06,45,279,19,1*6E
$GPGSV,3,2,10,09,15,136,36,14,38,191,44,17,76,030,45,28,,,44,1*50
$GPGSV,3,3,10,41,27,238,33,50,43,151,43,1*6C
$GPGSV,2,1,05,01,16,063,32,03,43,051,37,04,18,104,34,14,38,191,42,6*6D
$GPGSV,2,2,05,17,76,030,40,6*56
$GPGSV,2,1,05,02,07,264,,11,11,258,,12,04,326,,19,60,327,,0*61
$GPGSV,2,2,05,19,60,327,,0*58
$GLGSV,2,1,08,65,17,168,31,71,35,052,48,72,45,120,37,76,07,200,37,1*73
$GLGSV,2,2,08,77,30,244,10,78,25,308,18,87,52,348,10,88,23,298,13,1*7C
$GLGSV,2,1,06,65,17,168,26,71,35,052,34,72,45,120,33,77,30,244,11,3*77
$GLGSV,2,2,06,78,25,308,08,88,23,298,10,3*74
$GLGSV,1,1,02,70,00,019,,86,27,069,,0*70
$GAGSV,2,1,05,02,45,218,44,05,15,151,27,09,27,099,33,11,16,069,30,2*7E
$GAGSV,2,2,05,36,58,033,44,2*4B
$GAGSV,2,1,07,02,45,218,43,04,12,047,26,05,15,151,36,09,27,099,26,7*71
$GAGSV,2,2,07,11,16,069,39,30,39,293,09,36,58,033,44,7*46
$GAGSV,2,1,05,15,04,265,,18,38,305,,25,12,176,,27,01,331,,0*76
$GAGSV,2,2,05,27,01,331,,0*44
$GBGSV,3,1,09,03,44,206,40,04,35,132,33,07,71,221,42,08,52,248,23,1*7A
$GBGSV,3,2,09,11,45,077,39,14,50,137,46,21,18,042,40,34,27,093,35,1*74
$GBGSV,3,3,09,37,19,283,20,1*48
$GBGSV,2,1,06,03,44,206,41,04,35,132,33,07,71,221,36,10,68,261,22,3*7E
$GBGSV,2,2,06,11,45,077,41,14,50,137,47,3*70
$GBGSV,2,1,05,05,08,255,,12,01,100,,13,42,245,,23,18,231,,0*72
$GBGSV,2,2,05,23,18,231,,0*4A
$GNRMC,040912.00,A,3727.0265977,N,12639.2510360,E,0.015,,220622,,,F,V*1A
$GNVTG,,T,,M,0.015,N,0.028,K,D*36
$GNGNS,040912.00,3727.0265977,N,12639.2510360,E,FFFF,28,0.75,23.124,17.837,38.0,4095,V*30
$GNGGA,040912.00,3727.0265977,N,12639.2510360,E,5,12,0.75,23.124,M,17.837,M,38.0,4095*6D
$GNGSA,A,3,04,06,17,03,14,01,41,09,,,,,1.44,0.75,1.23,1*0D
$GNGSA,A,3,71,88,87,65,72,78,,,,,,,1.44,0.75,1.23,2*01
$GPGSV,2,1,05,02,07,264,,11,11,258,,12,04,326,,19,60,327,,0*61
$GPGSV,2,2,05,19,60,327,,0*58
$GLGSV,2,1,08,65,17,168,32,71,35,052,48,72,45,120,38,76,07,200,38,1*70
$GLGSV,2,2,08,77,30,244,12,78,25,308,19,87,52,348,10,88,23,298,16,1*7A
$GAGSV,2,2,06,30,39,293,08,36,58,033,44,7*74
$GAGSV,2,1,06,04,12,047,,15,04,265,,18,38,305,,25,12,176,,0*74
$GAGSV,2,2,06,25,12,176,,27,01,331,,0*73
$GBGSV,3,1,09,03,44,206,40,04,35,132,34,07,71,221,42,08,52,248,23,1*7D
$GBGSV,3,2,09,11,45,077,39,14,50,137,46,21,18,042,40,34,27,093,35,1*74
$GBGSV,3,3,09,37,19,283,19,1*42
$GBGSV,2,2,06,11,45,077,41,14,50,137,47,3*70
$GBGSV,2,1,05,05,08,255,,12,01,100,,13,42,245,,23,18,231,,0*72
$GNRMC,040913.00,A,3727.0265848,N,12639.2510464,E,0.008,,220622,,,F,V*19
$GNVTG,,T,,M,0.008,N,0.014,K,D*35
$GNGNS,040913.00,3727.0265848,N,12639.2510464,E,FFFF,28,0.73,23.125,17.837,39.0,4095,V*39
$GNGGA,040913.00,3727.0265848,N,12639.2510464,E,5,12,0.73,23.125,M,17.837,M,39.0,4095*64
$GNGSA,A,3,04,06,17,03,14,01,41,09,,,,,1.40,0.73,1.19,1*06
$GNGSA,A,3,71,88,87,65,72,78,,,,,,,1.40,0.73,1.19,2*0A
$GNGSA,A,3,09,11,02,36,05,,,,,,,,1.40,0.73,1.19,3*00
$GNGSA,A,3,37,14,34,03,08,11,07,04,21,,,,1.40,0.73,1.19,4*01
$GPGSV,3,1,10,01,16,063,39,03,43,051,48,04,18,104,33,06,45,279,17,1*67
$GPGSV,3,2,10,09,15,136,36,14,38,191,43,17,76,030,45,28,,,44,1*57
$GPGSV,3,3,10,41,27,238,32,50,43,151,43,1*6D
$GPGSV,2,1,05,01,16,063,34,03,43,051,38,04,18,104,35,14,38,191,43,6*64
$GPGSV,2,2,05,17,76,030,41,6*57
$GPGSV,2,1,05,02,07,264,,11,11,258,,12,04,326,,19,60,327,,0*61
$GPGSV,2,2,05,19,60,327,,0*58
$GLGSV,2,1,08,65,17,168,33,71,35,051,48,72,45,120,38,76,07,200,38,1*72
$GLGSV,2,2,08,77,30,244,10,78,25,308,19,87,52,348,08,88,23,298,19,1*7E
$GLGSV,2,1,06,65,17,168,25,71,35,051,34,72,45,120,34,77,30,244,16,3*77
$GLGSV,2,2,06,78,25,308,09,88,23,298,08,3*7C
$GLGSV,1,1,01,86,27,069,,0*4C
$GAGSV,2,1,05,02,45,218,44,05,15,151,27,09,27,099,34,11,16,069,29,2*71
$GAGSV,2,2,05,36,58,033,44,2*4B
$GAGSV,2,1,07,02,45,218,43,04,12,047,27,05,15,151,35,09,27,099,26,7*73
$GAGSV,2,2,07,11,16,069,39,30,39,293,09,36,58,033,44,7*46
$GAGSV,2,1,05,15,04,265,,18,38,305,,25,12,176,,27,01,331,,0*76
$GAGSV,2,2,05,27,01,331,,0*44
$GBGSV,3,1,09,03,44,206,40,04,35,132,35,07,71,221,42,08,52,248,23,1*7C
$GBGSV,3,2,09,11,45,077,39,14,50,137,46,21,18,042,41,34,27,093,35,1*75
$GBGSV,3,3,09,37,19,283,19,1*42
$GBGSV,2,1,06,03,44,206,41,04,35,132,34,07,71,221,36,10,68,261,23,3*78
$GBGSV,2,2,06,11,45,077,41,14,50,137,47,3*70
$GBGSV,2,1,05,05,08,255,,12,01,100,,13,42,245,,23,18,231,,0*72
$GBGSV,2,2,05,23,18,231,,0*4A
$GNRMC,040914.00,A,3727.0265672,N,12639.2510642,E,0.035,,220622,,,F,V*11
$GNVTG,,T,,M,0.035,N,0.065,K,D*3D
$GNGNS,040914.00,3727.0265672,N,12639.2510642,E,FFFF,28,1.08,23.147,17.837,40.0,4095,V*38
$GNGGA,040914.00,3727.0265672,N,12639.2510642,E,5,12,1.08,23.147,M,17.837,M,40.0,4095*65
$GNGSA,A,3,04,06,17,03,14,01,41,09,,,,,1.86,1.08,1.51,1*0D
$GNGSA,A,3,71,88,87,65,72,78,,,,,,,1.86,1.08,1.51,2*01
$GNGSA,A,3,09,11,02,36,05,,,,,,,,1.86,1.08,1.51,3*0B
$GNGSA,A,3,37,14,34,03,08,11,07,04,21,,,,1.86,1.08,1.51,4*0A
$GPGSV,3,1,10,01,16,063,39,03,43,051,48,04,18,104,33,06,45,279,15,1*65
$GPGSV,3,2,10,09,15,136,37,14,38,191,44,17,76,030,45,28,,,44,1*51
$GPGSV,3,3,10,41,27,238,33,50,43,151,43,1*6C
$GPGSV,2,1,05,01,16,063,34,03,43,051,38,04,18,104,35,14,38,191,43,6*64
$GPGSV,2,2,05,17,76,030,41,6*57
$GPGSV,2,1,05,02,07,264,,11,11,258,,12,04,326,,19,60,327,,0*61
$GPGSV,2,2,05,19,60,327,,0*58
$GLGSV,2,1,08,65,17,168,34,71,35,051,48,72,46,118,37,76,07,200,37,1*7D
$GLGSV,2,2,08,77,30,244,16,78,25,308,18,87,52,348,14,88,23,298,20,1*7E
$GLGSV,2,1,06,65,17,168,25,71,35,051,33,72,46,118,33,77,30,244,10,3*79
$GLGSV,2,2,06,78,25,308,08,88,23,298,08,3*7D
$GLGSV,1,1,01,86,27,069,,0*4C
$GAGSV,2,1,05,02,45,218,44,05,15,151,27,09,27,099,34,11,16,069,30,2*79
$GAGSV,2,2,05,36,58,033,44,2*4B
$GAGSV,2,1,06,02,45,218,43,05,15,151,35,09,27,099,26,11,16,069,38,7*70
$GAGSV,2,2,06,30,39,293,11,36,58,033,45,7*7D
$GAGSV,2,1,06,04,12,047,,15,04,265,,18,38,305,,25,12,176,,0*74
$GAGSV,2,2,06,25,12,176,,27,01,331,,0*73
$GBGSV,3,1,09,03,44,206,40,04,35,132,34,07,71,221,42,08,52,248,23,1*7D
$GBGSV,3,2,09,11,45,077,38,14,50,137,46,21,18,042,41,34,27,093,34,1*75
$GBGSV,3,3,09,37,19,283,19,1*42
$GBGSV,2,1,06,03,44,206,41,04,35,132,34,07,71,221,36,10,68,261,22,3*79
$GBGSV,2,2,06,11,45,077,43,14,50,137,47,3*72
$GBGSV,2,1,05,05,08,255,,12,01,100,,13,42,245,,23,18,231,,0*72
$GBGSV,2,2,05,23,18,231,,0*4A
$GNRMC,040915.00,A,3727.0265536,N,12639.2510735,E,0.028,,220622,,,F,V*1E
$GNVTG,,T,,M,0.028,N,0.051,K,D*36
$GNGNS,040915.00,3727.0265536,N,12639.2510735,E,FFFF,28,0.73,23.158,17.837,41.0,4095,V*39
$GNGGA,040915.00,3727.0265536,N,12639.2510735,E,5,12,0.73,23.158,M,17.837,M,41.0,4095*64
$GNGSA,A,3,04,06,17,03,14,01,41,09,,,,,1.40,0.73,1.19,1*06
$GNGSA,A,3,71,88,87,65,72,78,,,,,,,1.40,0.73,1.19,2*0A
$GNGSA,A,3,09,11,02,36,05,,,,,,,,1.40,0.73,1.19,3*00
$GNGSA,A,3,37,14,34,03,08,11,07,04,21,,,,1.40,0.73,1.19,4*01
$GPGSV,3,1,10,01,16,063,40,03,43,051,47,04,18,104,32,06,45,279,13,1*63
$GPGSV,3,2,10,09,15,136,37,14,38,191,43,17,76,030,45,28,,,44,1*56
$GPGSV,3,3,10,41,27,238,32,50,43,151,43,1*6D
$GPGSV,2,1,05,01,16,063,34,03,43,051,38,04,18,104,36,14,38,191,43,6*67
$GPGSV,2,2,05,17,76,030,42,6*54
$GPGSV,2,1,05,02,07,264,,11,11,258,,12,04,326,,19,60,327,,0*61
$GPGSV,2,2,05,19,60,327,,0*58
$GLGSV,2,1,08,65,17,168,34,71,35,051,48,72,46,118,37,76,07,200,37,1*7D
$GLGSV,2,2,08,77,30,244,13,78,25,308,18,87,52,348,12,88,23,298,20,1*7D
$GLGSV,2,1,06,65,17,168,24,71,35,051,33,72,46,118,33,77,30,244,11,3*79
$GLGSV,2,2,06,78,25,308,13,88,23,298,11,3*7F
$GLGSV,1,1,01,86,27,069,,0*4C
$GAGSV,2,1,05,02,45,218,44,05,15,151,27,09,27,099,34,11,16,069,29,2*71
$GAGSV,2,2,05,36,58,033,44,2*4B
$GAGSV,2,1,06,02,45,218,43,05,15,151,36,09,27,099,27,11,16,069,40,7*7D
$GAGSV,2,2,06,30,39,293,10,36,58,033,45,7*7C
$GAGSV,2,1,06,04,12,047,,15,04,265,,18,38,305,,25,12,176,,0*74
$GAGSV,2,2,06,25,12,176,,27,01,331,,0*73
$GBGSV,3,1,09,03,44,206,40,04,35,132,35,07,71,221,42,08,52,248,23,1*7C
$GBGSV,3,2,09,11,45,077,38,14,50,137,46,21,18,042,42,34,27,093,35,1*77
$GBGSV,3,3,09,37,19,283,20,1*48
$GBGSV,2,1,06,03,44,206,41,04,35,132,34,07,71,221,36,10,68,261,22,3*79
$GBGSV,2,2,06,11,45,077,42,14,50,137,46,3*72
$GBGSV,2,1,05,05,08,255,,12,01,100,,13,42,245,,23,18,231,,0*72
$GBGSV,2,2,05,23,18,231,,0*4A
$GNRMC,040916.00,A,3727.0265470,N,12639.2510724,E,0.052,,220622,,,F,V*13
$GNVTG,,T,,M,0.052,N,0.096,K,D*30
$GNGNS,040916.00,3727.0265470,N,12639.2510724,E,FFFF,28,0.73,23.151,17.837,42.0,4095,V*33
$GNGGA,040916.00,3727.0265470,N,12639.2510724,E,5,12,0.73,23.151,M,17.837,M,42.0,4095*6E
$GNGSA,A,3,04,06,17,03,14,01,41,09,,,,,1.40,0.73,1.19,1*06
$GNGSA,A,3,71,88,87,65,72,78,,,,,,,1.40,0.73,1.19,2*0A
$GNGSA,A,3,09,11,02,36,05,,,,,,,,1.40,0.73,1.19,3*00
$GNGSA,A,3,37,14,34,03,08,11,07,04,21,,,,1.40,0.73,1.19,4*01
$GPGSV,3,1,10,01,16,063,40,03,43,051,47,04,18,104,31,06,45,279,17,1*64
$GPGSV,3,2,10,09,15,136,36,14,38,191,44,17,76,030,45,28,,,44,1*50
$GPGSV,3,3,10,41,27,238,32,50,43,151,43,1*6D
$GPGSV,2,1,05,01,16,063,34,03,43,051,37,04,18,104,36,14,38,191,43,6*68
$GPGSV,2,2,05,17,76,030,42,6*54
$GPGSV,2,1,05,02,07,264,,11,11,258,,12,04,326,,19,60,327,,0*61
$GPGSV,2,2,05,19,60,327,,0*58
$GLGSV,2,1,08,65,17,168,34,71,35,051,48,72,46,118,36,76,07,200,37,1*7C
$GLGSV,2,2,08,77,30,244,13,78,25,308,19,87,52,348,09,88,23,298,19,1*7C
$GLGSV,2,1,06,65,17,168,25,71,35,051,33,72,46,118,32,77,30,244,12,3*7A
$GLGSV,2,2,06,78,25,308,09,88,23,298,10,3*75
$GLGSV,1,1,01,86,27,069,,0*4C
$GAGSV,2,1,05,02,45,218,44,05,15,151,27,09,27,099,34,11,16,069,29,2*71
$GAGSV,2,2,05,36,58,033,44,2*4B
$GAGSV,2,1,06,02,45,218,43,05,15,151,36,09,27,099,27,11,16,069,39,7*73
$GAGSV,2,2,06,30,39,293,08,36,58,033,45,7*75
$GAGSV,2,1,06,04,12,047,,15,04,265,,18,38,305,,25,12,176,,0*74
$GAGSV,2,2,06,25,12,176,,27,01,331,,0*73
$GBGSV,3,1,09,03,44,206,40,04,35,132,35,07,71,221,42,08,52,248,24,1*7B
$GBGSV,3,2,09,11,45,077,38,14,50,137,46,21,18,042,42,34,27,093,35,1*77
$GBGSV,3,3,09,37,19,283,20,1*48
$GBGSV,2,1,06,03,44,206,42,04,35,132,33,07,71,221,36,10,68,261,22,3*7D
$GBGSV,2,2,06,11,45,077,42,14,50,137,46,3*72
$GBGSV,2,1,05,05,08,255,,12,01,100,,13,42,245,,23,18,231,,0*72
$GBGSV,2,2,05,23,18,231,,0*4A
$GNRMC,040917.00,A,3727.0265473,N,12639.2510634,E,0.021,,220622,,,F,V*15
$GNVTG,,T,,M,0.021,N,0.039,K,D*31
$GNGNS,040917.00,3727.0265473,N,12639.2510634,E,FFFF,28,0.65,23.140,17.837,43.0,4095,V*37
$GNGGA,040917.00,3727.0265473,N,12639.2510634,E,5,12,0.65,23.140,M,17.837,M,43.0,4095*6A
$GNGSA,A,3,04,06,17,03,14,01,41,09,,,,,1.31,0.65,1.14,1*0A
$GNGSA,A,3,71,88,87,65,72,78,,,,,,,1.31,0.65,1.14,2*06
$GNGSA,A,3,09,11,02,36,05,,,,,,,,1.31,0.65,1.14,3*0C
$GNGSA,A,3,37,14,34,03,08,11,07,04,21,,,,1.31,0.65,1.14,4*0D
$GPGSV,3,1,10,01,16,063,39,03,43,051,47,04,18,104,32,06,45,279,14,1*6A
$GPGSV,3,2,10,09,15,136,37,14,38,191,43,17,76,030,45,28,,,44,1*56
$GPGSV,3,3,10,41,27,238,31,50,43,151,43,1*6E
$GPGSV,2,1,05,01,16,063,34,03,43,051,37,04,18,104,35,14,38,191,41,6*69
$GPGSV,2,2,05,17,76,030,40,6*56
$GPGSV,2,1,05,02,07,264,,11,11,258,,12,04,326,,19,60,327,,0*61
$GPGSV,2,2,05,19,60,327,,0*58
$GLGSV,2,1,08,65,17,168,35,71,35,051,49,72,46,118,36,76,07,200,37,1*7C
$GLGSV,2,2,08,77,30,244,13,78,25,308,18,87,52,348,17,88,23,298,17,1*7C
$GLGSV,2,1,06,65,17,168,25,71,35,051,32,72,46,118,32,77,30,244,13,3*7A
$GLGSV,2,2,06,78,25,308,10,88,23,298,09,3*75
$GLGSV,1,1,01,86,27,069,,0*4C
$GAGSV,2,1,05,02,45,218,44,05,15,151,26,09,27,099,34,11,16,069,29,2*70
$GAGSV,2,2,05,36,58,033,44,2*4B
$GAGSV,2,1,06,02,45,218,43,05,15,151,36,09,27,099,28,11,16,069,39,7*7C
$GAGSV,2,2,06,30,39,293,09,36,58,033,45,7*74
$GAGSV,2,1,06,04,12,047,,15,04,265,,18,38,305,,25,12,176,,0*74
$GAGSV,2,2,06,25,12,176,,27,01,331,,0*73
$GBGSV,3,1,09,03,44,206,40,04,35,132,35,07,71,221,42,08,52,248,24,1*7B
$GBGSV,3,2,09,11,45,077,39,14,50,137,46,21,18,042,43,34,27,093,35,1*77
$GBGSV,3,3,09,37,19,283,22,1*4A
$GBGSV,2,1,06,03,44,206,42,04,35,132,33,07,71,221,36,10,68,261,22,3*7D
$GBGSV,2,2,06,11,45,077,42,14,50,137,46,3*72
$GBGSV,2,1,05,05,08,255,,12,01,100,,13,42,245,,23,18,231,,0*72
$GBGSV,2,2,05,23,18,231,,0*4A
$GNRMC,040918.00,A,3727.0265476,N,12639.2510563,E,0.019,,220622,,,F,V*15
$GNVTG,,T,,M,0.019,N,0.036,K,D*35
$GNGNS,040918.00,3727.0265476,N,12639.2510563,E,FFFF,28,0.73,23.126,17.837,44.0,4095,V*3C
$GNGGA,040918.00,3727.0265476,N,12639.2510563,E,5,12,0.73,23.126,M,17.837,M,44.0,4095*61
$GNGSA,A,3,04,06,17,03,14,01,41,09,,,,,1.40,0.73,1.19,1*06
$GNGSA,A,3,71,88,87,65,72,78,,,,,,,1.40,0.73,1.19,2*0A
$GNGSA,A,3,09,11,02,36,05,,,,,,,,1.40,0.73,1.19,3*00
$GNGSA,A,3,37,14,34,03,08,11,07,04,21,,,,1.40,0.73,1.19,4*01
$GPGSV,3,1,10,01,16,063,39,03,43,051,47,04,18,104,32,06,45,279,11,1*6F
$GPGSV,3,2,10,09,15,136,37,14,38,191,43,17,76,030,45,28,,,44,1*56
$GPGSV,3,3,10,41,27,238,32,50,43,151,43,1*6D
$GPGSV,2,1,05,01,16,063,33,03,43,051,37,04,18,104,34,14,38,191,42,6*6C
$GPGSV,2,2,05,17,76,030,40,6*56
$GPGSV,2,1,05,02,07,264,,11,11,258,,12,04,326,,19,60,327,,0*61
$GPGSV,2,2,05,19,60,327,,0*58
$GLGSV,2,1,08,65,17,168,35,71,35,051,49,72,46,118,39,76,06,200,37,1*72
$GLGSV,2,2,08,77,30,244,16,78,25,308,18,87,52,348,18,88,23,298,17,1*76
$GLGSV,2,1,06,65,17,168,24,71,35,051,33,72,46,118,32,77,30,244,08,3*70
$GLGSV,2,2,06,78,25,308,07,88,23,298,09,3*73
$GLGSV,1,1,01,86,27,069,,0*4C
$GAGSV,2,1,05,02,45,218,44,05,15,151,27,09,27,099,34,11,16,069,30,2*79
$GAGSV,2,2,05,36,58,033,44,2*4B
$GAGSV,2,1,06,02,45,218,43,05,15,151,35,09,27,099,29,11,16,069,40,7*70
$GAGSV,2,2,06,30,39,293,09,36,58,033,45,7*74
$GNRMC,040919.00,A,3727.0265481,N,12639.2510487,E,0.030,,220622,,,F,V*1C
$GNVTG,,T,,M,0.030,N,0.056,K,D*38
$GNGNS,040919.00,3727.0265481,N,12639.2510487,E,FFFF,28,0.69,23.121,17.837,45.0,4095,V*33
$GNGGA,040919.00,3727.0265481,N,12639.2510487,E,5,12,0.69,23.121,M,17.837,M,45.0,4095*6E
$GNGSA,A,3,04,17,03,14,01,41,09,,,,,,1.34,0.69,1.16,1*07
$GNGSA,A,3,77,71,88,87,65,72,78,,,,,,1.34,0.69,1.16,2*0D
$GNGSA,A,3,09,11,02,36,05,,,,,,,,1.34,0.69,1.16,3*07
$GPGSV,3,1,10,01,16,063,39,03,43,051,47,04,18,104,31,06,45,279,09,1*65
$GPGSV,3,2,10,09,15,136,36,14,38,191,42,17,76,030,45,28,,,44,1*56
$GPGSV,3,3,10,41,27,238,33,50,43,151,43,1*6C
$GPGSV,2,1,05,01,16,063,34,03,43,051,36,04,18,104,35,14,38,191,42,6*6B
$GPGSV,2,2,05,17,76,030,40,6*56
$GPGSV,2,1,05,02,07,264,,11,11,258,,12,04,326,,19,60,327,,0*61
$GPGSV,2,2,05,19,60,327,,0*58
$GLGSV,2,1,08,65,17,168,36,71,35,051,49,72,46,118,39,76,06,200,37,1*71
$GLGSV,2,2,08,77,29,243,14,78,25,308,16,87,52,348,19,88,23,298,20,1*70
$GLGSV,2,1,06,65,17,168,24,71,35,051,33,72,46,118,33,77,29,243,11,3*76
$GLGSV,2,2,06,78,25,308,10,88,23,298,12,3*7F
$GLGSV,1,1,01,86,27,069,,0*4C
$GAGSV,2,1,05,02,45,218,44,05,15,151,27,09,27,099,34,11,16,069,30,2*79
$GAGSV,2,2,05,36,58,033,44,2*4B
$GAGSV,2,1,06,02,45,218,42,05,15,151,34,09,27,099,29,11,16,069,39,7*7E
$GAGSV,2,2,06,30,39,293,10,36,58,033,45,7*7C
$GAGSV,2,1,06,04,12,047,,15,04,265,,18,38,305,,25,12,176,,0*7$GAGSV,2,2,06,25,12,176,,27,01,331,,0*73
$GBGSV,3,1,09,03,44,206,40,04,35,132,32,07,71,221,42,08,52,248,24,1*7C
$GBGSV,3,2,09,11,45,077,39,14,50,137,46,21,18,042,41,34,27,093,34,1*74
$GBGSV,3,3,09,37,19,283,21,1*49
$GBGSV,2,1,06,03,44,206,41,04,35,132,34,07,71,221,36,10,68,261,22,3*79
$GBGSV,2,2,06,11,45,077,42,14,50,137,46,3*72
$GBGSV,2,1,05,05,08,255,,12,01,100,,13,42,245,,23,18,231,,0*72
$GBGSV,2,2,05,23,18,231,,0*4A
$GNRMC,040920.00,A,3727.0265483,N,12639.2510399,E,0.025,,220622,,,F,V*18
$GNVTG,,T,,M,0.025,N,0.046,K,D*3D
$GNGNS,040920.00,3727.0265483,N,12639.2510399,E,FFFF,28,0.87,23.122,17.837,46.0,4095,V*33
$GNGGA,040920.00,3727.0265483,N,12639.2510399,E,5,12,0.87,23.122,M,17.837,M,46.0,4095*6E
$GNGSA,A,3,04,17,03,14,01,06,41,09,,,,,1.57,0.87,1.30,1*00
$GNGSA,A,3,77,71,88,87,65,72,78,,,,,,1.57,0.87,1.30,2*0C
$GNGSA,A,3,09,11,02,36,05,,,,,,,,1.57,0.87,1.30,3*06
$GNGSA,A,3,37,14,34,03,11,07,04,21,,,,,1.57,0.87,1.30,4*0F
$GPGSV,3,1,10,01,16,063,39,03,43,051,46,04,18,104,31,06,45,279,10,1*6C
$GPGSV,3,2,10,09,15,136,36,14,38,191,42,17,76,030,45,28,,,44,1*56
$GPGSV,3,3,10,41,27,238,33,50,43,151,43,1*6C
$GPGSV,2,1,05,01,16,063,34,03,43,051,37,04,18,104,35,14,38,191,43,6*6B
$GPGSV,2,2,05,17,76,030,41,6*57
$GPGSV,2,1,05,02,07,264,,11,11,258,,12,04,326,,19,60,327,,0*61
$GPGSV,2,2,05,19,60,327,,0*58
$GLGSV,2,1,08,65,17,168,36,71,35,051,49,72,46,118,39,76,06,200,36,1*70
$GLGSV,2,2,08,77,29,243,12,78,26,307,14,87,52,348,20,88,23,298,19,1*78
$GLGSV,2,1,06,65,17,168,24,71,35,051,33,72,46,118,33,77,29,243,12,3*75
$GLGSV,2,2,06,78,26,307,10,88,23,298,09,3*79
$GLGSV,1,1,01,86,27,069,,0*4C
$GAGSV,2,1,05,02,45,218,45,05,15,151,27,09,27,099,34,11,16,069,30,2*78
$GAGSV,2,2,05,36,58,033,44,2*4B
$GAGSV,2,1,06,02,45,218,43,05,15,151,34,09,27,099,29,11,16,069,39,7*7F
$GAGSV,2,2,06,30,39,293,10,36,58,033,45,7*7C
$GAGSV,2,1,06,04,12,047,,15,04,265,,18,38,305,,25,12,176,,0*74
$GAGSV,2,2,06,25,12,176,,27,01,331,,0*73
$GBGSV,3,1,09,03,44,206,41,04,35,132,33,07,71,221,42,08,52,248,24,1*7C
$GBGSV,3,2,09,11,45,077,39,14,50,137,46,21,18,042,42,34,27,093,33,1*70
$GBGSV,3,3,09,37,19,283,21,1*49
$GBGSV,2,1,06,03,44,206,41,04,35,132,34,07,71,221,36,10,68,261,22,3*79
$GBGSV,2,2,06,11,45,077,42,14,50,137,46,3*72
$GBGSV,2,1,05,05,08,255,,12,01,100,,13,42,245,,23,18,231,,0*72
$GBGSV,2,2,05,23,18,231,,0*4A
$GNRMC,040921.00,A,3727.0265517,N,12639.2510265,E,0.025,,220622,,,F,V*17
$GNVTG,,T,,M,0.025,N,0.046,K,D*3D
$GNGNS,040921.00,3727.0265517,N,12639.2510265,E,FFFF,28,0.73,23.112,17.837,47.0,4095,V*35
$GNGSA,A,3,04,17,03,14,01,06,41,09,,,,,1.40,0.73,1.19,1*06
$GNGSA,A,3,77,71,88,87,65,72,78,,,,,,1.40,0.73,1.19,2*0A
$GNGSA,A,3,09,11,02,36,05,,,,,,,,1.40,0.73,1.19,3*00
$GNGSA,A,3,37,14,34,03,11,07,04,21,,,,,1.40,0.73,1.19,4*09
$GPGSV,3,1,10,01,16,063,39,03,43,051,46,04,18,104,31,06,45,279,12,1*6E
$GPGSV,3,2,10,09,15,136,35,14,38,191,43,17,76,030,45,28,,,44,1*54
$GPGSV,3,3,10,41,27,238,32,50,43,151,42,1*6C
$GPGSV,2,1,05,01,16,063,34,03,43,051,37,04,18,104,35,14,38,191,43,6*6B
$GPGSV,2,2,05,17,76,030,41,6*57
$GPGSV,2,1,05,02,07,264,,11,11,258,,12,04,326,,19,60,327,,0*61
$GPGSV,2,2,05,19,60,327,,0*58
$GLGSV,2,1,08,65,17,168,36,71,35,051,48,72,46,118,40,76,06,200,36,1*7F
$GLGSV,2,2,08,77,29,243,07,78,26,307,17,87,52,348,22,88,23,298,17,1*73
$GLGSV,2,1,06,65,17,168,25,71,35,051,33,72,46,118,34,77,29,243,13,3*72
$GLGSV,2,2,06,78,26,307,10,88,23,298,10,3*71
$GLGSV,1,1,01,86,27,069,,0*4C
$GAGSV,2,1,05,02,45,218,$GAGSV,2,2,05,36,58,033,44,2*4B
$GAGSV,2,1,06,02,45,218,43,05,15,151,35,09,27,099,28,11,16,069,40,7*71
$GAGSV,2,2,06,30,39,293,10,36,58,033,45,7*7C
$GAGSV,2,1,06,04,12,047,,15,04,265,,18,38,305,,25,12,176,,0*74
$GAGSV,2,2,06,25,12,176,,27,01,331,,0*73
$GBGSV,3,1,09,03,44,206,40,04,35,132,33,07,71,221,42,08,52,248,25,1*7C
$GBGSV,3,2,09,11,45,077,38,14,50,137,47,21,18,042,42,34,27,093,33,1*70
$GBGSV,3,3,09,37,19,283,22,1*4A
$GBGSV,2,1,06,03,44,206,42,04,35,132,33,07,71,221,36,10,68,261,22,3*7D
$GBGSV,2,2,06,11,45,077,42,14,50,137,46,3*72
$GBGSV,2,1,05,05,08,255,,12,01,100,,13,42,245,,23,18,231,,0*72
$GBGSV,2,2,05,23,18,231,,0*4A
$GNRMC,040922.00,A,3727.0265540,N,12639.2510131,E,0.026,,220622,,,F,V*17
$GNVTG,,T,,M,0.026,N,0.048,K,D*30
$GNGNS,040922.00,3727.0265540,N,12639.2510131,E,FFFF,28,0.69,23.104,17.837,48.0,4095,V*35
$GNGGA,040922.00,3727.0265540,N,12639.2510131,E,5,12,0.69,23.104,M,17.837,M,48.0,4095*68
$GNGSA,A,3,04,17,03,14,01,06,41,09,,,,,1.34,0.69,1.16,1*01
$GNGSA,A,3,77,71,88,87,65,72,78,,,,,,1.34,0.69,1.16,2*0D
$GNGSA,A,3,09,11,02,36,05,,,,,,,,1.34,0.69,1.16,3*07
$GNGSA,A,3,37,14,34,03,11,07,04,21,,,,,1.34,0.69,1.16,4*0E
$GPGSV,3,1,10,01,16,063,37,03,43,051,46,04,18,104,31,06,45,279,15,1*67
$GPGSV,3,2,10,09,15,136,36,14,38,191,42,17,76,030,46,28,,,44,1*55
$GPGSV,3,3,10,41,27,238,32,50,43,151,42,1*6C
$GPGSV,2,1,05,01,16,063,35,03,43,051,38,04,18,104,35,14,38,191,42,6*64
$GPGSV,2,2,05,17,76,030,41,6*57
$GPGSV,2,1,05,02,07,264,,11,11,258,,12,04,326,,19,60,327,,0*61
$GPGSV,2,2,05,19,60,327,,0*58
$GLGSV,2,1,08,65,17,168,37,71,35,051,49,72,46,118,38,76,06,200,33,1*75
$GLGSV,2,2,08,77,29,243,12,78,26,307,20,87,52,348,22,88,23,298,13,1*77
$GLGSV,2,1,06,65,17,168,24,71,35,051,32,72,46,118,34,77,29,243,11,3*70
$GLGSV,2,2,06,78,26,307,12,88,23,298,08,3*7A
$GLGSV,1,1,01,86,27,069,,0*4C
$GAGSV,2,1,05,02,45,218,44,05,15,151,28,09,27,099,33,11,16,069,30,2*71
$GAGSV,2,2,05,36,58,033,44,2*4B
$GAGSV,2,1,06,02,45,218,43,05,15,151,36,09,27,099,29,11,16,069,39,7*7D
$GAGSV,2,2,06,30,39,293,10,36,58,033,45,7*7C
$GAGSV,2,1,06,04,12,047,,15,04,265,,18,38,305,,25,12,176,,0*74
