$GNRMC,040444.00,A,3727.0443711,N,12639.2334075,E,0.058,,220622,,,F,V*16
$GNVTG,,T,,M,0.058,N,0.108,K,D*3C
$GNGNS,040444.00,3727.0443711,N,12639.2334075,E,FFFF,29,0.64,18.362,17.836,2.0,4095,V*04
$GNGGA,040444.00,3727.0443711,N,12639.2334075,E,5,12,0.64,18.362,M,17.836,M,2.0,4095*58
$GNGSA,A,3,06,17,04,03,14,01,19,41,,,,,1.27,0.64,1.10,1*09
$GNGSA,A,3,78,87,88,65,71,,,,,,,,1.27,0.64,1.10,2*01
$GNGSA,A,3,30,11,09,34,02,04,36,,,,,,1.27,0.64,1.10,3*0B
$GNGSA,A,3,37,23,13,08,11,07,28,10,03,21,,,1.27,0.64,1.10,4*01
$GPGSV,2,1,08,03,45,052,43,04,17,105,21,06,44,277,34,14,40,191,44,1*63
$GPGSV,2,2,08,17,76,023,44,19,58,326,47,28,,,43,41,27,238,33,1*5F
$GPGSV,2,1,06,01,17,062,26,03,45,052,38,04,17,105,22,06,44,277,25,6*6A
$GPGSV,2,2,06,14,40,191,33,17,76,023,40,6*6F
$GPGSV,2,1,05,02,06,263,,09,13,138,,11,09,257,,12,03,327,,0*6E
$GPGSV,2,2,05,12,03,327,,0*56
$GLGSV,2,1,08,65,14,169,23,71,36,054,42,72,43,122,14,76,08,201,43,1*75
$GLGSV,2,2,08,77,32,246,16,78,25,310,37,87,51,345,38,88,22,297,33,1*76
$GLGSV,2,1,07,65,14,169,17,71,36,054,31,72,43,122,13,76,08,201,36,3*7E
$GLGSV,2,2,07,77,32,246,21,78,25,310,29,88,22,297,39,3*48
$GLGSV,1,1,02,70,01,019,,86,28,067,,0*70
$GAGSV,2,1,08,02,46,219,42,04,12,048,29,09,26,100,24,11,17,068,36,2*76
$GAGSV,2,2,08,18,37,304,36,30,39,295,32,34,47,288,36,36,60,029,47,2*7F
$GAGSV,2,1,07,02,46,219,40,09,26,100,30,11,17,068,34,18,37,304,34,7*74
$GAGSV,2,2,07,30,39,295,29,34,47,288,34,36,60,029,45,7*40
$GAGSV,1,1,02,15,03,264,,25,14,176,,0*73
$GBGSV,3,1,09,03,44,206,33,07,72,222,39,08,51,246,37,10,69,263,39,1*7B
$GBGSV,3,2,09,13,42,243,40,21,20,044,19,23,20,233,32,28,36,301,40,1*7B
$GBGSV,3,3,09,37,20,285,37,1*42
$GBGSV,2,1,06,03,44,206,34,07,72,222,35,08,51,246,32,10,69,263,32,3*72
$GBGSV,2,2,06,11,46,074,28,13,42,243,35,3*7E
$GBGSV,1,1,04,04,35,132,,12,02,098,,25,00,190,,34,28,091,,0*7B
$GNRMC,040445.00,A,3727.0443686,N,12639.2334165,E,0.002,,220622,,,F,V*17
$GNVTG,,T,,M,0.002,N,0.004,K,D*3E
$GNGNS,040445.00,3727.0443686,N,12639.2334165,E,FFFF,28,0.65,18.310,17.836,2.0,4095,V*0F
$GNGGA,040445.00,3727.0443686,N,12639.2334165,E,5,12,0.65,18.310,M,17.836,M,2.0,4095*52
$GNGSA,A,3,06,17,04,03,14,01,19,41,,,,,1.25,0.65,1.07,1*0C
$GNGSA,A,3,78,87,88,65,71,,,,,,,,1.25,0.65,1.07,2*04
$GNGSA,A,3,30,11,09,34,02,04,36,,,,,,1.25,0.65,1.07,3*0E
$GNGSA,A,3,37,23,13,08,11,07,28,10,03,21,,,1.25,0.65,1.07,4*04
$GPGSV,2,1,08,03,45,052,43,04,17,105,19,06,44,277,32,14,40,191,45,1*6F
$GPGSV,2,2,08,17,76,023,44,19,58,326,47,28,,,44,41,27,238,33,1*58
$GPGSV,2,1,06,01,17,062,27,03,45,052,38,04,17,105,22,06,44,277,25,6*6B
$GPGSV,2,2,06,14,40,191,33,17,76,023,40,6*6F
$GPGSV,2,1,05,02,06,263,,09,13,138,,11,09,257,,12,03,327,,0*6E
$GPGSV,2,2,05,12,03,327,,0*56
$GLGSV,2,1,08,65,14,169,25,71,36,054,43,72,43,122,19,76,08,201,43,1*7F
$GLGSV,2,2,08,77,32,246,17,78,25,310,37,87,51,345,40,88,22,297,33,1*78
$GLGSV,2,1,07,65,14,169,17,71,36,054,32,72,43,122,10,76,08,201,36,3*7E
$GLGSV,2,2,07,77,32,246,20,78,25,310,31,88,22,297,40,3*4E
$GLGSV,1,1,02,70,01,019,,86,28,067,,0*70
$GAGSV,2,1,08,02,46,219,41,04,12,048,31,09,26,100,24,11,17,068,36,2*7C
$GAGSV,2,2,08,18,37,304,36,30,39,295,31,34,47,288,33,36,60,029,47,2*79
$GAGSV,2,1,07,02,46,219,42,09,26,100,29,11,17,068,34,18,37,304,32,7*78
$GAGSV,2,2,07,30,39,295,34,34,47,288,31,36,60,029,46,7*4A
$GAGSV,1,1,02,15,03,264,,25,13,176,,0*74
$GBGSV,3,1,09,03,44,206,33,07,72,222,37,08,51,246,38,10,69,263,38,1*7B
$GBGSV,3,2,09,13,42,243,40,21,20,044,20,23,20,233,32,28,36,301,38,1*7E
$GBGSV,3,3,09,37,20,285,35,1*40
$GBGSV,2,1,06,03,44,206,35,07,72,222,38,08,51,246,31,10,69,263,33,3*7C
$GBGSV,2,2,06,11,46,074,27,13,42,243,38,3*7C
$GBGSV,1,1,04,04,35,132,,12,02,098,,25,00,190,,34,28,091,,0*7B
$GNRMC,040446.00,A,3727.0443553,N,12639.2334450,E,0.049,,220622,,,F,V*13
$GNVTG,,T,,M,0.049,N,0.091,K,D*3D
$GNGNS,040446.00,3727.0443553,N,12639.2334450,E,FFFF,30,0.59,18.271,17.836,2.0,4095,V*04
$GNGGA,040446.00,3727.0443553,N,12639.2334450,E,5,12,0.59,18.271,M,17.836,M,2.0,4095*50
$GNGSA,A,3,06,17,04,03,14,01,19,41,,,,,1.16,0.59,1.00,1*04
$GNGSA,A,3,78,87,88,65,71,,,,,,,,1.16,0.59,1.00,2*0C
$GNGSA,A,3,30,11,09,34,02,04,36,,,,,,1.16,0.59,1.00,3*06
$GNGSA,A,3,37,23,13,08,11,07,28,10,03,21,,,1.16,0.59,1.00,4*0C
$GPGSV,2,1,08,03,45,052,43,04,17,105,21,06,44,277,34,14,40,191,45,1*62
$GPGSV,2,2,08,17,76,023,44,19,58,326,47,28,,,45,41,27,238,33,1*59
$GPGSV,2,1,06,01,17,062,28,03,45,052,38,04,17,105,21,06,44,277,26,6*64
$GPGSV,2,2,06,14,40,191,33,17,76,023,40,6*6F
$GPGSV,2,1,05,02,06,263,,09,13,138,,11,09,257,,12,03,327,,0*6E
$GPGSV,2,2,05,12,03,327,,0*56
$GLGSV,2,1,08,65,14,169,25,71,36,054,43,72,43,122,21,76,08,201,41,1*76
$GLGSV,2,2,08,77,32,246,18,78,25,310,37,87,51,345,37,88,22,297,33,1*77
$GLGSV,2,1,07,65,14,169,17,71,36,054,33,72,43,122,11,76,08,201,36,3*7E
$GLGSV,2,2,07,77,32,246,20,78,25,310,31,88,22,297,40,3*4E
$GLGSV,1,1,02,70,01,019,,86,28,067,,0*70
$GAGSV,2,1,08,02,46,219,40,04,12,048,31,09,26,100,23,11,17,068,35,2*79
$GAGSV,2,2,08,18,37,304,37,30,39,295,33,34,47,288,35,36,60,029,47,2*7C
$GAGSV,2,1,07,02,46,219,41,09,26,100,29,11,17,068,34,18,37,304,31,7*78
$GAGSV,2,2,07,30,39,295,33,34,47,288,33,36,60,029,46,7*4F
$GAGSV,1,1,03,15,03,264,,25,13,176,,27,00,331,,0*41
$GBGSV,3,1,09,03,44,206,33,07,72,222,39,08,51,246,38,10,69,263,39,1*74
$GBGSV,3,2,09,13,42,243,39,21,20,044,21,23,20,233,27,28,36,301,38,1*75
$GBGSV,3,3,09,37,20,285,35,1*40
$GBGSV,2,1,06,03,44,206,35,07,72,222,37,08,51,246,31,10,69,263,33,3*73
$GBGSV,2,2,06,11,46,074,26,13,42,243,38,3*7D
$GBGSV,1,1,04,04,35,132,,12,02,098,,25,00,190,,34,28,091,,0*7B
$GNRMC,040447.00,A,3727.0443432,N,12639.2334684,E,0.058,,220622,,,F,V*1F
$GNVTG,,T,,M,0.058,N,0.108,K,D*3C
$GNGNS,040447.00,3727.0443432,N,12639.2334684,E,FFFF,28,0.59,18.250,17.836,2.0,4095,V*02
$GNGGA,040447.00,3727.0443432,N,12639.2334684,E,5,12,0.59,18.250,M,17.836,M,2.0,4095*5F
$GNGSA,A,3,06,17,04,03,14,01,19,41,,,,,1.16,0.59,1.00,1*04
$GNGSA,A,3,78,87,88,65,71,,,,,,,,1.16,0.59,1.00,2*0C
$GNGSA,A,3,30,11,09,34,02,04,36,,,,,,1.16,0.59,1.00,3*06
$GNGSA,A,3,37,23,13,08,11,07,28,10,03,21,,,1.16,0.59,1.00,4*0C
$GPGSV,2,1,08,03,45,052,44,04,17,105,21,06,44,277,34,14,40,191,45,1*65
$GPGSV,2,2,08,17,76,023,44,19,58,326,47,28,,,45,41,27,238,33,1*59
$GPGSV,2,1,06,01,17,062,28,03,45,052,38,04,17,105,21,06,44,277,26,6*64
$GPGSV,2,2,06,14,40,191,34,17,76,023,40,6*68
$GPGSV,2,1,05,02,06,263,,09,13,138,,11,09,257,,12,03,327,,0*6E
$GPGSV,2,2,05,12,03,327,,0*56
$GLGSV,2,1,08,65,14,169,26,71,36,054,43,72,43,122,21,76,08,201,41,1*75
$GLGSV,2,2,08,77,32,246,18,78,25,310,37,87,51,345,35,88,22,297,33,1*75
$GLGSV,2,1,07,65,14,169,17,71,36,054,34,72,43,122,15,76,08,201,36,3*7D
$GLGSV,2,2,07,77,32,246,19,78,25,310,31,88,22,297,40,3*44
$GLGSV,1,1,02,70,01,019,,86,28,067,,0*70
$GAGSV,2,1,08,02,46,219,40,04,12,048,31,09,26,100,23,11,17,068,35,2*79
$GAGSV,2,2,08,18,37,304,36,30,39,294,34,34,47,288,34,36,60,029,46,2*7B
$GAGSV,2,1,07,02,46,219,41,09,26,100,29,11,17,068,34,18,37,304,31,7*78
$GAGSV,2,2,07,30,39,294,34,34,47,288,30,36,60,029,46,7*4A
$GAGSV,1,1,03,15,03,264,,25,13,176,,27,00,331,,0*41
$GBGSV,3,1,09,03,44,206,33,07,72,222,39,08,51,246,39,10,69,263,37,1*7B
$GBGSV,3,2,09,13,42,243,39,21,20,044,22,23,20,233,27,28,36,301,36,1*78
$GBGSV,3,3,09,37,20,285,35,1*40
$GBGSV,2,1,06,03,44,206,35,07,72,222,35,08,51,246,31,10,69,263,33,3*71
$GBGSV,2,2,06,11,46,074,24,13,42,243,37,3*70
$GBGSV,1,1,04,04,35,132,,12,02,098,,25,00,190,,34,28,091,,0*7B
$GNRMC,040448.00,A,3727.0443397,N,12639.2334814,E,0.033,,220622,,,F,V*12
$GNVTG,,T,,M,0.033,N,0.061,K,D*3F
$GNGNS,040448.00,3727.0443397,N,12639.2334814,E,FFFF,28,0.60,18.215,17.836,2.0,4095,V*09
$GNGGA,040448.00,3727.0443397,N,12639.2334814,E,5,12,0.60,18.215,M,17.836,M,2.0,4095*54
$GNGSA,A,3,06,17,04,03,14,01,19,41,,,,,1.17,0.60,1.00,1*0F
$GNGSA,A,3,78,87,88,65,71,,,,,,,,1.17,0.60,1.00,2*07
$GNGSA,A,3,30,11,09,34,02,04,36,,,,,,1.17,0.60,1.00,3*0D
$GNGSA,A,3,37,23,13,08,11,07,28,10,03,21,,,1.17,0.60,1.00,4*07
$GPGSV,2,1,08,03,45,052,45,04,17,105,23,06,44,277,37,14,40,191,44,1*64
$GPGSV,2,2,08,17,76,023,45,19,58,326,47,28,,,45,41,27,238,34,1*5F
$GPGSV,2,1,06,01,17,062,28,03,45,052,39,04,17,105,21,06,44,277,28,6*6B
$GPGSV,2,2,06,14,40,191,36,17,76,023,40,6*6A
$GPGSV,2,1,05,02,06,263,,09,13,138,,11,09,257,,12,03,327,,0*6E
$GPGSV,2,2,05,12,03,327,,0*56
$GLGSV,2,1,08,65,14,169,26,71,36,054,44,72,43,122,20,76,08,201,42,1*70
$GLGSV,2,2,08,77,32,246,17,78,25,310,40,87,51,345,36,88,22,297,31,1*7B
$GLGSV,2,1,07,65,14,169,17,71,36,054,33,72,43,122,17,76,08,201,36,3*78
$GLGSV,2,2,07,77,32,246,18,78,25,310,31,88,22,297,40,3*45
$GLGSV,1,1,02,70,01,019,,86,28,067,,0*70
$GAGSV,2,1,08,02,46,219,40,04,12,048,31,09,26,100,22,11,17,068,35,2*78
$GAGSV,2,2,08,18,37,304,36,30,39,294,37,34,47,288,34,36,60,029,46,2*78
$GAGSV,2,1,07,02,46,219,41,09,26,100,29,11,17,068,34,18,37,304,30,7*79
$GAGSV,2,2,07,30,39,294,32,34,47,288,34,36,60,029,46,7*48
$GAGSV,1,1,03,15,03,264,,25,13,176,,27,00,331,,0*41
$GBGSV,3,1,09,03,44,206,33,07,72,222,38,08,51,246,37,10,69,263,39,1*7A
$GBGSV,3,2,09,13,42,243,39,21,20,044,25,23,20,233,26,28,36,301,36,1*7E
$GBGSV,3,3,09,37,20,285,34,1*41
$GBGSV,2,1,06,03,44,206,34,07,72,222,35,08,51,246,30,10,69,263,33,3*71
$GBGSV,2,2,06,11,46,074,24,13,42,243,37,3*70
$GBGSV,1,1,04,04,35,132,,12,02,098,,25,00,190,,34,28,091,,0*7B
$GNRMC,040449.00,A,3727.0443499,N,12639.2334770,E,0.028,,220622,,,F,V*1D
$GNVTG,,T,,M,0.028,N,0.052,K,D*35
$GNGNS,040449.00,3727.0443499,N,12639.2334770,E,FFFF,29,0.67,18.178,17.836,2.0,4095,V*02
$GNGGA,040449.00,3727.0443499,N,12639.2334770,E,5,12,0.67,18.178,M,17.836,M,2.0,4095*5E
$GNGSA,A,3,06,17,04,03,14,01,19,41,,,,,1.27,0.67,1.08,1*03
$GNGSA,A,3,78,87,88,65,71,,,,,,,,1.27,0.67,1.08,2*0B
$GNGSA,A,3,30,11,09,34,02,04,36,,,,,,1.27,0.67,1.08,3*01
$GNGSA,A,3,37,23,13,08,11,07,28,10,03,21,,,1.27,0.67,1.08,4*0B
$GPGSV,3,1,09,01,17,062,25,03,45,052,45,04,17,105,25,06,44,277,39,1*60
$GPGSV,3,2,09,14,40,191,44,17,76,023,44,19,58,326,48,28,,,45,1*57
$GPGSV,3,3,09,41,27,238,34,1*53
$GPGSV,2,1,06,01,17,062,28,03,45,052,39,04,17,105,21,06,44,277,27,6*64
$GPGSV,2,2,06,14,40,191,35,17,76,023,38,6*66
$GPGSV,2,1,05,02,06,263,,09,13,138,,11,09,257,,12,03,327,,0*6E
$GPGSV,2,2,05,12,03,327,,0*56
$GLGSV,2,1,08,65,14,169,26,71,36,054,44,72,43,122,20,76,08,201,41,1*73
$GLGSV,2,2,08,77,32,246,18,78,25,310,40,87,51,345,40,88,22,297,31,1*75
$GLGSV,2,1,07,65,14,169,16,71,36,054,33,72,43,122,14,76,08,201,36,3*7A
$GLGSV,2,2,07,77,32,246,16,78,25,310,30,88,22,297,40,3*4A
$GLGSV,1,1,02,70,01,019,,86,28,067,,0*70
$GAGSV,2,1,08,02,46,219,40,04,12,048,32,09,26,100,23,11,17,068,36,2*79
$GAGSV,2,2,08,18,37,304,36,30,39,294,37,34,47,288,36,36,60,029,46,2*7A
$GAGSV,2,1,07,02,46,219,39,09,26,100,29,11,17,068,35,18,37,304,20,7*76
$GAGSV,2,2,07,30,39,294,32,34,47,288,34,36,60,029,46,7*48
$GAGSV,1,1,03,15,03,264,,25,13,176,,27,00,331,,0*41
$GBGSV,3,1,09,03,44,206,33,07,72,222,38,08,51,246,37,10,69,263,40,1*74
$GBGSV,3,2,09,13,42,243,37,21,20,044,30,23,20,233,26,28,36,301,35,1*77
$GBGSV,3,3,09,37,20,285,34,1*41
$GBGSV,2,1,06,03,44,206,34,07,72,222,35,08,51,246,30,10,69,263,33,3*71
$GBGSV,2,2,06,11,46,074,22,13,42,243,36,3*77
$GBGSV,1,1,04,04,35,132,,12,02,098,,25,00,190,,34,28,091,,0*7B
$GNRMC,040450.00,A,3727.0443252,N,12639.2335170,E,0.067,,220622,,,F,V*18
$GNVTG,,T,,M,0.067,N,0.125,K,D*3F
$GNGNS,040450.00,3727.0443252,N,12639.2335170,E,FFFF,29,0.59,18.145,17.836,2.0,4095,V*0F
$GNGGA,040450.00,3727.0443252,N,12639.2335170,E,5,12,0.59,18.145,M,17.836,M,2.0,4095*53
$GNGSA,A,3,06,17,04,03,14,01,19,41,,,,,1.16,0.59,1.00,1*04
$GNGSA,A,3,78,87,88,65,71,,,,,,,,1.16,0.59,1.00,2*0C
$GNGSA,A,3,30,11,09,34,02,04,36,,,,,,1.16,0.59,1.00,3*06
$GNGSA,A,3,37,23,13,08,11,07,28,10,03,21,,,1.16,0.59,1.00,4*0C
$GPGSV,3,1,09,01,17,062,25,03,45,052,46,04,17,105,25,06,44,277,39,1*63
$GPGSV,3,2,09,14,40,191,44,17,76,023,46,19,58,326,45,28,,,46,1*5B
$GPGSV,3,3,09,41,27,238,34,1*53
$GPGSV,2,1,06,01,17,062,28,03,45,052,38,04,17,105,22,06,44,277,27,6*66
$GPGSV,2,2,06,14,40,191,37,17,76,023,40,6*6B
$GPGSV,2,1,05,02,06,263,,09,13,138,,11,09,257,,12,03,327,,0*6E
$GPGSV,2,2,05,12,03,327,,0*56
$GLGSV,2,1,08,65,14,169,27,71,36,054,44,72,43,122,20,76,08,201,43,1*70
$GLGSV,2,2,08,77,32,246,18,78,25,310,38,87,51,345,36,88,22,297,33,1*79
$GLGSV,2,1,07,65,14,169,16,71,36,054,33,72,43,122,12,76,08,201,35,3*7F
$GLGSV,2,2,07,77,32,246,16,78,25,310,30,88,22,297,40,3*4A
$GLGSV,1,1,02,70,01,019,,86,28,067,,0*70
$GAGSV,2,1,08,02,46,219,43,04,12,048,30,09,26,100,24,11,17,068,33,2*7A
$GAGSV,2,2,08,18,37,304,32,30,39,294,37,34,47,289,36,36,60,029,47,2*7E
$GAGSV,2,1,07,02,46,219,41,09,26,100,29,11,17,068,35,18,37,304,34,7*7C
$GAGSV,2,2,07,30,39,294,35,34,47,289,28,36,60,029,46,7*43
$GAGSV,1,1,03,15,03,264,,25,13,176,,27,00,331,,0*41
$GBGSV,3,1,09,03,44,206,33,07,72,222,40,08,51,246,37,10,69,263,40,1*7B
$GBGSV,3,2,09,13,42,243,38,21,20,044,30,23,20,233,27,28,36,301,35,1*79
$GBGSV,3,3,09,37,20,285,36,1*43
$GBGSV,2,1,06,03,44,206,37,07,72,222,38,08,51,246,29,10,69,263,33,3*77
$GBGSV,2,2,06,11,46,074,25,13,42,243,36,3*70
$GBGSV,1,1,04,04,35,132,,12,02,098,,25,00,190,,34,28,091,,0*7B
$GNRMC,040451.00,A,3727.0443149,N,12639.2335392,E,0.036,,220622,,,F,V*1A
$GNVTG,,T,,M,0.036,N,0.067,K,D*3C
$GNGNS,040451.00,3727.0443149,N,12639.2335392,E,FFFF,29,0.63,18.076,17.836,3.0,4095,V*00
$GNGGA,040451.00,3727.0443149,N,12639.2335392,E,5,12,0.63,18.076,M,17.836,M,3.0,4095*5C
$GNGSA,A,3,06,17,04,03,14,01,19,41,,,,,1.33,0.63,1.16,1*0D
$GNGSA,A,3,78,87,88,65,71,,,,,,,,1.33,0.63,1.16,2*05
$GNGSA,A,3,30,11,09,34,02,04,36,,,,,,1.33,0.63,1.16,3*0F
$GNGSA,A,3,37,23,13,08,11,07,28,10,03,21,,,1.33,0.63,1.16,4*05
$GPGSV,3,1,09,01,17,062,26,03,45,052,46,04,17,105,26,06,44,277,39,1*63
$GPGSV,3,2,09,14,40,191,44,17,76,023,46,19,58,326,48,28,,,46,1*56
$GPGSV,3,3,09,41,27,238,35,1*52
$GPGSV,2,1,06,01,17,062,27,03,45,052,39,04,17,105,22,06,44,277,28,6*67
$GPGSV,2,2,06,14,40,191,34,17,76,023,38,6*67
$GPGSV,2,1,05,02,06,263,,09,13,138,,11,09,257,,12,03,327,,0*6E
$GPGSV,2,2,05,12,03,327,,0*56
$GLGSV,2,1,08,65,14,169,27,71,36,054,44,72,43,122,19,76,08,201,43,1*7A
$GLGSV,2,2,08,77,32,246,18,78,25,310,41,87,51,345,37,88,22,297,34,1*71
$GLGSV,2,1,07,65,14,169,18,71,36,054,34,72,43,122,16,76,08,201,34,3*73
$GLGSV,2,2,07,77,32,246,14,78,25,310,29,88,22,297,40,3*40
$GLGSV,1,1,02,70,01,019,,86,28,067,,0*70
$GAGSV,2,1,08,02,46,219,42,04,12,048,30,09,26,100,24,11,17,068,34,2*7C
$GAGSV,2,2,08,18,37,304,32,30,39,294,38,34,47,289,35,36,59,030,46,2*71
$GAGSV,2,1,07,02,46,219,41,09,26,100,29,11,17,068,35,18,37,304,32,7*7A
$GAGSV,2,2,07,30,39,294,36,34,47,289,29,36,59,030,47,7*42
$GAGSV,1,1,03,15,03,264,,25,13,176,,27,00,331,,0*41
$GBGSV,3,1,09,03,44,206,34,07,72,222,38,08,51,246,37,10,69,263,39,1*7D
$GBGSV,3,2,09,13,42,243,35,21,20,044,31,23,20,233,32,28,36,301,35,1*71
$GBGSV,3,3,09,37,20,285,34,1*41
$GBGSV,2,1,06,03,44,206,36,07,72,222,37,08,51,246,28,10,69,263,31,3*7A
$GBGSV,2,2,06,11,46,074,25,13,42,243,36,3*70
$GBGSV,1,1,04,04,35,132,,12,02,098,,25,00,190,,34,28,091,,0*7B
$GNRMC,040452.00,A,3727.0443101,N,12639.2335570,E,0.029,,220622,,,F,V*11
$GNVTG,,T,,M,0.029,N,0.054,K,D*32
$GNGNS,040452.00,3727.0443101,N,12639.2335570,E,FFFF,29,0.57,18.047,17.836,4.0,4095,V*07
$GNGGA,040452.00,3727.0443101,N,12639.2335570,E,5,12,0.57,18.047,M,17.836,M,4.0,4095*5B
$GNGSA,A,3,06,17,04,03,14,01,19,41,,,,,1.13,0.57,0.98,1*0F
$GNGSA,A,3,78,87,88,65,71,,,,,,,,1.13,0.57,0.98,2*07
$GNGSA,A,3,30,11,09,34,02,04,36,,,,,,1.13,0.57,0.98,3*0D
$GNGSA,A,3,37,23,13,08,11,07,28,10,03,21,,,1.13,0.57,0.98,4*07
$GPGSV,3,1,09,01,17,062,26,03,45,052,46,04,17,105,28,06,44,277,39,1*6D
$GPGSV,3,2,09,14,40,191,44,17,76,023,46,19,58,326,48,28,,,47,1*57
$GPGSV,3,3,09,41,27,238,35,1*52
$GPGSV,2,1,06,01,17,062,27,03,45,052,39,04,17,105,22,06,44,277,28,6*67
$GPGSV,2,2,06,14,40,191,33,17,76,023,39,6*61
$GPGSV,2,1,05,02,06,263,,09,13,138,,11,09,257,,12,03,327,,0*6E
$GPGSV,2,2,05,12,03,327,,0*56
$GLGSV,2,1,08,65,14,169,28,71,36,054,44,72,43,122,18,76,08,201,43,1*74
$GLGSV,2,2,08,77,32,246,20,78,25,310,41,87,51,345,37,88,22,297,35,1*7B
$GLGSV,2,1,07,65,14,169,17,71,36,054,34,72,43,122,18,76,08,201,32,3*74
$GLGSV,2,2,07,77,32,246,12,78,25,310,29,88,22,297,39,3*48
$GLGSV,1,1,02,70,01,019,,86,28,067,,0*70
$GAGSV,2,1,08,02,46,219,43,04,12,048,30,09,26,100,23,11,17,068,34,2*7A
$GAGSV,2,2,08,18,37,304,32,30,39,294,38,34,47,289,34,36,59,030,46,2*70
$GAGSV,2,1,07,02,46,219,41,09,26,100,30,11,17,068,35,18,37,304,31,7*71
$GAGSV,2,2,07,30,39,294,36,34,47,289,30,36,59,030,47,7*4A
$GAGSV,1,1,03,15,03,264,,25,13,176,,27,00,331,,0*41
$GBGSV,3,1,09,03,44,206,34,07,72,222,40,08,51,246,37,10,69,263,39,1*72
$GNRMC,040453.00,A,3727.0443599,N,12639.2335949,E,0.008,,220622,,,R,V*04
$GNVTG,,T,,M,0.008,N,0.014,K,D*35
$GNGNS,040453.00,3727.0443599,N,12639.2335949,E,RRRR,30,0.60,16.654,17.836,5.0,4095,V*02
$GNGGA,040453.00,3727.0443599,N,12639.2335949,E,4,12,0.60,16.654,M,17.836,M,5.0,4095*57
$GNGSA,A,3,06,17,04,03,14,01,19,41,,,,,1.16,0.60,0.99,1*0F
$GNGSA,A,3,78,87,88,65,71,,,,,,,,1.16,0.60,0.99,2*07
$GNGSA,A,3,30,11,09,34,02,04,36,,,,,,1.16,0.60,0.99,3*0D
$GNGSA,A,3,37,23,13,08,11,07,28,10,03,21,,,1.16,0.60,0.99,4*07
$GPGSV,3,1,09,01,17,062,25,03,45,052,45,04,17,105,28,06,44,277,39,1*6D
$GPGSV,3,2,09,14,40,191,45,17,76,023,46,19,58,326,48,28,,,47,1*56
$GPGSV,3,3,09,41,27,238,36,1*51
$GPGSV,2,1,06,01,17,062,27,03,45,052,39,04,17,105,22,06,44,277,29,6*66
$GPGSV,2,2,06,14,40,191,34,17,76,023,39,6*66
$GPGSV,2,1,05,02,06,263,,09,13,138,,11,09,257,,12,03,327,,0*6E
$GPGSV,2,2,05,12,03,327,,0*56
$GLGSV,2,1,08,65,14,169,27,71,36,054,45,72,43,122,16,76,08,201,43,1*74
$GLGSV,2,2,08,77,32,246,20,78,25,310,40,87,51,345,36,88,22,297,35,1*7B
$GLGSV,2,1,07,65,14,169,18,71,36,054,34,72,43,122,13,76,08,201,31,3*73
$GLGSV,2,2,07,77,32,246,12,78,25,310,28,88,22,297,39,3*49
$GLGSV,1,1,02,70,01,019,,86,28,067,,0*70
$GAGSV,2,1,08,02,46,219,43,04,12,048,30,09,26,100,23,11,17,068,34,2*7A
$GAGSV,2,2,08,18,37,304,32,30,39,294,39,34,47,289,34,36,59,030,46,2*71
$GAGSV,2,1,07,02,46,219,39,09,26,100,30,11,17,068,34,18,37,304,31,7*7F
$GAGSV,2,2,07,30,39,294,37,34,47,289,31,36,59,030,46,7*4B
$GAGSV,1,1,03,15,03,264,,25,13,176,,27,00,331,,0*41
$GBGSV,3,1,09,03,44,206,34,07,72,222,40,08,51,246,37,10,69,263,39,1*72
$GBGSV,3,2,09,13,42,243,37,21,20,044,33,23,20,233,32,28,36,302,37,1*70
$GBGSV,3,3,09,37,20,285,33,1*46
$GBGSV,2,1,06,03,44,206,36,07,72,222,37,08,51,246,27,10,69,263,31,3*75
$GBGSV,2,2,06,11,46,074,26,13,42,243,37,3*72
$GBGSV,1,1,04,04,35,132,,12,02,098,,25,00,190,,34,28,091,,0*7B
$GNRMC,040454.00,A,3727.0443722,N,12639.2335798,E,0.017,,220622,,,R,V*0D
$GNVTG,,T,,M,0.017,N,0.032,K,D*3F
$GNGNS,040454.00,3727.0443722,N,12639.2335798,E,RRRR,30,0.61,16.665,17.836,6.0,4095,V*05
$GNGGA,040454.00,3727.0443722,N,12639.2335798,E,4,12,0.61,16.665,M,17.836,M,6.0,4095*50
$GNGSA,A,3,06,17,04,03,14,01,19,41,,,,,1.23,0.61,1.07,1*0E
$GNGSA,A,3,78,87,88,65,71,,,,,,,,1.23,0.61,1.07,2*06
$GNGSA,A,3,30,11,09,34,02,04,36,,,,,,1.23,0.61,1.07,3*0C
$GNGSA,A,3,37,23,13,08,11,07,28,10,03,21,,,1.23,0.61,1.07,4*06
$GPGSV,2,1,08,03,45,052,45,04,17,105,30,06,44,277,40,14,40,191,46,1*64
$GPGSV,2,2,08,17,76,023,46,19,58,326,48,28,,,47,41,27,238,37,1*52
$GPGSV,2,1,06,01,17,062,27,03,45,052,40,04,17,105,21,06,44,277,29,6*6B
$GPGSV,2,2,06,14,40,191,34,17,76,023,39,6*66
$GPGSV,2,1,05,02,06,263,,09,13,138,,11,09,257,,12,03,327,,0*6E
$GPGSV,2,2,05,12,03,327,,0*56
$GLGSV,2,1,08,65,14,169,27,71,36,054,44,72,43,122,12,76,08,201,43,1*71
$GLGSV,2,2,08,77,32,246,20,78,25,310,40,87,51,345,39,88,22,297,33,1*72
$GLGSV,2,1,07,65,14,169,19,71,36,054,34,72,43,122,09,76,08,201,31,3*79
$GLGSV,2,2,07,77,32,246,12,78,25,310,26,88,22,297,38,3*46
$GLGSV,1,1,02,70,01,019,,86,28,067,,0*70
$GAGSV,2,1,08,02,46,219,43,04,12,048,30,09,26,100,23,11,17,068,34,2*7A
$GAGSV,2,2,08,18,37,304,33,30,39,294,39,34,47,289,34,36,59,030,46,2*70
$GAGSV,2,1,07,02,46,219,39,09,26,100,31,11,17,068,34,18,37,304,33,7*7C
$GAGSV,2,2,07,30,39,294,39,34,47,289,32,36,59,030,46,7*46
$GAGSV,1,1,03,15,03,264,,25,13,176,,27,00,331,,0*41
$GBGSV,3,1,09,03,44,206,34,07,71,222,41,08,51,246,38,10,69,263,40,1*71
$GBGSV,3,2,09,13,42,243,36,21,20,044,32,23,20,233,33,28,36,302,37,1*71
$GBGSV,3,3,09,37,20,285,32,1*47
$GNRMC,040455.00,A,3727.0443695,N,12639.2335782,E,0.066,,220622,,,R,V*0C
$GNVTG,,T,,M,0.066,N,0.122,K,D*39
$GNGNS,040455.00,3727.0443695,N,12639.2335782,E,RRRR,30,0.61,16.653,17.836,7.0,4095,V*06
$GNGGA,040455.00,3727.0443695,N,12639.2335782,E,4,12,0.61,16.653,M,17.836,M,7.0,4095*53
$GNGSA,A,3,06,17,04,03,14,01,19,41,,,,,1.19,0.61,1.02,1*02
$GNGSA,A,3,78,87,88,65,71,,,,,,,,1.19,0.61,1.02,2*0A
$GNGSA,A,3,30,11,09,34,02,04,36,,,,,,1.19,0.61,1.02,3*00
$GNGSA,A,3,37,23,13,08,11,07,28,10,03,21,,,1.19,0.61,1.02,4*0A
$GPGSV,3,1,09,01,17,062,30,03,45,052,44,04,17,105,29,06,44,277,38,1*68
$GPGSV,3,2,09,14,40,191,46,17,76,023,45,19,58,326,45,28,,,47,1*5B
$GPGSV,3,3,09,41,27,238,39,1*5E
$GPGSV,2,1,06,01,17,062,27,03,45,052,39,04,17,105,19,06,44,277,28,6*6F
$GPGSV,2,2,06,14,40,191,32,17,76,023,41,6*6F
$GPGSV,2,1,05,02,06,263,,09,13,138,,11,09,257,,12,03,327,,0*6E
$GPGSV,2,2,05,12,03,327,,0*56
$GLGSV,2,1,08,65,14,169,28,71,36,054,43,72,43,122,12,76,08,201,44,1*7E
$GLGSV,2,2,08,77,32,246,20,78,25,310,38,87,51,345,37,88,22,297,36,1*76
$GLGSV,2,1,07,65,14,169,19,71,36,054,33,72,43,122,06,76,08,201,28,3*79
$GLGSV,2,2,07,77,32,246,13,78,25,310,23,88,22,297,35,3*4F
$GLGSV,1,1,02,70,01,019,,86,28,067,,0*70
$GAGSV,2,1,08,02,46,219,44,04,12,048,31,09,26,100,25,11,17,068,36,2*78
$GAGSV,2,2,08,18,37,304,36,30,39,294,39,34,47,289,35,36,59,030,48,2*7A
$GAGSV,2,1,07,02,46,219,38,09,26,100,30,11,17,068,33,18,37,304,31,7*79
$GAGSV,2,2,07,30,39,294,37,34,47,289,32,36,59,030,45,7*4B
$GAGSV,1,1,03,15,03,264,,25,13,176,,27,00,331,,0*41
$GBGSV,3,1,09,03,44,206,35,07,71,222,42,08,52,247,38,10,69,263,42,1*73
$GBGSV,3,2,09,13,42,243,40,21,20,044,33,23,20,233,31,28,36,302,30,1*74
$GBGSV,3,3,09,37,20,285,32,1*47
$GBGSV,2,1,06,03,44,206,39,07,71,222,39,08,52,247,35,10,69,263,36,3*71
$GBGSV,2,2,06,11,46,074,26,13,42,243,39,3*7C
$GNRMC,040456.00,A,3727.0443736,N,12639.2335739,E,0.018,,220622,,,R,V*0E
$GNVTG,,T,,M,0.018,N,0.034,K,D*36
$GNGNS,040456.00,3727.0443736,N,12639.2335739,E,RRRR,29,0.57,16.643,17.836,8.0,4095,V*0E
$GNGGA,040456.00,3727.0443736,N,12639.2335739,E,4,12,0.57,16.643,M,17.836,M,8.0,4095*53
$GNGSA,A,3,06,17,04,03,14,01,19,41,,,,,1.13,0.57,0.98,1*0F
$GNGSA,A,3,78,87,88,65,71,,,,,,,,1.13,0.57,0.98,2*07
$GNGSA,A,3,30,11,09,34,02,04,36,,,,,,1.13,0.57,0.98,3*0D
$GNGSA,A,3,37,23,13,08,11,07,28,10,03,21,,,1.13,0.57,0.98,4*07
$GPGSV,3,1,09,01,17,062,29,03,45,052,44,04,17,105,28,06,44,277,41,1*6F
$GPGSV,3,2,09,14,40,191,46,17,76,023,45,19,58,326,46,28,,,46,1*59
$GPGSV,3,3,09,41,27,238,38,1*5F
$GPGSV,2,1,06,01,17,062,28,03,45,052,40,04,17,105,20,06,44,277,30,6*6D
$GPGSV,2,2,06,14,40,191,33,17,76,023,40,6*6F
$GPGSV,2,1,05,02,06,263,,09,13,138,,11,09,257,,12,03,327,,0*6E
$GPGSV,2,2,05,12,03,327,,0*56
$GLGSV,2,1,08,65,14,169,27,71,36,054,44,72,43,122,16,76,08,201,44,1*72
$GLGSV,2,2,08,77,32,246,22,78,25,310,38,87,51,345,40,88,22,297,36,1*74
$GLGSV,2,1,07,65,14,169,19,71,36,054,33,72,43,122,08,76,08,201,27,3*78
$GLGSV,2,2,07,77,32,246,17,78,25,310,24,88,22,297,38,3*41
$GLGSV,1,1,02,70,01,019,,86,28,067,,0*70
$GAGSV,2,1,08,02,46,219,43,04,12,048,32,09,26,100,25,11,17,068,35,2*7F
$GAGSV,2,2,08,18,37,304,35,30,39,294,38,34,47,289,35,36,59,030,46,2*76
$GAGSV,2,1,07,02,46,219,38,09,26,100,30,11,17,068,35,18,37,304,31,7*7F
$GAGSV,2,2,07,30,39,294,37,34,47,289,33,36,59,030,45,7*4A
$GAGSV,1,1,03,15,03,264,,25,13,176,,27,00,331,,0*41
$GBGSV,3,1,09,03,44,206,35,07,71,222,42,08,52,247,38,10,69,263,42,1*73
$GBGSV,3,2,09,13,42,243,40,21,20,044,33,23,20,233,30,28,36,302,30,1*75
$GBGSV,3,3,09,37,20,285,33,1*46
$GBGSV,2,1,06,03,44,206,35,07,71,222,38,08,52,247,31,10,69,263,35,3*7B
$GBGSV,2,2,06,11,46,074,26,13,42,243,37,3*72
$GNRMC,040457.00,A,3727.0443747,N,12639.2335749,E,0.012,,220622,,,R,V*04
$GNVTG,,T,,M,0.012,N,0.022,K,D*3B
$GNGNS,040457.00,3727.0443747,N,12639.2335749,E,RRRR,29,0.61,16.643,17.836,9.0,4095,V*0A
$GNGGA,040457.00,3727.0443747,N,12639.2335749,E,4,12,0.61,16.643,M,17.836,M,9.0,4095*57
$GNGSA,A,3,06,17,04,03,14,01,19,41,,,,,1.20,0.61,1.04,1*0E
$GNGSA,A,3,78,87,88,65,71,,,,,,,,1.20,0.61,1.04,2*06
$GNGSA,A,3,30,11,09,34,02,04,36,,,,,,1.20,0.61,1.04,3*0C
$GNGSA,A,3,37,23,13,08,11,07,28,10,03,21,,,1.20,0.61,1.04,4*06
$GPGSV,3,1,09,01,17,062,28,03,45,052,44,04,17,105,29,06,44,277,40,1*6E
$GPGSV,3,2,09,14,40,191,46,17,76,023,45,19,58,326,47,28,,,45,1*5B
$GPGSV,3,3,09,41,27,238,37,1*50
$GPGSV,2,1,06,01,17,062,29,03,45,052,40,04,17,105,21,06,44,277,29,6*65
$GPGSV,2,2,06,14,40,191,34,17,76,023,40,6*68
$GPGSV,2,1,05,02,06,263,,09,13,138,,11,09,257,,12,03,327,,0*6E
$GPGSV,2,2,05,12,03,327,,0*56
$GLGSV,2,1,08,65,14,169,28,71,36,054,44,72,43,122,20,76,08,201,44,1*78
$GLGSV,2,2,08,77,32,246,24,78,25,310,39,87,51,345,40,88,22,297,36,1*73
$GLGSV,2,1,07,65,14,169,19,71,36,054,34,72,43,122,10,76,08,201,29,3*78
$GLGSV,2,2,07,77,32,246,18,78,25,310,23,88,22,297,38,3*49
$GLGSV,1,1,02,70,01,019,,86,28,067,,0*70
$GAGSV,2,1,08,02,46,219,42,04,12,048,32,09,26,100,26,11,17,068,35,2*7D
$GAGSV,2,2,08,18,37,304,34,30,39,294,38,34,47,289,35,36,59,030,47,2*76
$GAGSV,2,1,07,02,46,219,36,09,26,100,30,11,17,068,34,18,37,304,30,7*71
$GAGSV,2,2,07,30,39,294,37,34,47,289,34,36,59,030,46,7*4E
$GAGSV,1,1,03,15,03,264,,25,13,176,,27,00,331,,0*41
$GBGSV,3,1,09,03,44,206,35,07,71,222,40,08,52,247,37,10,69,263,41,1*7D
$GBGSV,3,2,09,13,42,243,37,21,20,044,33,23,20,233,31,28,36,302,32,1*76
$GBGSV,3,3,09,37,20,285,33,1*46
$GBGSV,2,1,06,03,44,206,36,07,71,222,37,08,52,247,29,10,69,263,32,3*79
$GBGSV,2,2,06,11,46,074,25,13,42,243,37,3*71
$GBGSV,1,1,04,04,35,132,,12,02,098,,25,00,190,,34,28,091,,0*7B
$GNRMC,040458.00,A,3727.0444185,N,12639.2334983,E,0.003,,220622,,,R,V*0D
$GNVTG,,T,,M,0.003,N,0.006,K,D*3D
$GNGNS,040458.00,3727.0444185,N,12639.2334983,E,RRRR,30,0.62,16.693,17.836,10.0,4095,V*3D
$GNGGA,040458.00,3727.0444185,N,12639.2334983,E,4,12,0.62,16.693,M,17.836,M,10.0,4095*68
$GNGSA,A,3,06,17,04,03,14,01,19,41,,,,,1.18,0.62,1.01,1*03
$GNGSA,A,3,78,87,88,65,71,,,,,,,,1.18,0.62,1.01,2*0B
$GNGSA,A,3,30,11,09,34,02,04,36,,,,,,1.18,0.62,1.01,3*01
$GNGSA,A,3,37,23,13,08,11,07,28,10,03,21,,,1.18,0.62,1.01,4*0B
$GPGSV,3,1,09,01,17,062,27,03,45,052,44,04,17,105,30,06,44,277,40,1*69
$GPGSV,3,2,09,14,40,191,46,17,76,023,45,19,58,326,47,28,,,46,1*58
$GPGSV,3,3,09,41,27,238,37,1*50
$GPGSV,2,1,06,01,17,062,29,03,45,052,41,04,17,105,21,06,44,277,29,6*64
$GPGSV,2,2,06,14,40,191,34,17,76,023,41,6*69
$GPGSV,2,1,05,02,06,263,,09,13,138,,11,09,257,,12,03,327,,0*6E
$GPGSV,2,2,05,12,03,327,,0*56
$GLGSV,2,1,08,65,14,169,29,71,36,054,44,72,43,122,22,76,08,201,44,1*7B
$GLGSV,2,2,08,77,32,246,23,78,25,310,39,87,51,345,38,88,22,297,35,1*78
$GLGSV,2,1,07,65,14,169,20,71,36,054,34,72,43,122,11,76,08,201,32,3*79
$GLGSV,2,2,07,77,32,246,18,78,25,310,24,88,22,297,39,3*4F
$GLGSV,1,1,02,70,01,019,,86,28,067,,0*70
$GAGSV,2,1,08,02,46,219,43,04,12,048,32,09,26,100,26,11,17,068,34,2*7D
$GAGSV,2,2,08,18,37,304,34,30,39,294,40,34,47,289,35,36,59,030,47,2*79
$GAGSV,2,1,07,02,46,219,38,09,26,100,31,11,17,068,33,18,37,304,31,7*78
$GAGSV,2,2,07,30,39,294,36,34,47,289,34,36,59,030,46,7*4F
$GAGSV,1,1,03,15,03,264,,25,13,176,,27,00,331,,0*41
$GBGSV,3,1,09,03,44,206,34,07,71,222,40,08,52,247,37,10,69,263,42,1*7F
$GBGSV,3,2,09,13,42,243,36,21,20,044,33,23,20,233,34,28,36,302,35,1*75
$GBGSV,3,3,09,37,20,285,33,1*46
$GBGSV,2,1,06,03,44,206,37,07,71,222,37,08,52,247,21,10,69,263,33,3*71
$GBGSV,2,2,06,11,46,075,25,13,42,243,36,3*71
$GNRMC,040459.00,A,3727.0444197,N,12639.2334939,E,0.010,,220622,,,R,V*0C
$GNVTG,,T,,M,0.010,N,0.019,K,D*31
$GNGNS,040459.00,3727.0444197,N,12639.2334939,E,RRRR,29,0.63,16.689,17.836,11.0,4095,V*3D
$GNGGA,040459.00,3727.0444197,N,12639.2334939,E,4,12,0.63,16.689,M,17.836,M,11.0,4095*60
$GNGSA,A,3,06,17,04,03,14,01,19,41,,,,,1.21,0.63,1.04,1*0D
$GNGSA,A,3,78,87,88,65,71,,,,,,,,1.21,0.63,1.04,2*05
$GNGSA,A,3,30,11,09,34,02,04,36,,,,,,1.21,0.63,1.04,3*0F
$GNGSA,A,3,37,23,13,08,11,07,28,10,03,21,,,1.21,0.63,1.04,4*05
$GPGSV,3,1,09,01,17,062,27,03,45,052,44,04,17,105,30,06,44,277,41,1*68
$GPGSV,3,2,09,14,40,191,46,17,76,023,45,19,58,326,46,28,,,46,1*59
$GPGSV,3,3,09,41,27,238,37,1*50
$GPGSV,2,1,06,01,17,062,30,03,45,052,41,04,17,105,22,06,44,277,29,6*6F
$GPGSV,2,2,06,14,40,191,34,17,76,023,41,6*69
$GPGSV,2,1,05,02,06,263,,09,13,138,,11,09,257,,12,03,327,,0*6E
$GPGSV,2,2,05,12,03,327,,0*56
$GLGSV,2,1,08,65,14,169,29,71,36,054,44,72,43,122,20,76,08,201,44,1*79
$GLGSV,2,2,08,77,32,246,21,78,25,310,40,87,51,345,39,88,22,297,36,1*76
$GLGSV,2,1,07,65,14,169,20,71,36,054,34,72,43,122,10,76,08,201,33,3*79
$GLGSV,2,2,07,77,32,246,18,78,25,310,23,88,22,297,39,3*48
$GLGSV,1,1,02,70,01,019,,86,28,067,,0*70
$GAGSV,2,1,08,02,46,219,43,04,12,048,32,09,26,100,26,11,17,068,34,2*7D
$GAGSV,2,2,08,18,37,304,34,30,39,294,41,34,47,289,35,36,59,030,47,2*78
$GAGSV,2,1,07,02,46,219,37,09,26,100,31,11,17,068,33,18,37,304,33,7*75
$GAGSV,2,2,07,30,39,294,36,34,47,289,33,36,59,030,45,7*4B
$GAGSV,1,1,03,15,03,264,,25,13,176,,27,00,331,,0*41
$GBGSV,3,1,09,03,44,206,33,07,71,222,41,08,52,247,37,10,69,263,42,1*79
$GBGSV,3,2,09,13,42,243,37,21,20,044,33,23,20,233,33,28,36,302,35,1*73
$GBGSV,3,3,09,37,20,285,33,1*46
$GBGSV,2,1,06,03,44,206,36,07,71,222,37,08,52,247,23,10,69,263,34,3*75
$GBGSV,2,2,06,11,46,075,26,13,42,243,36,3*72
$GBGSV,1,1,04,04,35,132,,12,02,099,,25,00,190,,34,28,091,,0*7A
$GNRMC,040500.00,A,3727.0444196,N,12639.2334902,E,0.018,,220622,,,R,V*00
$GNVTG,,T,,M,0.018,N,0.032,K,D*30
$GNGNS,040500.00,3727.0444196,N,12639.2334902,E,RRRR,29,0.61,16.691,17.836,12.0,4095,V*31
$GLGSV,2,1,07,65,14,169,20,71,36,054,34,72,43,122,12,76,08,201,34,3*7C
$GLGSV,2,2,07,77,32,246,17,78,25,310,22,88,22,297,39,3*46
$GAGSV,2,1,08,02,46,219,43,04,12,048,32,09,26,100,27,11,17,068,34,2*7C
$GBGSV,3,1,09,03,44,206,33,07,71,222,40,08,52,247,37,10,69,263,42,1*78
$GBGSV,3,2,09,13,42,243,38,21,20,044,33,23,20,233,33,28,36,302,35,1*7C
$GBGSV,3,3,09,37,20,285,33,1*46
$GBGSV,2,1,06,03,44,206,36,07,71,222,37,08,52,247,26,10,69,263,33,3*77
$GNRMC,040501.00,A,3727.0444177,N,12639.2334936,E,0.008,,220622,,,R,V*08
$GNVTG,,T,,M,0.008,N,0.014,K,D*35
$GNGNS,040501.00,3727.0444177,N,12639.2334936,E,RRRR,30,0.59,16.679,17.836,13.0,4095,V*3C
$GNGGA,040501.00,3727.0444177,N,12639.2334936,E,4,12,0.59,16.679,M,17.836,M,13.0,4095*69
$GNGSA,A,3,06,17,04,03,14,01,19,41,,,,,1.15,0.59,0.98,1*07
$GNGSA,A,3,78,87,88,65,71,,,,,,,,1.15,0.59,0.98,2*0F
$GNGSA,A,3,30,11,09,34,02,04,36,,,,,,1.15,0.59,0.98,3*05
$GNGSA,A,3,37,23,13,08,11,07,28,10,03,21,,,1.15,0.59,0.98,4*0F
$GPGSV,3,1,09,01,17,062,26,03,45,052,45,04,17,105,29,06,44,277,39,1*6F
$GPGSV,3,2,09,14,40,191,44,17,76,023,45,19,58,326,47,28,,,46,1*5A
$GPGSV,3,3,09,41,27,238,37,1*50
$GPGSV,2,1,06,01,17,062,30,03,45,052,40,04,17,105,21,06,44,277,28,6*6C
$GPGSV,2,2,06,14,40,191,34,17,76,023,40,6*68
$GPGSV,2,1,05,02,06,263,,09,13,138,,11,09,257,,12,03,327,,0*6E
$GPGSV,2,2,05,12,03,327,,0*56
$GLGSV,2,1,08,65,14,169,28,71,36,054,43,72,43,122,15,76,08,201,43,1*7E
$GLGSV,2,2,08,77,32,246,20,78,25,310,41,87,51,345,42,88,22,297,37,1*7B
$GLGSV,2,1,07,65,14,169,20,71,36,054,34,72,43,122,11,76,08,201,35,3*7E
$GLGSV,2,2,07,77,32,246,17,78,25,310,21,88,22,297,40,3*4B
$GLGSV,1,1,02,70,01,019,,86,28,067,,0*70
$GAGSV,2,1,08,02,46,219,41,04,12,048,32,09,26,100,26,11,17,068,35,2*7E
$GAGSV,2,2,08,18,37,304,33,30,39,294,38,34,47,289,36,36,59,030,47,2*72
$GAGSV,2,1,07,02,46,219,39,09,26,100,30,11,17,068,33,18,37,304,33,7*7A
$GAGSV,2,2,07,30,39,294,30,34,47,289,33,36,59,030,46,7*4E
$GAGSV,1,1,03,15,03,264,,25,13,176,,27,00,331,,0*41
$GBGSV,3,1,09,03,44,206,33,07,71,222,39,08,52,247,36,10,69,263,42,1*77
$GBGSV,3,2,09,13,42,243,35,21,20,044,33,23,20,233,36,28,36,302,34,1*75
$GBGSV,3,3,09,37,20,285,33,1*46
$GBGSV,2,1,06,03,44,206,35,07,71,222,37,08,52,247,31,10,69,263,34,3*75
$GBGSV,2,2,06,11,46,075,22,13,42,243,35,3*75
$GBGSV,1,1,04,04,35,132,,12,02,099,,25,00,190,,34,28,091,,0*7A
$GNRMC,040502.00,A,3727.0444183,N,12639.2334922,E,0.018,,220622,,,R,V*04
$GNVTG,,T,,M,0.018,N,0.032,K,D*30
$GNGNS,040502.00,3727.0444183,N,12639.2334922,E,RRRR,30,0.61,16.673,17.836,14.0,4095,V*37
$GNGGA,040502.00,3727.0444183,N,12639.2334922,E,4,12,0.61,16.673,M,17.836,M,14.0,4095*62
$GNGSA,A,3,06,17,04,03,14,01,19,41,,,,,1.18,0.61,1.01,1*00
$GNGSA,A,3,78,87,88,65,71,,,,,,,,1.18,0.61,1.01,2*08
$GNGSA,A,3,30,11,09,34,02,04,36,,,,,,1.18,0.61,1.01,3*02
$GNGSA,A,3,37,23,13,08,11,07,28,10,03,21,,,1.18,0.61,1.01,4*08
$GPGSV,3,1,09,01,17,062,27,03,45,052,46,04,17,105,29,06,44,277,39,1*6D
$GPGSV,3,2,09,14,40,191,43,17,76,023,45,19,58,326,47,28,,,46,1*5D
$GPGSV,3,3,09,41,27,238,36,1*51
$GPGSV,2,1,06,01,17,062,30,03,45,052,40,04,17,105,21,06,44,277,27,6*63
$GPGSV,2,2,06,14,40,191,34,17,76,023,38,6*67
$GPGSV,2,1,05,02,06,263,,09,13,138,,11,09,257,,12,03,327,,0*6E
$GPGSV,2,2,05,12,03,327,,0*56
$GLGSV,2,1,08,65,14,169,28,71,36,054,42,72,43,122,14,76,08,201,43,1*7E
$GLGSV,2,2,08,77,32,246,19,78,25,310,42,87,51,345,42,88,22,297,37,1*72
$GLGSV,2,1,07,65,14,169,20,71,36,054,34,72,43,122,17,76,08,201,34,3*79
$GLGSV,2,2,07,77,32,246,19,78,25,310,22,88,22,297,40,3*46
$GLGSV,1,1,02,70,01,019,,86,28,067,,0*70
$GAGSV,2,1,08,02,46,219,41,04,12,048,32,09,26,100,25,11,17,068,34,2*7C
$GAGSV,2,2,08,18,37,304,33,30,39,294,38,34,47,289,37,36,59,030,46,2*72
$GAGSV,2,1,07,02,46,219,40,09,26,100,30,11,17,068,33,18,37,304,34,7*73
$GAGSV,2,2,07,30,39,294,35,34,47,289,28,36,59,030,46,7*41
$GAGSV,1,1,03,15,03,264,,25,13,176,,27,00,331,,0*41
$GBGSV,3,1,09,03,44,206,32,07,71,222,41,08,52,247,37,10,69,263,42,1*78
$GBGSV,3,2,09,13,42,243,35,21,20,044,33,23,20,233,35,28,36,302,33,1*71
$GBGSV,3,3,09,37,20,285,33,1*46
$GBGSV,2,1,06,03,44,206,35,07,71,222,36,08,52,247,32,10,69,263,33,3*70
$GBGSV,2,2,06,11,46,075,18,13,42,243,33,3*7A
$GBGSV,1,1,04,04,35,132,,12,02,099,,25,00,190,,34,28,091,,0*7A
$GNRMC,040503.00,A,3727.0444163,N,12639.2334940,E,0.008,,220622,,,R,V*0E
$GNVTG,,T,,M,0.008,N,0.014,K,D*35
$GNGNS,040503.00,3727.0444163,N,12639.2334940,E,RRRR,29,0.56,16.662,17.836,15.0,4095,V*31
$GNGGA,040503.00,3727.0444163,N,12639.2334940,E,4,12,0.56,16.662,M,17.836,M,15.0,4095*6C
$GNGSA,A,3,06,17,04,03,14,01,19,41,,,,,1.13,0.56,0.98,1*0E
$GNGSA,A,3,78,87,88,72,65,71,,,,,,,1.13,0.56,0.98,2*03
$GNGSA,A,3,30,11,09,34,02,04,36,,,,,,1.13,0.56,0.98,3*0C
$GNGSA,A,3,37,23,13,08,07,28,10,03,21,,,,1.13,0.56,0.98,4*06
$GPGSV,3,1,09,01,17,062,29,03,45,052,46,04,17,105,28,06,44,277,37,1*6C
$GPGSV,3,2,09,14,40,191,43,17,76,023,45,19,58,326,47,28,,,45,1*5E
$GPGSV,3,3,09,41,27,238,37,1*50
$GPGSV,2,1,06,01,17,062,29,03,45,052,41,04,17,105,21,06,44,277,25,6*68
$GPGSV,2,2,06,14,40,191,34,17,76,023,37,6*68
$GPGSV,2,1,05,02,06,263,,09,13,138,,11,09,257,,12,03,327,,0*6E
$GPGSV,2,2,05,12,03,327,,0*56
$GLGSV,2,1,08,65,14,169,28,71,36,054,42,72,43,122,16,76,08,201,41,1*7E
$GLGSV,2,2,08,77,32,246,20,78,25,310,42,87,51,345,43,88,22,297,39,1*77
$GLGSV,2,1,07,65,14,169,19,71,36,054,34,72,43,122,10,76,08,201,33,3*73
$GLGSV,2,2,07,77,32,246,20,78,25,310,22,88,22,297,41,3*4D
$GLGSV,1,1,02,70,01,019,,86,28,067,,0*70
$GAGSV,2,1,08,02,46,219,43,04,12,048,33,09,26,100,25,11,17,068,35,2*7E
$GAGSV,2,2,08,18,37,304,33,30,39,294,39,34,47,289,37,36,59,030,46,2*73
$GAGSV,2,1,07,02,46,219,40,09,26,100,29,11,17,068,34,18,37,304,35,7*7D
$GAGSV,2,2,07,30,39,294,37,34,47,289,32,36,59,030,45,7*4B
$GAGSV,1,1,03,15,03,264,,25,13,176,,27,00,331,,0*41
$GBGSV,3,1,09,03,44,206,31,07,71,222,40,08,52,247,36,10,69,263,43,1*7A
$GBGSV,3,2,09,13,42,243,38,21,20,044,34,23,20,233,31,28,36,302,35,1*79
$GBGSV,3,3,09,37,20,285,32,1*47
$GBGSV,2,1,06,03,44,206,35,07,71,222,32,08,52,247,32,10,69,263,33,3*74
$GBGSV,2,2,06,11,46,075,11,13,42,243,33,3*73
$GBGSV,1,1,04,04,35,132,,12,02,099,,25,00,190,,34,28,091,,0*7A
$GNRMC,040504.00,A,3727.0444066,N,12639.2335020,E,0.007,,220622,,,R,V*0C
$GNVTG,,T,,M,0.007,N,0.013,K,D*3D
$GNGNS,040504.00,3727.0444066,N,12639.2335020,E,RRRR,29,0.71,16.718,17.836,16.0,4095,V*36
$GNGGA,040504.00,3727.0444066,N,12639.2335020,E,4,12,0.71,16.718,M,17.836,M,16.0,4095*6B
$GNGSA,A,3,06,17,04,03,14,01,19,41,,,,,1.49,0.71,1.31,1*06
$GNGSA,A,3,78,87,88,65,71,,,,,,,,1.49,0.71,1.31,2*0E
$GNGSA,A,3,30,11,09,34,02,04,36,,,,,,1.49,0.71,1.31,3*04
$GNGSA,A,3,37,23,13,08,11,07,28,10,03,21,,,1.49,0.71,1.31,4*0E
$GPGSV,3,1,09,01,17,062,30,03,45,052,47,04,17,105,29,06,44,277,40,1*64
$GPGSV,3,2,09,14,40,191,42,17,76,023,46,19,58,326,47,28,,,46,1*5F
$GPGSV,3,3,09,41,27,238,36,1*51
$GPGSV,2,1,06,01,17,062,29,03,45,052,41,04,17,105,21,06,44,277,26,6*6B
$GPGSV,2,2,06,14,40,191,34,17,76,023,37,6*68
$GPGSV,2,1,05,02,06,263,,09,13,138,,11,09,257,,12,03,327,,0*6E
$GPGSV,2,2,05,12,03,327,,0*56
$GLGSV,2,1,08,65,14,169,28,71,36,054,43,72,43,122,17,76,08,201,41,1*7E
$GLGSV,2,2,08,77,32,246,21,78,25,310,42,87,51,345,42,88,22,297,39,1*77
$GLGSV,2,1,07,65,14,169,20,71,36,054,35,72,43,122,11,76,08,201,32,3*78
$GLGSV,2,2,07,77,32,246,20,78,25,310,21,88,22,297,41,3*4E
$GLGSV,1,1,02,70,01,019,,86,28,067,,0*70
$GAGSV,2,1,08,02,46,219,41,04,12,048,33,09,26,100,25,11,17,068,35,2*7C
$GAGSV,2,2,08,18,37,304,33,30,39,294,39,34,47,289,37,36,59,030,46,2*73
$GAGSV,2,1,07,02,46,219,40,09,26,100,30,11,17,068,34,18,37,304,36,7*76
$GNRMC,040505.00,A,3727.0444145,N,12639.2334982,E,0.007,,220622,,,R,V*0D
$GNVTG,,T,,M,0.007,N,0.013,K,D*3D
$GNGNS,040505.00,3727.0444145,N,12639.2334982,E,RRRR,30,0.70,16.691,17.836,17.0,4095,V*3F
$GNGGA,040505.00,3727.0444145,N,12639.2334982,E,4,12,0.70,16.691,M,17.836,M,17.0,4095*6A
$GNGSA,A,3,06,17,04,03,14,01,19,41,,,,,1.39,0.70,1.20,1*00
$GNGSA,A,3,78,87,88,77,65,71,,,,,,,1.39,0.70,1.20,2*08
$GNGSA,A,3,30,11,09,34,02,04,36,,,,,,1.39,0.70,1.20,3*02
$GNGSA,A,3,37,23,13,08,07,28,10,03,21,,,,1.39,0.70,1.20,4*08
$GPGSV,3,1,09,01,17,062,30,03,45,052,47,04,17,105,29,06,44,277,39,1*6A
$GPGSV,3,2,09,14,40,191,43,17,76,023,46,19,58,326,45,28,,,46,1*5C
$GPGSV,3,3,09,41,27,238,34,1*53
$GPGSV,2,1,06,01,17,062,29,03,45,052,41,04,17,105,21,06,44,277,26,6*6B
$GPGSV,2,2,06,14,40,191,34,17,76,023,36,6*69
$GPGSV,2,1,05,02,06,263,,09,13,138,,11,09,257,,12,03,327,,0*6E
$GPGSV,2,2,05,12,03,327,,0*56
$GLGSV,2,1,08,65,14,169,27,71,36,054,42,72,43,122,17,76,08,201,41,1*70
$GLGSV,2,2,08,77,32,246,20,78,25,310,41,87,51,345,43,88,22,297,41,1*7B
$GLGSV,2,1,07,65,14,169,20,71,36,054,34,72,43,122,14,76,08,201,34,3*7A
$GLGSV,2,2,07,77,32,246,23,78,25,310,20,88,22,297,41,3*4C
$GLGSV,1,1,02,70,01,019,,86,28,067,,0*70
$GAGSV,2,1,08,02,46,219,41,04,12,048,33,09,26,100,25,11,17,068,34,2*7D
$GAGSV,2,2,08,18,37,304,34,30,39,294,38,34,47,289,37,36,59,030,46,2*75
$GAGSV,2,1,07,02,46,219,40,09,26,100,30,11,17,068,33,18,37,304,36,7*71
$GAGSV,2,2,07,30,39,294,30,34,47,289,26,36,59,030,46,7*4A
$GAGSV,1,1,03,15,03,264,,25,13,176,,27,00,331,,0*41
$GBGSV,3,1,09,03,44,206,30,07,71,222,38,08,52,247,36,10,69,263,42,1*75
$GBGSV,3,2,09,13,42,243,35,21,20,043,35,23,20,233,35,28,36,302,28,1*7A
$GBGSV,3,3,09,37,20,285,32,1*47
$GBGSV,2,1,06,03,44,206,35,07,71,222,33,08,52,247,33,10,69,263,33,3*74
$GBGSV,2,2,06,11,46,075,16,13,42,243,33,3*74
$GBGSV,1,1,04,04,35,132,,12,02,099,,25,00,190,,34,28,091,,0*7A
$GNRMC,040506.00,A,3727.0444151,N,12639.2334973,E,0.015,,220622,,,R,V*06
$GNVTG,,T,,M,0.015,N,0.028,K,D*36
$GNGNS,040506.00,3727.0444151,N,12639.2334973,E,RRRR,30,0.64,16.685,17.836,13.0,4095,V*33
$GNGGA,040506.00,3727.0444151,N,12639.2334973,E,4,12,0.64,16.685,M,17.836,M,13.0,4095*66
$GNGSA,A,3,06,17,04,03,14,01,19,41,,,,,1.27,0.64,1.10,1*09
$GNGSA,A,3,78,87,88,77,65,71,,,,,,,1.27,0.64,1.10,2*01
$GNGSA,A,3,30,11,09,34,02,04,36,,,,,,1.27,0.64,1.10,3*0B
$GNGSA,A,3,37,23,13,08,07,28,10,03,21,,,,1.27,0.64,1.10,4*01
$GPGSV,3,1,09,01,17,062,29,03,45,052,46,04,17,105,28,06,44,277,37,1*6C
$GPGSV,3,2,09,14,40,191,43,17,76,023,47,19,58,326,45,28,,,46,1*5D
$GPGSV,3,3,09,41,27,238,37,1*50
$GPGSV,2,2,06,14,40,191,33,17,76,023,36,6*6E
$GPGSV,2,1,05,02,06,263,,09,13,138,,11,09,257,,12,03,327,,0*6E
$GPGSV,2,2,05,12,03,327,,0*56
$GLGSV,2,1,08,65,14,169,28,71,36,054,41,72,43,122,17,76,08,201,43,1*7E
$GLGSV,2,2,08,77,32,246,16,78,25,310,41,87,51,345,43,88,22,297,41,1*7E
$GLGSV,2,1,07,65,14,169,21,71,36,054,34,72,43,122,14,76,08,201,34,3*7B
$GLGSV,2,2,07,77,32,246,25,78,25,310,20,88,22,297,41,3*4A
$GLGSV,1,1,02,70,01,019,,86,28,067,,0*70
$GAGSV,2,1,08,02,46,219,41,04,12,048,33,09,26,100,23,11,17,068,34,2*7B
$GAGSV,2,2,08,18,37,304,34,30,39,294,37,34,47,289,37,36,59,030,46,2*7A
$GAGSV,2,1,07,02,46,219,40,09,26,100,29,11,17,068,32,18,37,304,36,7*78
$GAGSV,2,2,07,30,39,294,38,34,47,289,22,36,59,030,45,7*45
$GAGSV,1,1,03,15,03,264,,25,13,176,,27,00,331,,0*41
$GBGSV,3,1,09,03,44,206,30,07,71,222,38,08,52,247,35,10,69,263,40,1*74
$GBGSV,3,2,09,13,42,243,35,21,20,043,35,23,19,232,35,28,36,302,32,1*7A
$GBGSV,3,3,09,37,20,28$GNRMC,040507.00,A,3727.0444149,N,12639.2335079,E,0.014,,220622,,,R,V*0D
$GNVTG,,T,,M,0.014,N,0.025,K,D*3A
$GNGNS,040507.00,3727.0444149,N,12639.2335079,E,RRRR,29,0.77,16.692,17.836,2.0,4095,V*05
$GNGGA,040507.00,3727.0444149,N,12639.2335079,E,4,12,0.77,16.692,M,17.836,M,2.0,4095*58
$GNGSA,A,3,06,17,04,03,14,01,19,41,,,,,1.48,0.77,1.26,1*07
$GNGSA,A,3,78,87,88,77,65,71,,,,,,,1.48,0.77,1.26,2*0F
$GNGSA,A,3,30,34,02,04,36,,,,,,,,1.48,0.77,1.26,3*0C
$GNGSA,A,3,37,23,11,13,08,07,28,10,03,21,,,1.48,0.77,1.26,4*0F
$GPGSV,3,1,09,01,17,062,29,03,45,052,43,04,17,105,26,06,44,277,33,1*63
$GPGSV,3,2,09,14,40,191,41,17,76,023,43,19,58,326,41,28,,,43,1*5A
$GPGSV,3,3,09,41,27,238,31,1*56
$GPGSV,2,1,06,01,17,062,29,03,45,052,40,04,17,105,20,06,44,277,24,6*69
$GPGSV,2,2,06,14,40,191,33,17,76,023,36,6*6E
$GPGSV,2,1,05,02,06,263,,09,13,138,,11,09,257,,12,03,327,,0*6E
$GPGSV,2,2,05,12,03,327,,0*56
$GLGSV,2,1,08,65,14,169,27,71,36,054,38,72,43,122,17,76,08,201,40,1*7C
$GLGSV,2,2,08,77,32,246,13,78,25,310,38,87,51,345,42,88,22,297,40,1*75
$GLGSV,2,1,07,65,14,169,21,71,36,054,34,72,43,122,17,76,08,201,35,3*79
$GLGSV,2,2,07,77,32,246,26,78,25,310,22,88,22,297,40,3*4A
$GLGSV,1,1,02,70,01,019,,86,28,067,,0*70
$GAGSV,2,1,08,02,46,219,40,04,12,048,31,09,26,100,22,11,17,068,33,2*7E
$GAGSV,2,2,08,18,37,304,33,30,39,294,35,34,47,289,36,36,59,030,45,2*7D
$GAGSV,2,1,07,02,46,219,37,09,26,100,19,11,17,068,26,18,37,304,35,7*7D
$GAGSV,2,2,07,30,39,294,29,34,47,289,23,36,59,030,42,7*43
$GAGSV,1,1,03,15,03,264,,25,13,176,,27,00,331,,0*41
$GBGSV,3,1,09,03,44,206,30,07,71,222,36,08,52,247,33,10,69,263,38,1*73
$GBGSV,3,2,09,13,42,243,25,21,20,043,34,23,19,232,33,28,36,302,25,1*7A
$GBGSV,3,3,09,37,20,285,25,1*41
$GBGSV,2,1,06,03,44,206,35,07,71,222,32,08,52,247,35,10,69,263,35,3*75
$GBGSV,2,2,06,11,46,075,25,13,42,243,34,3*73
$GBGSV,1,1,04,04,35,132,,12,02,099,,25,00,190,,34,28,091,,0*7A
$GNRMC,040508.00,A,3727.0444222,N,12639.2334885,E,0.025,,220622,,,R,V*04
$GNVTG,,T,,M,0.025,N,0.046,K,D*3D
$GNGNS,040508.00,3727.0444222,N,12639.2334885,E,RRRR,28,0.71,16.676,17.836,2.0,4095,V*03
$GNGSA,A,3,06,17,04,03,14,01,19,41,,,,,1.35,0.71,1.15,1*0B
$GNGSA,A,3,78,87,88,77,65,71,,,,,,,1.35,0.71,1.15,2*03
$GNGSA,A,3,30,34,02,04,36,,,,,,,,1.35,0.71,1.15,3*00
$GNGSA,A,3,37,23,11,13,08,07,28,10,03,21,,,1.35,0.71,1.15,4*03
$GPGSV,3,1,09,01,17,062,28,03,45,052,45,04,17,105,24,06,44,277,37,1*62
$GPGSV,3,2,09,14,40,191,43,17,76,023,44,19,58,326,43,28,,,44,1*5A
$GPGSV,3,3,09,41,27,238,33,1*54
$GPGSV,2,1,06,01,17,062,29,03,45,052,40,04,17,105,20,06,44,277,26,6*6B
$GPGSV,2,2,06,14,40,191,34,17,76,023,37,6*68
$GPGSV,2,1,05,02,06,263,,09,13,138,,11,09,257,,12,03,327,,0*6E
$GPGSV,2,2,05,12,03,327,,0*56
$GLGSV,2,1,08,65,14,169,28,71,36,054,41,72,43,122,17,76,08,201,41,1*7C
$GLGSV,2,2,08,77,32,246,14,78,25,310,38,87,51,345,42,88,22,297,42,1*70
$GLGSV,2,1,07,65,14,169,22,71,36,054,34,72,43,122,11,76,08,201,34,3*7D
$GLGSV,2,2,07,77,32,246,26,78,25,310,24,88,22,297,40,3*4C
$GLGSV,1,1,02,70,01,019,,86,28,067,,0*70$GAGSV,2,1,08,02,46,219,41,04,12,048,31,09,26,100,23,11,17,068,33,2*7E
$GAGSV,2,2,08,18,37,304,33,30,39,294,36,34,47,289,36,36,59,030,46,2*7D
$GAGSV,2,1,07,02,46,219,40,09,26,100,22,11,17,068,27,18,37,304,37,7*76
$GAGSV,2,2,07,30,39,294,30,34,47,289,25,36,59,030,44,7*4B
$GAGSV,1,1,03,15,03,264,,25,13,176,,27,00,331,,0*41
$GBGSV,3,1,09,03,44,206,30,07,71,222,36,08,52,247,33,10,69,263,39,1*72
$GBGSV,3,2,09,13,42,243,26,21,20,043,34,23,19,232,35,28,36,302,28,1*72
$GBGSV,3,3,09,37,20,285,28,1*4C
$GBGSV,2,1,06,03,44,206,35,07,71,222,33,08,52,247,34,10,69,263,31,3*71
$GBGSV,2,2,06,11,46,075,25,13,42,243,35,3*72
$GBGSV,1,1,04,04,35,132,,12,02,099,,25,00,190,,34,28,091,,0*7A
$GNRMC,040509.00,A,3727.0444284,N,12639.2334849,E,0.015,,220622,,,R,V*0A
$GNVTG,,T,,M,0.015,N,0.028,K,D*36
$GNGNS,040509.00,3727.0444284,N,12639.2334849,E,RRRR,29,0.69,16.676,17.836,2.0,4095,V*06
$GNGGA,040509.00,3727.0444284,N,12639.2334849,E,4,12,0.69,16.676,M,17.836,M,2.0,4095*5B
$GNGSA,A,3,06,17,04,03,14,01,19,41,,,,,1.33,0.69,1.13,1*02
$GNGSA,A,3,78,87,88,77,65,71,,,,,,,1.33,0.69,1.13,2*0A
$GNGSA,A,3,30,11,09,34,02,04,36,,,,,,1.33,0.69,1.13,3*00
$GNGSA,A,3,37,23,13,08,07,28,10,03,21,,,,1.33,0.69,1.13,4*0A
$GPGSV,3,1,09,01,17,062,27,03,45,052,46,04,17,105,26,06,44,277,39,1*62
$GPGSV,3,2,09,14,40,191,45,17,76,023,46,19,58,326,46,28,,,46,1*59
$GPGSV,3,3,09,41,27,238,37,1*50
$GPGSV,2,1,06,01,17,062,30,03,45,052,40,04,17,105,21,06,44,277,29,6*6D
$GPGSV,2,2,06,14,40,191,34,17,76,023,38,6*67
$GPGSV,2,1,05,02,06,263,,09,13,138,,11,09,257,,12,03,327,,0*6E
$GPGSV,2,2,05,12,03,327,,0*56
$GLGSV,2,1,08,65,14,169,28,71,36,054,42,72,43,122,16,76,08,201,42,1*7D
$GLGSV,2,2,08,77,32,246,13,78,25,310,39,87,51,345,42,88,22,297,42,1*76
$GLGSV,2,1,07,65,14,169,22,71,36,054,34,72,43,122,16,76,08,201,33,3*7D
$GLGSV,2,2,07,77,32,246,26,78,25,310,21,88,22,297,40,3*49
$GLGSV,1,1,02,70,01,019,,86,28,067,,0*70
$GAGSV,2,1,08,02,46,219,41,04,12,048,32,09,26,100,23,11,17,068,33,2*7D
$GAGSV,2,2,08,18,37,304,33,30,39,294,39,34,47,289,37,36,59,030,46,2*73
$GAGSV,2,1,07,02,46,219,43,09,26,100,28,11,17,068,32,18,37,304,38,7*74
$GAGSV,2,2,07,30,39,294,37,34,47,289,31,36,59,030,46,7*4B
$GAGSV,1,1,03,15,03,264,,25,13,176,,27,00,331,,0*41
$GBGSV,3,1,09,03,44,206,30,07,71,222,41,08,52,247,36,10,69,263,41,1*78
$GBGSV,3,2,09,13,42,243,35,21,20,043,34,23,19,232,36,28,36,302,29,1*72
$GBGSV,3,3,09,37,20,285,33,1*46
$GBGSV,2,1,06,03,44,206,36,07,71,222,33,08,52,247,30,10,69,263,32,3*75
$GBGSV,2,2,06,11,46,075,24,13,42,243,35,3*73
$GBGSV,1,1,04,04,35,132,,12,02,099,,25,00,190,,34,28,091,,0*7A
$GNRMC,040510.00,A,3727.0444270,N,12639.2334861,E,0.032,,220622,,,R,V*06
$GNVTG,,T,,M,0.032,N,0.059,K,D*35
$GNGNS,040510.00,3727.0444270,N,12639.2334861,E,RRRR,30,0.64,16.660,17.836,2.0,4095,V*0D
$GNGGA,040510.00,3727.0444270,N,12639.2334861,E,4,12,0.64,16.660,M,17.836,M,2.0,4095*58
$GNGSA,A,3,06,17,04,03,14,01,19,41,,,,,1.30,0.64,1.13,1*0C
$GNGSA,A,3,78,87,88,77,65,71,,,,,,,1.30,0.64,1.13,2*04
$GNGSA,A,3,30,11,09,34,02,04,36,,,,,,1.30,0.64,1.13,3*0E
$GNGSA,A,3,37,23,13,08,07,28,10,03,21,,,,1.30,0.64,1.13,4*04
$GPGSV,2,1,08,03,45,052,48,04,17,105,28,06,44,277,40,14,40,191,46,1*60
$GPGSV,2,2,08,17,76,023,48,19,58,326,48,28,,,48,41,27,238,39,1*5D
$GPGSV,2,1,06,01,17,062,30,03,45,052,40,04,17,105,21,06,44,277,28,6*6C
$GPGSV,2,1,05,02,06,263,,09,13,138,,11,09,257,,12,03,327,,0*6E
$GPGSV,2,2,05,12,03,327,,0*56
$GLGSV,2,1,08,65,15,168,30,71,36,054,46,72,43,122,14,76,08,201,44,1*74
$GLGSV,2,2,08,77,32,246,17,78,25,310,40,87,51,345,44,88,22,297,45,1*7D
$GLGSV,2,1,07,65,15,168,23,71,36,054,34,72,43,122,18,76,08,201,32,3*73
$GLGSV,2,2,07,77,32,246,26,78,25,310,20,88,22,297,40,3*48
$GLGSV,1,1,02,70,01,019,,86,28,067,,0*70
$GAGSV,2,1,08,02,46,219,41,04,12,048,32,09,26,100,23,11,17,068,33,2*7D
$GAGSV,2,2,08,18,37,304,32,30,39,294,39,34,47,289,37,36,59,030,46,2*72
$GAGSV,2,1,07,02,46,219,43,09,26,100,30,11,17,068,30,18,37,304,39,7*7E
$GAGSV,2,2,07,30,39,294,37,34,47,289,29,36,59,030,47,7*43
$GAGSV,1,1,03,15,03,264,,25,13,176,,27,00,331,,0*41
$GBGSV,3,1,10,03,44,206,30,04,35,132,27,07,71,222,40,08,52,247,37,1*7B
$GBGSV,3,2,10,10,69,263,42,13,42,243,30,21,20,043,35,23,19,232,38,1*7A
$GBGSV,3,3,10,28,37,302,28,37,20,285,33,1*7B
$GBGSV,2,1,06,03,44,206,36,07,71,222,34,08,52,24$GBGSV,2,2,06,11,46,075,24,13,42,243,35,3*73
$GBGSV,1,1,03,12,02,099,,25,00,190,,34,28,091,,0*4F
$GNRMC,040511.00,A,3727.0444216,N,12639.2334899,E,0.009,,220622,,,R,V*08
$GNVTG,,T,,M,0.009,N,0.016,K,D*36
$GNGNS,040511.00,3727.0444216,N,12639.2334899,E,RRRR,28,0.62,16.665,17.836,2.0,4095,V*01
$GNGGA,040511.00,3727.0444216,N,12639.2334899,E,4,12,0.62,16.665,M,17.836,M,2.0,4095*5D
$GNGSA,A,3,06,17,04,03,14,01,19,41,,,,,1.23,0.62,1.06,1*0C
$GNGSA,A,3,78,87,88,77,65,71,,,,,,,1.23,0.62,1.06,2*04
$GNGSA,A,3,30,11,09,34,02,04,36,,,,,,1.23,0.62,1.06,3*0E
$GNGSA,A,3,37,23,13,08,07,28,10,03,21,,,,1.23,0.62,1.06,4*04
$GPGSV,3,1,09,01,17,062,27,03,45,052,48,04,17,105,26,06,44,277,39,1*6C
$GPGSV,3,2,09,14,40,191,45,17,76,023,47,19,58,326,46,28,,,46,1*58
$GPGSV,3,3,09,41,27,238,37,1*50
$GPGSV,2,1,06,01,17,062,30,03,45,052,40,04,17,105,20,06,44,277,28,6*6D
$GPGSV,2,2,06,14,40,191,34,17,76,023,38,6*67
$GPGSV,2,1,05,02,06,263,,09,13,138,,11,09,257,,12,03,327,,0*6E
$GPGSV,2,2,05,12,03,327,,0*56
$GLGSV,2,1,08,65,15,168,31,71,36,054,44,72,43,122,14,76,08,201,44,1*77
$GLGSV,2,2,08,77,32,246,18,78,25,310,39,87,51,345,45,88,22,297,45,1*7D
$GLGSV,2,1,07,65,15,168,22,71,36,054,34,72,43,122,17,76,08,201,33,3*7C
$GLGSV,2,2,07,77,32,246,26,78,25,310,16,88,22,297,40,3*4D
$GLGSV,1,1,02,70,01,019,,86,28,067,,0*70
$GAGSV,2,1,08,02,46,219,41,04,12,048,32,09,26,100,23,11,17,068,33,2*7D
$GAGSV,2,2,08,18,37,304,32,30,39,294,38,34,47,289,37,36,59,030,46,2*73
$GAGSV,2,1,07,02,46,219,41,09,26,100,29,11,17,068,29,18,37,304,38,7*7D
$GAGSV,2,2,07,30,39,294,36,34,47,289,28,36,59,030,46,7*42
$GAGSV,1,1,03,15,03,264,,25,13,176,,27,00,331,,0*41
$GBGSV,3,1,09,03,44,206,30,07,71,222,38,08,52,247,36,10,69,263,40,1*77
$GBGSV,3,2,09,13,42,243,31,21,20,043,33,23,19,232,37,28,37,302,25,1*7D
$GBGSV,3,3,09,37,20,285,31,1*44
$GBGSV,2,1,06,03,44,206,36,07,71,222,35,08,52,247,34,10,69,263,34,3*71
$GBGSV,2,2,06,11,46,075,24,13,42,243,35,3*73
$GBGSV,1,1,04,04,35,132,,12,02,099,,25,00,190,,34,28,091,,0*7A
$GNVTG,,T,,M,0.059,N,0.109,K,D*3C
$GNGNS,040512.00,3727.0444254,N,12639.2334938,E,RRRR,29,0.64,16.680,17.836,2.0,4095,V*02
$GNGGA,040512.00,3727.0444254,N,12639.2334938,E,4,12,0.64,16.680,M,17.836,M,2.0,4095*5F
$GNGSA,A,3,06,17,04,03,14,01,19,41,,,,,1.24,0.64,1.07,1*0C
$GNGSA,A,3,30,11,09,34,02,04,36,,,,,,1.24,0.64,1.07,3*0E
$GNGSA,A,3,37,23,13,08,07,11,10,03,21,,,,1.24,0.64,1.07,4*0E
$GPGSV,3,1,09,01,17,062,26,03,45,052,47,04,17,105,25,06,44,277,38,1*60
$GPGSV,3,3,09,41,27,238,37,1*50
$GPGSV,2,1,06,01,17,062,30,03,45,052,39,04,17,105,20,06,44,277,27,6*6C
$GPGSV,2,2,06,14,40,191,33,17,76,023,38,6*60
$GPGSV,2,1,05,02,06,263,,09,13,138,,11,09,257,,12,03,327,,0*6E
$GPGSV,2,2,05,12,03,327,,0*56
$GLGSV,2,1,08,65,15,168,31,71,36,054,44,72,43,122,15,76,08,201,44,1*76
$GLGSV,2,2,08,77,32,246,19,78,25,310,38,87,51,345,45,88,22,297,44,1*7C
$GLGSV,2,1,07,65,15,168,22,71,36,054,34,72,43,122,18,76,08,201,33,3*73
$GLGSV,2,2,07,77,32,246,26,78,25,310,18,88,22,297,41,3*42
$GLGSV,1,1,02,70,01,019,,86,28,067,,0*70
$GAGSV,2,1,08,02,46,219,42,04,12,048,32,09,26,100,24,11,17,068,33,2*79
$GAGSV,2,2,08,18,37,304,31,30,39,294,37,34,47,289,36,36,59,030,46,2*7E
$GAGSV,2,1,07,02,46,219,42,09,26,100,29,11,17,068,28,18,37,304,39,7*7E
$GAGSV,2,2,07,30,39,294,36,34,47,289,28,36,59,030,45,7*41
$GAGSV,1,1,03,15,03,264,,25,13,176,,27,00,331,,0*41
$GBGSV,3,1,09,03,44,206,30,07,71,222,38,08,52,247,36,10,69,263,40,$GBGSV,3,2,09,13,42,243,28,21,20,043,33,23,19,232,37,28,37,302,23,1*73
$GBGSV,3,3,09,37,20,285,31,1*44
$GBGSV,2,1,06,03,44,206,37,07,71,222,35,08,52,247,32,10,69,263,34,3*76
$GBGSV,2,2,06,11,46,075,25,13,42,243,34,3*73
$GBGSV,1,1,04,04,35,132,,12,02,099,,25,00,190,,34,28,092,,0*79
$GNRMC,040513.00,A,3727.0444276,N,12639.2334873,E,0.016,,220622,,,R,V*06
$GNVTG,,T,,M,0.016,N,0.029,K,D*34
$GNGNS,040513.00,3727.0444276,N,12639.2334873,E,RRRR,30,0.71,16.667,17.836,1.0,4095,V*0B
$GNGGA,040513.00,3727.0444276,N,12639.2334873,E,4,12,0.71,16.667,M,17.836,M,1.0,4095*5E
$GNGSA,A,3,06,17,04,03,14,01,19,41,,,,,1.42,0.71,1.22,1*0F
$GNGSA,A,3,78,87,88,65,71,,,,,,,,1.42,0.71,1.22,2*07
$GNGSA,A,3,30,11,09,34,02,04,36,,,,,,1.42,0.71,1.22,3*0D
$GNGSA,A,3,37,23,13,08,28,07,11,10,03,21,,,1.42,0.71,1.22,4*07
$GPGSV,3,1,09,01,17,062,26,03,45,052,47,04,17,105,24,06,44,277,37,1*6E
$GPGSV,3,2,09,14,40,191,44,17,76,023,46,19,58,326,46,28,,,45,1*5B
$GPGSV,3,3,09,41,27,238,36,1*51
$GPGSV,2,1,06,01,17,062,31,03,45,052,40,04,17,105,21,06,44,277,27,6*62
$GPGSV,2,2,06,14,40,191,34,17,76,023,38,6*67
$GPGSV,2,1,05,02,06,263,,09,13,138,,11,09,257,,12,03,327,,0*6E
$GPGSV,2,2,05,12,03,327,,0*56
$GLGSV,2,1,08,65,15,168,31,71,36,054,44,72,43,122,16,76,08,201,44,1*75
$GLGSV,2,2,08,77,32,246,19,78,25,310,38,87,51,345,45,88,22,297,44,1*7C
$GLGSV,2,1,07,65,15,168,22,71,36,054,34,72,43,122,18,76,08,201,33,3*73
$GLGSV,2,2,07,77,32,246,26,78,25,310,17,88,22,297,40,3*4C
$GLGSV,1,1,02,70,01,019,,86,28,067,,0*70
$GAGSV,2,1,08,02,46,219,42,04,12,048,32,09,26,100,24,11,17,068,33,2*79
$GAGSV,2,2,08,18,37,304,32,30,39,294,37,34,47,289,36,36,59,030,46,2*7D
$GAGSV,2,1,07,02,46,219,42,09,26,100,29,11,17,068,28,18,37,304,39,7*7E
$GAGSV,2,2,07,30,39,294,36,34,47,289,27,36,59,030,45,7*4E
$GAGSV,1,1,03,15,03,264,,25,13,176,,27,00,331,,0*41
$GBGSV,3,1,09,03,44,206,30,07,71,222,37,08,52,247,36,10,69,263,40,1*78
$GBGSV,3,2,09,13,42,243,30,21,20,043,32,23,19,232,37,28,37,302,27,1*7F
$GBGSV,3,3,09,37,20,284,31,1*45
$GBGSV,2,1,06,03,44,206,36,07,71,222,36,08,52,247,32,10,69,263,35,3*75
$GBGSV,2,2,06,11,46,075,27,13,42,243,34,3*71
$GBGSV,1,1,04,04,35,132,,12,02,099,,25,00,190,,34,28,092,,0*79
$GNRMC,040514.00,A,3727.0444206,N,12639.2334997,E,0.031,,220622,,,R,V*08
$GNVTG,,T,,M,0.031,N,0.058,K,D*37
$GNGNS,040514.00,3727.0444206,N,12639.2334997,E,RRRR,30,0.62,16.678,17.836,2.0,4095,V*0F
$GNGGA,040514.00,3727.0444206,N,12639.2334997,E,4,12,0.62,16.678,M,17.836,M,2.0,4095*5A
$GNGSA,A,3,06,17,04,03,14,01,19,41,,,,,1.23,0.62,1.06,1*0C
$GNGSA,A,3,78,87,88,65,71,,,,,,,,1.23,0.62,1.06,2*04
$GNGSA,A,3,30,11,09,34,02,04,36,,,,,,1.23,0.62,1.06,3*0E
$GNGSA,A,3,37,23,13,08,28,07,11,10,03,21,,,1.23,0.62,1.06,4*04
$GPGSV,3,1,09,01,17,062,27,03,45,052,46,04,17,105,23,06,44,277,37,1*69
$GPGSV,3,2,09,14,40,191,43,17,76,023,45,19,58,326,45,28,,,44,1*5D
$GPGSV,3,3,09,41,27,238,36,1*51
$GPGSV,2,1,06,01,17,062,31,03,45,052,40,04,17,105,20,06,44,277,27,6*63
$GPGSV,2,2,06,14,40,191,34,17,76,023,38,6*67
$GPGSV,2,1,05,02,06,263,,09,13,138,,11,09,257,,12,03,327,,0*6E
$GPGSV,2,2,05,12,03,327,,0*56
$GLGSV,2,1,08,65,15,168,31,71,36,054,43,72,43,122,17,76,08,201,44,1*73
$GLGSV,2,2,08,77,32,246,20,78,25,310,38,87,51,345,45,88,22,297,44,1*76
$GLGSV,2,1,07,65,15,168,22,71,36,054,34,72,43,122,18,76,08,201,32,3*72
$GLGSV,2,2,07,77,32,246,26,78,25,310,19,88,22,297,41,3*43
$GLGSV,1,1,02,70,01,019,,86,28,067,,0*70
$GAGSV,2,1,08,02,46,219,42,04,12,048,32,09,26,100,25,11,17,068,33,2*78
$GAGSV,2,2,08,18,37,304,32,30,39,294,36,34,47,289,36,36,59,030,46,2*7C
$GAGSV,2,1,07,02,46,219,42,09,26,100,28,11,17,068,28,18,37,304,38,7*7E
$GAGSV,2,2,07,30,39,294,35,34,47,289,26,36,59,030,44,7*4D
$GAGSV,1,1,03,15,03,264,,25,13,176,,27,00,331,,0*41
$GBGSV,3,1,09,03,44,206,29,07,71,222,37,08,52,247,36,10,69,263,40,1*70
$GBGSV,3,2,09,13,42,243,29,21,20,043,33,23,19,232,37,28,37,302,29,1*78
$GBGSV,3,3,09,37,20,284,30,1*44
$GBGSV,2,1,06,03,44,206,36,07,71,222,35,08,52,247,31,10,69,263,35,3*75
$GBGSV,2,2,06,11,46,075,27,13,42,243,34,3*71
$GBGSV,1,1,04,04,35,132,,12,02,099,,25,00,190,,34,28,092,,0*79
$GNRMC,040515.00,A,3727.0444194,N,12639.2334994,E,0.017,,220622,,,R,V*06
$GNVTG,,T,,M,0.017,N,0.032,K,D*3F
$GNGGA,040515.00,3727.0444194,N,12639.2334994,E,4,12,0.62,16.691,M,17.836,M,2.0,4095*57
$GNGSA,A,3,06,17,03,14,01,19,41,,,,,,1.23,0.62,1.06,1*08
$GNGSA,A,3,78,77,87,88,65,71,,,,,,,1.23,0.62,1.06,2*04
$GNGSA,A,3,30,11,09,34,02,04,36,,,,,,1.23,0.62,1.06,3*0E
$GNGSA,A,3,37,23,13,08,28,07,11,10,03,21,,,1.23,0.62,1.06,4*04
$GPGSV,3,1,09,01,17,062,27,03,45,052,46,04,17,105,22,06,44,277,37,1*68
$GPGSV,3,2,09,14,40,191,43,17,76,023,45,19,58,326,44,28,,,44,1*5C
$GPGSV,3,3,09,41,27,238,35,1*52
$GPGSV,2,1,06,01,17,062,31,03,45,052,40,04,17,105,20,06,44,277,27,6*63
$GPGSV,2,2,06,14,40,191,35,17,76,023,38,6*66
$GPGSV,2,1,05,02,06,263,,09,13,138,,11,09,257,,12,03,327,,0*6E
$GPGSV,2,2,05,12,03,327,,0*56
$GLGSV,2,1,08,65,15,168,31,71,36,054,43,72,43,122,18,76,08,201,44,1*7C
$GLGSV,2,2,08,77,32,246,21,78,25,310,36,87,51,345,46,88,22,297,44,1*7A
$GLGSV,2,1,07,65,15,168,21,71,36,054,34,72,43,122,18,76,08,201,31,3*72
$GLGSV,2$GLGSV,1,1,02,70,01,019,,86,28,067,,0*70
$GAGSV,2,1,08,02,46,219,42,04,12,048,32,09,26,100,24,11,17,068,33,2*79
$GAGSV,2,2,08,18,37,304,32,30,39,294,36,34,47,289,35,36,59,030,45,2*7C
$GAGSV,2,1,07,02,46,219,42,09,26,100,27,11,17,068,28,18,37,304,38,7*71
$GAGSV,2,2,07,30,39,294,33,34,47,289,23,36,59,030,45,7*4F
$GAGSV,1,1,03,15,03,264,,25,13,176,,27,00,331,,0*41
$GBGSV,3,1,09,03,44,206,30,07,71,222,37,08,52,247,36,10,69,263,39,1*76
$GBGSV,3,2,09,13,42,243,19,21,20,043,34,23,19,232,37,28,37,302,29,1*7C
$GBGSV,3,3,09,37,20,284,29,1*4C
$GBGSV,2,1,06,03,44,206,36,07,71,222,35,08,52,247,32,10,69,263,34,3*77
$GBGSV,2,2,06,11,46,075,28,13,42,243,34,3*7E
$GBGSV,1,1,04,04,35,132,,12,02,099,,25,00,190,,34,28,092,,0*79
$GNRMC,040516.00,A,3727.0444208,N,12639.2334974,E,0.016,,220622,,,R,V*0C
$GNVTG,,T,,M,0.016,N,0.030,K,D*3C
$GNGNS,040516.00,3727.0444208,N,12639.2334974,E,RRRR,29,0.69,16.687,17.836,2.0,4095,V*0D
$GNGGA,040516.00,3727.0444208,N,12639.2334974,E,4,12,0.69,16.687,M,17.836,M,2.0,4095*50
$GNGSA,A,3,06,17,03,14,01,19,41,,,,,,1.44,0.69,1.26,1*00
$GNGSA,A,3,78,77,87,88,65,71,,,,,,,1.44,0.69,1.26,2*0C
$GNGSA,A,3,30,11,09,34,02,04,36,,,,,,1.44,0.69,1.26,3*06
$GPGSV,3,1,09,01,17,062,27,03,45,052,45,04,17,105,20,06,44,277,36,1*68
$GPGSV,3,2,09,14,40,191,43,17,76,023,45,19,58,326,44,28,,,43,1*5B
$GPGSV,3,3,09,41,27,238,33,1*54
$GPGSV,2,1,06,01,17,062,31,03,45,052,40,04,17,105,21,06,44,277,27,6*62
$GPGSV,2,2,06,14,40,191,36,17,76,023,38,6*65
$GPGSV,2,1,05,02,06,263,,09,13,138,,11,09,257,,12,03,327,,0*6E
$GPGSV,2,2,05,12,03,327,,0*56
$GLGSV,2,1,08,65,15,168,30,71,36,054,43,72,43,122,20,76,08,201,44,1*76
$GLGSV,2,2,08,77,32,246,21,78,25,310,35,87,51,345,46,88,22,297,44,1*79
$GLGSV,2,1,07,65,15,168,22,71,36,054,33,72,43,122,18,76,08,201,29,3*7F
$GLGSV,2,2,07,77,32,246,26,78,25,310,24,88,22,297,40,3*4C
$GLGSV,1,1,02,70,01,019,,86,28,067,,0*70
$GAGSV,2,1,08,02,46,219,42,04,12,048,31,09,26,100,24,11,17,068,32,2*7B
$GAGSV,2,2,08,18,37,304,31,30,39,294,35,34,47,289,33,36,59,030,46,2*79
$GAGSV,2,1,07,02,46,219,42,09,26,100,26,11,17,068,27,18,37,304,38,7*7F
$GAGSV,2,2,07,30,39,294,34,34,47,289,20,36$GAGSV,1,1,03,15,03,264,,25,13,176,,27,00,331,,0*41
$GBGSV,3,1,09,03,44,206,30,07,71,222,36,08,52,247,35,10,69,263,39,1*74
$GBGSV,3,2,09,13,42,243,18,21,20,043,34,23,19,232,38,28,37,302,30,1*7A
$GBGSV,3,3,09,37,20,284,29,1*4C
$GBGSV,2,1,06,03,44,206,36,07,71,222,35,08,52,247,33,10,69,263,35,3*77
$GBGSV,2,2,06,11,46,075,28,13,42,243,35,3*7F
$GBGSV,1,1,04,04,35,132,,12,02,099,,25,00,190,,34,28,092,,0*79
$GNRMC,040517.00,A,3727.0444167,N,12639.2335046,E,0.028,,220622,,,R,V*03
$GNVTG,,T,,M,0.028,N,0.051,K,D*36
$GNGNS,040517.00,3727.0444167,N,12639.2335046,E,RRRR,30,0.65,16.680,17.836,2.0,4095,V*0C
$GNGSA,A,3,06,17,03,14,01,19,41,,,,,,1.29,0.65,1.11,1*03
$GNGSA,A,3,78,77,87,88,65,71,,,,,,,1.29,0.65,1.11,2*0F
