$GNRMC,040305.00,A,3727.0405092,N,12639.2388547,E,0.050,,220622,,,F,V*11
$GNVTG,,T,,M,0.050,N,0.092,K,D*36
$GNGNS,040305.00,3727.0405092,N,12639.2388547,E,FFFF,28,0.63,31.621,17.837,2.0,4095,V*05
$GNGGA,040305.00,3727.0405092,N,12639.2388547,E,5,12,0.63,31.621,M,17.837,M,2.0,4095*58
$GNGSA,A,3,06,17,04,03,14,01,19,,,,,,1.29,0.63,1.12,1*07
$GNGSA,A,3,77,78,87,88,71,72,,,,,,,1.29,0.63,1.12,2*0C
$GNGSA,A,3,30,11,09,34,02,04,36,,,,,,1.29,0.63,1.12,3*00
$GNGSA,A,3,23,08,11,37,07,28,10,03,,,,,1.29,0.63,1.12,4*0B
$GPGSV,3,1,09,01,18,062,29,03,45,052,42,04,17,106,21,06,44,276,33,1*68
$GPGSV,3,2,09,14,41,192,47,17,75,020,45,19,58,325,44,28,,,46,1*5B
$GPGSV,3,3,09,41,27,238,37,1*50
$GPGSV,2,1,06,01,18,062,30,03,45,052,39,04,17,106,24,06,44,276,30,6*63
$GPGSV,2,2,06,14,41,192,39,17,75,020,41,6*66
$GPGSV,1,1,04,09,13,138,,11,09,257,,12,02,327,,40,06,259,,0*62
$GLGSV,2,1,07,71,36,055,38,72,42,123,12,76,09,202,40,77,32,246,20,1*7B
$GLGSV,2,2,07,78,25,311,39,87,51,344,33,88,22,296,34,1*4C
$GLGSV,2,1,05,71,36,055,28,76,09,202,30,77,32,246,15,78,25,311,29,3*7B
$GLGSV,2,2,05,88,22,296,34,3*45
$GLGSV,1,1,03,65,13,169,,70,02,020,,86,28,066,,0*46
$GAGSV,2,1,07,02,47,220,44,04,13,049,31,11,17,067,26,18,36,304,36,2*77
$GAGSV,2,2,07,30,39,295,34,34,47,288,37,36,60,029,46,2*49
$GAGSV,2,1,08,02,47,220,46,04,13,049,30,09,26,101,28,11,17,067,31,7*71
$GAGSV,2,2,08,18,36,304,39,30,39,295,40,34,47,288,28,36,60,029,45,7*7C
$GAGSV,1,1,02,15,03,263,,25,14,176,,0*74
$GBGSV,3,1,09,03,44,206,39,07,72,223,44,08,51,245,35,10,69,264,41,1*73
$GBGSV,3,2,09,13,42,242,41,21,20,044,26,23,20,233,38,28,35,301,32,1*7B
$GBGSV,3,3,09,37,20,286,31,1*47
$GBGSV,2,1,05,03,44,206,38,07,72,223,39,08,51,245,40,10,69,264,40,3*74
$GBGSV,2,2,05,11,47,073,29,3*4D
$GBGSV,1,1,03,04,35,132,,12,03,097,,34,29,090,,0*4D
$GNVTG,,T,,M,0.043,N,0.080,K,D*37
$GNGNS,040306.00,3727.0405008,N,12639.2388328,E,FFFF,27,0.66,32.088,17.837,2.0,4095,V*06
$GNGGA,040306.00,3727.0405008,N,12639.2388328,E,5,12,0.66,32.088,M,17.837,M,2.0,4095*54
$GNGSA,A,3,23,08,11,37,07,28,10,03,,,,,1.36,0.66,1.19,4*0B
$GPGSV,3,1,09,01,18,062,30,03,45,052,43,04,17,106,21,06,44,276,33,1*61
$GPGSV,3,2,09,14,41,192,47,17,75,020,45,19,58,325,45,28,,,46,1*5A
$GPGSV,3,3,09,41,27,238,36,1*51
$GPGSV,2,1,06,01,18,062,30,03,45,052,39,04,17,106,24,06,44,276,30,6*63
$GPGSV,2,2,06,14,41,192,39,17,75,020,41,6*66
$GPGSV,1,1,04,09,13,138,,11,09,257,,12,02,327,,40,06,259,,0*62
$GLGSV,2,1,07,71,36,055,38,72,42,123,14,76,09,202,39,77,32,246,20,1*73
$GLGSV,2,2,07,78,25,311,37,87,51,344,33,88,22,296,35,1*43
$GLGSV,2,1,05,71,36,055,28,76,09,202,29,77,32,246,13,78,25,311,29,3*75
$GLGSV,2,2,05,88,22,296,34,3*45
$GLGSV,1,1,03,65,13,169,,70,02,020,,86,28,066,,0*46
$GAGSV,2,1,07,02,47,220,45,04,13,049,31,11,17,067,26,18,36,304,35,2*75
$GAGSV,2,2,07,30,39,295,35,34,47,288,36,36,60,029,47,2*48
$GAGSV,2,1,08,02,47,220,44,04,13,049,29,09,26,101,27,11,17,067,31,7*74
$GBGSV,3,2,09,13,42,242,41,21,20,044,26,23,20,233,36,28,35,301,34,1*73
$GBGSV,3,3,09,37,20,286,34,1*42
$GBGSV,2,1,05,03,44,206,38,07,72,223,39,08,51,246,41,10,69,264,40,3*76
$GBGSV,2,2,05,11,47,073,29,3*4D
$GBGSV,1,1,03,04,35,132,,12,03,097,,34,29,090,,0*4D
$GNRMC,040307.00,A,3727.0405245,N,12639.2387434,E,0.027,,220622,,,F,V*11
$GNVTG,,T,,M,0.027,N,0.050,K,D*38
$GNGNS,040307.00,3727.0405245,N,12639.2387434,E,FFFF,27,0.66,32.427,17.837,2.0,4095,V*08
$GNGGA,040307.00,3727.0405245,N,12639.2387434,E,5,12,0.66,32.427,M,17.837,M,2.0,4095*5A
$GNGSA,A,3,06,17,04,03,14,01,19,,,,,,1.30,0.66,1.12,1*0A
$GNGSA,A,3,77,78,87,88,71,72,,,,,,,1.30,0.66,1.12,2*01
$GNGSA,A,3,30,11,09,34,02,04,36,,,,,,1.30,0.66,1.12,3*0D
$GNGSA,A,3,23,08,11,37,07,28,10,03,,,,,1.30,0.66,1.12,4*06
$GPGSV,3,1,09,01,18,062,30,03,45,052,43,04,17,106,21,06,44,276,34,1*66
$GPGSV,3,2,09,14,41,192,47,17,75,020,45,19,58,325,46,28,,,46,1*59
$GPGSV,3,3,09,41,27,238,37,1*50
$GPGSV,2,1,06,01,18,062,29,03,45,052,39,04,17,106,24,06,44,276,30,6*6B
$GPGSV,2,2,06,14,41,192,39,17,75,020,41,6*66
$GPGSV,1,1,04,09,13,138,,11,09,257,,12,02,327,,40,06,259,,0*62
$GLGSV,2,1,07,71,36,055,38,72,42,123,15,76,09,202,39,77,32,246,19,1*78
$GLGSV,2,2,07,78,25,311,37,87,51,344,34,88,22,296,36,1*47
$GLGSV,2,1,05,71,36,055,28,76,09,202,29,77,32,246,10,78,25,311,29,3*76
$GLGSV,2,2,05,88,22,296,34,3*45
$GLGSV,1,1,03,65,13,169,,70,02,020,,86,28,066,,0*46
$GAGSV,2,1,07,02,47,220,45,04,13,049,31,11,17,067,26,18,36,304,35,2*75
$GAGSV,2,2,07,30,39,295,35,34,47,288,35,36,60,029,47,2*4B
$GAGSV,2,1,08,02,47,220,45,04,13,049,30,09,26,101,28,11,17,067,31,7*72
$GAGSV,2,2,08,18,36,304,38,30,39,295,40,34,47,288,30,36,60,029,45,7*74
$GAGSV,1,1,02,15,03,263,,25,14,176,,0*74
$GBGSV,3,1,09,03,44,206,39,07,72,223,44,08,51,246,36,10,69,264,40,1*72
$GBGSV,3,2,09,13,42,242,41,21,20,044,27,23,20,233,36,28,35,301,33,1*75
$GBGSV,3,3,09,37,20,286,34,1*42
$GBGSV,2,1,05,03,44,206,39,07,72,223,40,08,51,246,41,10,69,264,40,3*79
$GBGSV,2,2,05,11,47,073,29,3*4D
$GNRMC,040308.00,A,3727.0405589,N,12639.2386506,E,0.038,,220622,,,F,V*16
$GNVTG,,T,,M,0.038,N,0.070,K,D*34
$GNGNS,040308.00,3727.0405589,N,12639.2386506,E,FFFF,28,0.67,32.669,17.837,2.0,4095,V*07
$GNGGA,040308.00,3727.0405589,N,12639.2386506,E,5,12,0.67,32.669,M,17.837,M,2.0,4095*5A
$GNGSA,A,3,06,17,04,03,14,01,19,,,,,,1.39,0.67,1.22,1*01
$GNGSA,A,3,77,78,87,88,71,72,,,,,,,1.39,0.67,1.22,2*0A
$GNGSA,A,3,30,11,09,34,02,04,36,,,,,,1.39,0.67,1.22,3*06
$GNGSA,A,3,23,08,11,37,07,28,10,03,,,,,1.39,0.67,1.22,4*0D
$GPGSV,3,1,09,01,18,062,30,03,45,052,43,04,17,106,20,06,44,276,32,1*61
$GPGSV,3,2,09,14,41,192,47,17,75,020,45,19,58,325,45,28,,,46,1*5A
$GPGSV,3,3,09,41,27,238,37,1*50
$GPGSV,2,1,06,01,18,062,29,03,45,052,39,04,17,106,24,06,44,276,31,6*6A
$GPGSV,2,2,06,14,41,192,39,17,75,020,41,6*66
$GPGSV,1,1,04,09,13,138,,11,09,257,,12,02,327,,40,06,259,,0*62
$GLGSV,2,1,07,71,36,055,38,72,42,123,13,76,09,202,39,77,32,246,18,1*7F
$GLGSV,2,2,07,78,25,311,37,87,51,344,34,88,22,296,36,1*47
$GLGSV,2,1,05,71,36,055,28,76,09,202,31,77,32,246,10,78,25,311,31,3*76
$GLGSV,2,2,05,88,22,296,34,3*45
$GLGSV,1,1,03,65,13,169,,70,02,020,,86,28,066,,0*46
$GAGSV,2,1,07,02,47,220,45,04,13,049,31,11,17,067,26,18,36,304,36,2*76
$GAGSV,2,2,07,30,39,295,36,34,47,288,35,36,60,029,47,2*48
$GAGSV,2,1,08,02,47,220,45,04,13,049,30,09,26,101,28,11,17,067,31,7*72
$GAGSV,2,2,08,18,36,304,38,30,39,295,40,34,47,288,29,36,60,029,45,7*7C
$GAGSV,1,1,02,15,03,263,,25,14,176,,0*74
$GBGSV,3,1,09,03,44,206,39,07,72,223,44,08,51,246,36,10,69,263,41,1*74
$GBGSV,3,2,09,13,42,242,41,21,20,044,27,23,20,233,36,28,35,301,33,1*75
$GBGSV,3,3,09,37,20,286,33,1*45
$GBGSV,2,1,05,03,44,206,39,07,72,223,40,08,51,246,41,10,69,263,41,3*7F
$GBGSV,2,2,05,11,47,073,30,3*45
$GBGSV,1,1,03,04,35,132,,12,03,097,,34,29,090,,0*4D
$GNRMC,040309.00,A,3727.0405964,N,12639.2385578,E,0.025,,220622,,,F,V*1E
$GNVTG,,T,,M,0.025,N,0.046,K,D*3D
$GNGNS,040309.00,3727.0405964,N,12639.2385578,E,FFFF,28,0.63,32.851,17.837,3.0,4095,V*03
$GNGGA,040309.00,3727.0405964,N,12639.2385578,E,5,12,0.63,32.851,M,17.837,M,3.0,4095*5E
$GNGSA,A,3,06,17,04,03,14,01,19,,,,,,1.29,0.63,1.12,1*07
$GNGSA,A,3,77,78,87,88,71,72,,,,,,,1.29,0.63,1.12,2*0C
$GNGSA,A,3,30,11,09,34,02,04,36,,,,,,1.29,0.63,1.12,3*00
$GNGSA,A,3,23,08,11,37,07,28,10,03,,,,,1.29,0.63,1.12,4*0B
$GPGSV,3,1,09,01,18,062,30,03,45,052,43,04,17,106,20,06,44,276,31,1*62
$GPGSV,3,2,09,14,41,192,47,17,75,020,45,19,58,325,46,28,,,45,1*5A
$GPGSV,3,3,09,41,27,238,37,1*50
$GPGSV,2,1,06,01,18,062,30,03,45,052,40,04,17,106,24,06,44,276,32,6*6F
$GPGSV,2,2,06,14,41,192,39,17,75,020,42,6*65
$GPGSV,1,1,04,09,13,138,,11,09,257,,12,02,327,,40,06,259,,0*62
$GLGSV,2,1,07,71,36,055,39,72,42,123,18,76,09,202,39,77,32,246,18,1*75
$GLGSV,2,2,07,78,25,311,37,87,51,344,36,88,22,296,38,1*4B
$GLGSV,2,1,05,71,36,055,29,76,09,202,31,77,32,246,08,78,25,311,31,3*7E
$GLGSV,2,2,05,88,22,296,35,3*44
$GLGSV,1,1,03,65,13,169,,70,02,020,,86,28,066,,0*46
$GAGSV,2,1,07,02,47,220,45,04,13,049,31,11,17,067,27,18,36,304,35,2*74
$GAGSV,2,2,07,30,39,295,35,34,47,288,34,36,60,029,47,2*4A
$GAGSV,2,1,08,02,47,220,45,04,13,049,30,09,26,101,28,11,17,067,31,7*72
$GAGSV,2,2,08,18,36,304,38,30,39,295,40,34,47,288,28,36,60,029,45,7*7D
$GAGSV,1,1,02,15,03,263,,25,14,176,,0*74
$GBGSV,3,1,09,03,44,206,39,07,72,223,44,08,51,246,36,10,69,263,41,1*74
$GBGSV,3,2,09,13,42,242,42,21,20,044,27,23,20,233,35,28,35,301,35,1*73
$GBGSV,3,3,09,37,20,286,33,1*45
$GBGSV,2,1,05,03,44,206,39,07,72,223,40,08,51,246,41,10,69,263,41,3*7F
$GBGSV,2,2,05,11,46,074,30,3*43
$GBGSV,1,1,03,04,35,132,,12,03,097,,34,29,090,,0*4D
$GNRMC,040310.00,A,3727.0406429,N,12639.2384652,E,0.042,,220622,,,F,V*1A
$GNVTG,,T,,M,0.042,N,0.078,K,D*31
$GNGNS,040310.00,3727.0406429,N,12639.2384652,E,FFFF,27,0.67,32.982,17.837,2.0,4095,V*03
$GNGGA,040310.00,3727.0406429,N,12639.2384652,E,5,12,0.67,32.982,M,17.837,M,2.0,4095*51
$GNGSA,A,3,06,17,04,03,14,01,19,,,,,,1.32,0.67,1.13,1*08
$GNGSA,A,3,77,78,87,88,71,72,,,,,,,1.32,0.67,1.13,2*03
$GNGSA,A,3,30,11,09,34,02,04,36,,,,,,1.32,0.67,1.13,3*0F
$GNGSA,A,3,23,08,11,37,07,28,10,03,,,,,1.32,0.67,1.13,4*04
$GPGSV,3,1,09,01,18,062,30,03,45,052,43,04,17,106,19,06,44,276,32,1*6B
$GPGSV,3,2,09,14,41,192,47,17,75,020,45,19,58,325,46,28,,,46,1*59
$GPGSV,3,3,09,41,27,238,36,1*51
$GPGSV,2,1,06,01,18,062,30,03,45,052,40,04,17,106,24,06,44,276,33,6*6E
$GPGSV,2,2,06,14,41,192,40,17,75,020,42,6*6B
$GPGSV,1,1,04,09,13,138,,11,09,257,,12,02,327,,40,06,259,,0*62
$GLGSV,2,1,07,71,36,055,39,72,42,123,17,76,09,202,40,77,32,246,19,1*75
$GLGSV,2,2,07,78,25,311,36,87,51,344,36,88,22,296,38,1*4A
$GLGSV,2,1,05,71,36,055,29,76,09,202,29,77,32,246,14,78,25,311,31,3*7A
$GLGSV,2,2,05,88,22,296,35,3*44
$GLGSV,1,1,03,65,13,169,,70,02,020,,86,28,066,,0*46
$GAGSV,2,1,07,02,47,220,45,04,13,049,32,11,17,067,27,18,36,304,35,2*77
$GAGSV,2,2,07,30,39,295,35,34,47,288,35,36,60,029,47,2*4B
$GAGSV,2,1,08,02,47,220,45,04,13,049,30,09,26,101,28,11,17,067,31,7*72
$GAGSV,2,2,08,18,36,304,38,30,39,295,39,34,47,288,25,36,60,029,45,7*7E
$GAGSV,1,1,02,15,03,263,,25,14,176,,0*74
$GBGSV,3,1,09,03,44,206,39,07,72,223,44,08,51,246,36,10,69,263,41,1*74
$GBGSV,3,2,09,13,42,242,42,21,20,044,28,23,20,233,35,28,35,301,34,1*7D
$GBGSV,3,3,09,37,20,286,33,1*45
$GBGSV,2,1,05,03,44,206,39,07,72,223,40,08,51,246,41,10,69,263,41,3*7F
$GBGSV,2,2,05,11,46,074,30,3*43
$GBGSV,1,1,03,04,35,132,,12,02,098,,34,29,090,,0*43
$GNRMC,040311.00,A,3727.0406895,N,12639.2383646,E,0.041,,220622,,,F,V*11
$GNVTG,,T,,M,0.041,N,0.076,K,D*3C
$GNGNS,040311.00,3727.0406895,N,12639.2383646,E,FFFF,27,0.67,33.051,17.837,2.0,4095,V*0D
$GNGGA,040311.00,3727.0406895,N,12639.2383646,E,5,12,0.67,33.051,M,17.837,M,2.0,4095*5F
$GNGSA,A,3,06,17,04,03,14,01,19,,,,,,1.38,0.67,1.21,1*03
$GNGSA,A,3,77,78,87,88,71,72,,,,,,,1.38,0.67,1.21,2*08
$GNGSA,A,3,30,11,09,34,02,04,36,,,,,,1.38,0.67,1.21,3*04
$GNGSA,A,3,23,08,11,37,07,28,10,03,,,,,1.38,0.67,1.21,4*0F
$GPGSV,3,1,09,01,18,062,30,03,45,052,43,04,17,106,19,06,44,276,33,1*6A
$GPGSV,3,2,09,14,41,192,47,17,75,020,45,19,58,325,46,28,,,45,1*5A
$GPGSV,3,3,09,41,27,238,36,1*51
$GPGSV,2,1,06,01,18,062,30,03,45,052,40,04,17,106,24,06,44,276,32,6*6F
$GPGSV,2,2,06,14,41,192,40,17,75,020,42,6*6B
$GPGSV,1,1,04,09,13,138,,11,09,257,,12,02,327,,40,06,259,,0*62
$GLGSV,2,1,07,71,36,055,38,72,42,123,16,76,09,202,41,77,32,246,18,1*75
$GLGSV,2,2,07,78,25,311,36,87,51,344,37,88,22,296,38,1*4B
$GLGSV,2,1,05,71,36,055,29,76,09,202,29,77,32,246,13,78,25,311,31,3*7D
$GLGSV,2,2,05,88,22,296,35,3*44
$GLGSV,1,1,03,65,13,169,,70,02,020,,86,28,066,,0*46
$GAGSV,2,1,07,02,47,220,45,04,13,049,31,11,17,067,27,18,36,304,35,2*74
$GAGSV,2,2,07,30,39,295,36,34,47,288,35,36,60,029,47,2*48
$GAGSV,2,1,07,02,47,220,45,04,13,049,30,09,26,101,28,11,17,067,31,7*7D
$GAGSV,2,2,07,18,36,304,40,30,39,295,39,36,60,029,45,7*4F
$GAGSV,1,1,02,15,03,263,,25,14,176,,0*74
$GBGSV,3,1,09,03,44,206,39,07,72,223,44,08,51,246,37,10,69,263,41,1*75
$GBGSV,3,2,09,13,42,243,42,21,20,044,28,23,20,233,34,28,35,301,33,1*7A
$GBGSV,3,3,09,37,20,286,33,1*45
$GBGSV,2,1,05,03,44,206,39,07,72,223,40,08,51,246,41,10,69,263,41,3*7F
$GBGSV,2,2,05,11,46,074,30,3*43
$GBGSV,1,1,03,04,35,132,,12,02,098,,34,29,090,,0*43
$GNRMC,040312.00,A,3727.0407368,N,12639.2382581,E,0.021,,220622,,,F,V*15
$GNVTG,,T,,M,0.021,N,0.038,K,D*30
$GNGNS,040312.00,3727.0407368,N,12639.2382581,E,FFFF,27,0.63,33.100,17.837,2.0,4095,V*0E
$GNGGA,040312.00,3727.0407368,N,12639.2382581,E,5,12,0.63,33.100,M,17.837,M,2.0,4095*5C
$GNGSA,A,3,06,17,04,03,14,01,19,,,,,,1.29,0.63,1.12,1*07
$GNGSA,A,3,77,78,87,88,71,72,,,,,,,1.29,0.63,1.12,2*0C
$GNGSA,A,3,30,11,09,34,02,04,36,,,,,,1.29,0.63,1.12,3*00
$GNGSA,A,3,23,08,11,37,07,28,10,03,,,,,1.29,0.63,1.12,4*0B
$GPGSV,3,1,09,01,18,062,30,03,45,052,43,04,17,106,20,06,44,276,33,1*60
$GPGSV,3,2,09,14,41,192,47,17,75,020,45,19,58,325,46,28,,,46,1*59
$GPGSV,3,3,09,41,27,238,37,1*50
$GPGSV,2,1,06,01,18,062,30,03,45,052,40,04,17,106,23,06,44,276,31,6*6B
$GPGSV,2,2,06,14,41,192,40,17,75,020,42,6*6B
$GPGSV,1,1,04,09,13,138,,11,09,257,,12,02,327,,40,06,259,,0*62
$GLGSV,2,1,07,71,36,055,39,72,42,123,16,76,09,202,40,77,32,246,17,1*7A
$GLGSV,2,2,07,78,25,311,36,87,51,344,39,88,22,296,38,1*45
$GLGSV,2,1,05,71,36,055,30,76,09,202,29,77,32,246,12,78,25,311,30,3*75
$GLGSV,2,2,05,88,22,296,35,3*44
$GLGSV,1,1,03,65,13,169,,70,02,020,,86,28,066,,0*46
$GAGSV,2,1,07,02,47,220,45,04,13,049,31,11,17,067,27,18,36,304,36,2*77
$GAGSV,2,2,07,30,39,295,36,34,47,288,35,36,60,029,47,2*48
$GAGSV,2,1,07,02,47,220,45,04,13,049,30,09,26,101,28,11,17,067,31,7*7D
$GAGSV,2,2,07,18,36,304,39,30,39,295,39,36,60,029,45,7*41
$GAGSV,1,1,02,15,03,263,,25,14,176,,0*74
$GBGSV,3,1,09,03,44,206,39,07,72,223,44,08,51,246,37,10,69,263,41,1*75
$GBGSV,3,2,09,13,42,243,42,21,20,044,28,23,20,233,34,28,35,301,32,1*7B
$GBGSV,3,3,09,37,20,286,33,1*45
$GBGSV,2,1,05,03,44,206,39,07,72,223,40,08,51,246,41,10,69,263,41,3*7F
$GBGSV,2,2,05,11,46,074,30,3*43
$GBGSV,1,1,03,04,35,132,,12,02,098,,34,29,090,,0*43
$GNRMC,040313.00,A,3727.0408048,N,12639.2380953,E,0.011,,220622,,,F,V*18
$GNVTG,,T,,M,0.011,N,0.020,K,D*3A
$GNGNS,040313.00,3727.0408048,N,12639.2380953,E,FFFF,27,0.72,33.067,17.837,1.0,4095,V*03
$GNGGA,040313.00,3727.0408048,N,12639.2380953,E,5,12,0.72,33.067,M,17.837,M,1.0,4095*51
$GNGSA,A,3,06,17,04,03,14,01,19,,,,,,1.45,0.72,1.25,1*09
$GNGSA,A,3,77,78,87,88,71,72,,,,,,,1.45,0.72,1.25,2*02
$GNGSA,A,3,30,11,09,34,02,04,36,,,,,,1.45,0.72,1.25,3*0E
$GNGSA,A,3,23,08,11,37,07,28,10,03,,,,,1.45,0.72,1.25,4*05
$GPGSV,3,1,09,01,18,062,29,03,45,052,43,04,17,106,20,06,44,276,34,1*6F
$GPGSV,3,2,09,14,41,192,47,17,75,020,44,19,58,325,46,28,,,46,1*58
$GPGSV,3,3,09,41,27,238,37,1*50
$GPGSV,2,1,06,01,18,062,30,03,45,052,39,04,17,106,22,06,44,276,31,6*64
$GPGSV,2,2,06,14,41,192,39,17,75,020,41,6*66
$GPGSV,1,1,04,09,13,138,,11,09,257,,12,02,327,,40,06,259,,0*62
$GLGSV,2,1,07,71,36,055,39,72,42,123,13,76,09,202,42,77,32,246,15,1*7F
$GLGSV,2,2,07,78,25,311,36,87,51,344,39,88,22,296,39,1*44
$GLGSV,2,1,05,71,36,055,29,76,09,202,29,77,32,246,17,78,25,311,30,3*78
$GLGSV,2,2,05,88,22,296,35,3*44
$GLGSV,1,1,03,65,13,169,,70,02,020,,86,28,066,,0*46
$GAGSV,2,1,07,02,47,220,45,04,13,049,31,11,17,067,27,18,36,304,35,2*74
$GAGSV,2,2,07,30,39,295,36,34,47,288,35,36,60,029,47,2*48
$GAGSV,2,1,07,02,47,220,45,04,13,049,31,09,26,101,28,11,17,067,31,7*7C
$GAGSV,2,2,07,18,36,304,39,30,39,295,39,36,60,029,45,7*41
$GAGSV,1,1,02,15,03,263,,25,14,176,,0*74
$GBGSV,3,1,09,03,44,206,39,07,72,223,44,08,51,246,37,10,69,263,41,1*75
$GBGSV,3,2,09,13,42,243,42,21,20,044,29,23,20,233,34,28,35,301,32,1*7A
$GBGSV,3,3,09,37,20,286,33,1*45
$GBGSV,2,1,06,03,44,206,39,07,72,223,40,08,51,246,41,10,69,263,41,3*7C
$GBGSV,2,2,06,11,46,074,30,13,42,243,28,3*7B
$GBGSV,1,1,03,04,35,132,,12,02,098,,34,29,090,,0*43
$GNRMC,040314.00,A,3727.0408633,N,12639.2379738,E,0.013,,220622,,,F,V*12
$GNVTG,,T,,M,0.013,N,0.023,K,D*3B
$GNGNS,040314.00,3727.0408633,N,12639.2379738,E,FFFF,27,0.65,32.998,17.837,2.0,4095,V*06
$GNGGA,040314.00,3727.0408633,N,12639.2379738,E,5,12,0.65,32.998,M,17.837,M,2.0,4095*54
$GNGSA,A,3,06,17,04,03,14,01,19,,,,,,1.31,0.65,1.13,1*09
$GNGSA,A,3,77,78,87,88,71,72,,,,,,,1.31,0.65,1.13,2*02
$GNGSA,A,3,30,11,09,34,02,04,36,,,,,,1.31,0.65,1.13,3*0E
$GNGSA,A,3,23,08,11,37,07,28,10,03,,,,,1.31,0.65,1.13,4*05
$GPGSV,3,1,09,01,18,062,30,03,45,052,43,04,17,106,21,06,44,276,34,1*66
$GPGSV,3,2,09,14,41,192,47,17,75,020,45,19,58,325,47,28,,,45,1*5B
$GPGSV,3,3,09,41,27,238,37,1*50
$GPGSV,2,1,06,01,18,062,29,03,45,052,39,04,17,106,22,06,44,276,31,6*6C
$GPGSV,2,2,06,14,41,192,40,17,75,020,41,6*68
$GPGSV,2,1,05,02,06,263,,09,13,138,,11,09,257,,12,02,327,,0*6F
$GPGSV,2,2,05,12,02,327,,0*57
$GLGSV,2,1,07,71,36,055,39,72,42,123,11,76,09,202,41,77,32,246,13,1*78
$GLGSV,2,2,07,78,25,311,36,87,51,344,40,88,22,296,38,1*4B
$GLGSV,2,1,05,71,36,055,29,76,09,202,29,77,32,246,14,78,25,311,30,3*7B
$GLGSV,2,2,05,88,22,296,36,3*47
$GLGSV,1,1,03,65,13,169,,70,02,020,,86,28,066,,0*46
$GAGSV,2,1,07,02,47,220,45,04,13,049,32,11,17,067,27,18,36,304,35,2*77
$GAGSV,2,2,07,30,39,295,36,34,47,288,35,36,60,029,47,2*48
$GAGSV,2,1,07,02,47,220,45,04,13,049,30,09,26,101,28,11,17,067,30,7*7C
$GAGSV,2,2,07,18,36,304,39,30,39,295,39,36,60,029,45,7*41
$GAGSV,1,1,02,15,03,263,,25,14,176,,0*74
$GBGSV,3,1,09,03,44,206,39,07,72,223,44,08,51,246,37,10,69,263,41,1*75
$GBGSV,3,2,09,13,42,243,42,21,20,044,30,23,20,233,34,28,35,301,32,1*72
$GBGSV,3,3,09,37,20,286,33,1*45
$GBGSV,2,1,06,03,44,206,39,07,72,223,40,08,51,246,41,10,69,263,41,3*7C
$GNRMC,040315.00,A,3727.0409281,N,12639.2378695,E,0.012,,220622,,,F,V*19
$GNVTG,,T,,M,0.012,N,0.023,K,D*3A
$GNGNS,040315.00,3727.0409281,N,12639.2378695,E,FFFF,28,0.63,32.959,17.837,2.0,4095,V*08
$GNGGA,040315.00,3727.0409281,N,12639.2378695,E,5,12,0.63,32.959,M,17.837,M,2.0,4095*55
$GNGSA,A,3,06,17,04,03,14,01,19,,,,,,1.29,0.63,1.12,1*07
$GNGSA,A,3,77,78,87,88,71,72,,,,,,,1.29,0.63,1.12,2*0C
$GNGSA,A,3,30,11,09,34,02,04,36,,,,,,1.29,0.63,1.12,3*00
$GNGSA,A,3,23,13,08,11,37,07,28,10,03,,,,1.29,0.63,1.12,4*09
$GPGSV,3,1,09,01,18,062,30,03,45,052,43,04,17,106,22,06,44,276,32,1*63
$GPGSV,3,2,09,14,41,192,47,17,75,020,45,19,58,325,47,28,,,45,1*5B
$GPGSV,3,3,09,41,27,238,37,1*50
$GPGSV,2,1,06,01,18,062,29,03,45,052,39,04,17,106,22,06,44,276,31,6*6C
$GPGSV,2,2,06,14,41,192,40,17,75,020,41,6*68
$GPGSV,2,1,05,02,06,263,,09,13,138,,11,09,257,,12,02,327,,0*6F
$GPGSV,2,2,05,12,02,327,,0*57
$GLGSV,2,1,07,71,36,055,38,72,42,123,12,76,09,202,42,77,32,246,09,1*72
$GLGSV,2,2,07,78,25,311,36,87,51,344,41,88,22,296,39,1*4B
$GLGSV,2,1,05,71,36,055,29,76,09,202,28,77,32,246,17,78,25,311,30,3*79
$GLGSV,2,2,05,88,22,296,35,3*44
$GLGSV,1,1,03,65,13,169,,70,02,020,,86,28,066,,0*46
$GAGSV,2,1,07,02,47,220,45,04,13,049,32,11,17,067,26,18,36,304,36,2*75
$GAGSV,2,2,07,30,39,295,36,34,47,288,35,36,60,029,47,2*48
$GAGSV,2,1,08,02,47,220,45,04,13,049,30,09,26,101,28,11,17,067,30,7*73
$GAGSV,2,2,08,18,36,304,39,30,39,295,39,34,47,288,28,36,60,029,45,7*72
$GAGSV,1,1,02,15,03,263,,25,14,176,,0*74
$GBGSV,3,1,09,03,44,206,39,07,72,223,44,08,51,246,37,10,69,263,42,1*76
$GBGSV,3,2,09,13,42,243,41,21,20,044,31,23,20,233,34,28,35,301,33,1*71
$GBGSV,3,3,09,37,20,286,32,1*44
$GBGSV,2,1,06,03,44,206,39,07,72,223,40,08,51,246,41,10,69,263,41,3*7C
$GBGSV,2,2,06,11,46,074,30,13,42,243,27,3*74
$GBGSV,1,1,03,04,35,132,,12,02,098,,34,29,090,,0*43
$GNRMC,040316.00,A,3727.0409911,N,12639.2377621,E,0.001,,220622,,,F,V*1A
$GNVTG,,T,,M,0.001,N,0.002,K,D*3B
$GNGNS,040316.00,3727.0409911,N,12639.2377621,E,FFFF,29,0.68,32.892,17.837,2.0,4095,V*05
$GNGGA,040316.00,3727.0409911,N,12639.2377621,E,5,12,0.68,32.892,M,17.837,M,2.0,4095*59
$GNGSA,A,3,06,17,04,03,14,01,19,,,,,,1.37,0.68,1.19,1*08
$GNGSA,A,3,77,78,87,88,71,72,,,,,,,1.37,0.68,1.19,2*03
$GNGSA,A,3,30,11,09,34,02,04,36,,,,,,1.37,0.68,1.19,3*0F
$GNGSA,A,3,23,13,08,11,37,07,28,10,03,,,,1.37,0.68,1.19,4*06
$GPGSV,3,1,09,01,18,062,30,03,45,052,43,04,17,106,23,06,44,276,33,1*63
$GPGSV,3,2,09,14,41,192,47,17,75,020,45,19,58,325,47,28,,,45,1*5B
$GPGSV,3,3,09,41,27,238,36,1*51
$GPGSV,2,1,06,01,18,062,29,03,45,052,39,04,17,106,21,06,44,276,32,6*6C
$GPGSV,2,2,06,14,41,192,40,17,75,020,41,6*68
$GPGSV,2,1,05,02,06,263,,09,13,138,,11,09,257,,12,02,327,,0*6F
$GPGSV,2,2,05,12,02,327,,0*57
$GLGSV,2,1,07,71,36,055,40,72,42,123,13,76,09,202,44,77,32,246,09,1*7A
$GLGSV,2,2,07,78,25,311,34,87,51,344,44,88,22,296,40,1*42
$GLGSV,2,1,05,71,36,055,28,76,09,202,28,77,32,246,18,78,25,311,30,3*77
$GLGSV,2,2,05,88,22,296,36,3*47
$GLGSV,1,1,03,65,13,169,,70,02,020,,86,28,066,,0*46
$GAGSV,2,1,07,02,47,220,46,04,13,049,32,11,17,067,27,18,36,304,32,2*73
$GAGSV,2,2,07,30,39,295,36,34,47,288,35,36,60,029,47,2*48
$GAGSV,2,1,08,02,47,220,45,04,13,049,30,09,26,101,28,11,17,067,30,7*73
$GAGSV,2,2,08,18,36,304,40,30,39,295,39,34,47,288,27,36,60,029,45,7*73
$GAGSV,1,1,02,15,03,263,,25,14,176,,0*74
$GBGSV,3,1,09,03,44,206,39,07,72,223,44,08,51,246,37,10,69,263,43,1*77
$GBGSV,3,2,09,13,42,243,43,21,20,044,31,23,20,233,34,28,35,301,35,1*75
$GBGSV,3,3,09,37,20,285,31,1*44
$GBGSV,2,1,05,03,44,206,39,07,72,223,40,08,51,246,39,10,69,263,41,3*70
$GNRMC,040317.00,A,3727.0410552,N,12639.2376638,E,0.007,,220622,,,F,V*17
$GNVTG,,T,,M,0.007,N,0.013,K,D*3D
$GNGNS,040317.00,3727.0410552,N,12639.2376638,E,FFFF,28,0.62,32.808,17.837,3.0,4095,V*07
$GNGGA,040317.00,3727.0410552,N,12639.2376638,E,5,12,0.62,32.808,M,17.837,M,3.0,4095*5A
$GNGSA,A,3,06,17,04,03,14,01,19,,,,,,1.28,0.62,1.12,1*07
$GNGSA,A,3,77,78,87,88,71,72,,,,,,,1.28,0.62,1.12,2*0C
$GNGSA,A,3,30,11,09,34,02,04,36,,,,,,1.28,0.62,1.12,3*00
$GNGSA,A,3,23,13,08,11,37,07,28,10,03,,,,1.28,0.62,1.12,4*09
$GPGSV,3,1,09,01,18,062,33,03,45,052,44,04,17,106,23,06,44,276,33,1*67
$GPGSV,3,2,09,14,41,192,49,17,75,020,47,19,58,325,49,28,,,47,1*5B
$GPGSV,3,3,09,41,27,238,38,1*5F
$GPGSV,2,1,06,01,18,062,29,03,45,052,39,04,17,106,22,06,44,276,32,6*6F
$GPGSV,2,2,06,14,41,192,40,17,75,020,41,6*68
$GPGSV,2,1,05,02,06,263,,09,13,138,,11,09,257,,12,02,327,,0*6F
$GPGSV,2,2,05,12,02,327,,0*57
$GLGSV,2,1,07,71,36,055,41,72,42,123,11,76,09,202,45,77,32,246,15,1*75
$GLGSV,2,2,07,78,25,311,34,87,51,344,44,88,22,296,41,1*43
$GLGSV,2,1,05,71,36,055,28,76,09,202,29,77,32,246,17,78,25,311,29,3*71
$GLGSV,2,2,05,88,22,296,36,3*47
$GLGSV,1,1,03,65,13,169,,70,02,020,,86,28,066,,0*46
$GAGSV,2,1,07,02,47,220,46,04,13,048,32,11,17,067,26,18,36,304,32,2*73
$GAGSV,2,2,07,30,39,295,35,34,47,288,35,36,60,029,47,2*4B
$GAGSV,2,1,08,02,47,220,45,04,13,048,32,09,26,101,28,11,17,067,30,7*70
$GAGSV,2,2,08,18,36,304,39,30,39,295,39,34,47,288,26,36,60,029,46,7*7F
$GAGSV,1,1,02,15,03,263,,25,14,176,,0*74
$GBGSV,3,1,09,03,44,206,41,07,72,223,45,08,51,246,38,10,69,263,43,1*76
$GBGSV,3,2,09,13,42,243,43,21,20,044,32,23,20,233,35,28,35,301,32,1*70
$GBGSV,3,3,09,37,20,285,33,1*46
$GBGSV,2,1,05,03,44,206,39,07,72,223,40,08,51,246,40,10,69,263,40,3*7F
$GBGSV,2,2,05,11,46,074,31,3*42
$GBGSV,1,1,03,04,35,132,,12,02,098,,34,29,090,,0*43
$GNRMC,040318.00,A,3727.0411150,N,12639.2375655,E,0.007,,220622,,,F,V*17
$GNVTG,,T,,M,0.007,N,0.014,K,D*3A
$GNRMC,040319.00,A,3727.0411743,N,12639.2374828,E,0.011,,220622,,,F,V*10
$GNVTG,,T,,M,0.011,N,0.020,K,D*3A
$GNGNS,040319.00,3727.0411743,N,12639.2374828,E,FFFF,28,0.65,32.607,17.837,2.0,4095,V*00
$GNGGA,040319.00,3727.0411743,N,12639.2374828,E,5,12,0.65,32.607,M,17.837,M,2.0,4095*5D
$GNGSA,A,3,06,17,04,03,14,01,19,,,,,,1.30,0.65,1.12,1*09
$GNGSA,A,3,77,78,87,88,71,72,,,,,,,1.30,0.65,1.12,2*02
$GNGSA,A,3,30,11,09,34,02,04,36,,,,,,1.30,0.65,1.12,3*0E
$GNGSA,A,3,23,13,08,11,37,07,28,10,03,,,,1.30,0.65,1.12,4*07
$GPGSV,3,1,09,01,18,062,32,03,45,052,44,04,17,106,22,06,44,276,32,1*66
$GPGSV,3,2,09,14,41,192,48,17,75,020,45,19,58,325,48,28,,,47,1*59
$GPGSV,3,3,09,41,27,238,38,1*5F
$GPGSV,2,1,06,01,18,062,28,03,45,052,38,04,17,106,22,06,44,276,31,6*6C
$GPGSV,2,2,06,14,41,192,40,17,75,020,41,6*68
$GPGSV,2,1,05,02,06,263,,09,13,138,,11,09,257,,12,02,327,,0*6F
$GPGSV,2,2,05,12,02,327,,0*57
$GLGSV,2,1,07,71,36,055,39,72,42,123,14,76,09,202,44,77,32,246,12,1*79
$GLGSV,2,2,07,78,25,311,36,87,51,344,44,88,22,296,40,1*40
$GLGSV,2,1,05,71,36,055,30,76,09,202,24,77,32,246,17,78,25,311,31,3*7C
$GLGSV,2,2,05,88,22,296,35,3*44
$GLGSV,1,1,03,65,13,169,,70,02,020,,86,28,066,,0*46
$GAGSV,2,1,07,02,47,220,45,04,13,048,32,11,17,067,27,18,36,304,37,2*74
$GAGSV,2,2,07,30,39,295,36,34,47,288,35,36,60,029,47,2*48
$GAGSV,2,1,07,02,47,220,45,04,13,048,30,09,26,101,28,11,17,067,29,7*75
$GAGSV,2,2,07,18,36,304,39,30,39,295,39,36,60,029,45,7*41
$GAGSV,1,1,02,15,03,263,,25,14,176,,0*74
$GBGSV,3,1,09,03,44,206,39,07,72,223,44,08,51,246,38,10,69,263,42,1*79
$GBGSV,3,2,09,13,42,243,43,21,20,044,33,23,20,233,33,28,36,301,29,1*7E
$GBGSV,3,3,09,37,20,285,32,1*47
$GBGSV,2,1,06,03,44,206,40,07,72,223,40,08,51,246,41,10,69,263,40,3*73
$GBGSV,2,2,06,11,46,074,31,13,42,243,27,3*75
$GBGSV,1,1,03,04,35,132,,12,02,098,,34,29,090,,0*43
$GNRMC,040320.00,A,3727.0412319,N,12639.2373946,E,0.010,,220622,,,F,V*1D
$GNVTG,,T,,M,0.010,N,0.018,K,D*30
$GNGNS,040320.00,3727.0412319,N,12639.2373946,E,FFFF,27,0.62,32.478,17.837,2.0,4095,V*0E
$GNGSA,A,3,06,17,04,03,14,01,19,,,,,,1.28,0.62,1.12,1*07
$GNGSA,A,3,77,78,87,88,71,72,,,,,,,1.28,0.62,1.12,2*0C
$GNGSA,A,3,30,11,09,34,02,04,36,,,,,,1.28,0.62,1.12,3*00
$GNGSA,A,3,23,13,08,11,37,07,28,10,03,,,,1.28,0.62,1.12,4*09
$GPGSV,3,1,09,01,18,062,32,03,45,052,44,04,17,106,22,06,44,276,32,1*66
$GPGSV,3,2,09,14,41,192,48,17,75,020,46,19,58,325,48,28,,,46,1*5B
$GPGSV,3,3,09,41,27,238,37,1*50
$GPGSV,2,1,06,01,18,062,28,03,45,052,39,04,17,106,22,06,44,276,32,6*6E
$GPGSV,2,2,06,14,41,192,40,17,75,020,41,6*68
$GPGSV,2,1,05,02,06,263,,09,13,138,,11,09,257,,12,02,327,,0*6F
$GPGSV,2,2,05,12,02,327,,0*57
$GLGSV,2,1,07,71,36,055,41,72,42,123,15,76,09,202,43,77,32,246,15,1*77
$GLGSV,2,2,07,78,25,311,35,87,51,344,44,88,22,296,42,1*41
$GLGSV,2,1,05,71,36,055,31,76,09,202,30,77,32,246,17,78,25,311,32,3*7B
$GLGSV,2,2,05,88,22,296,35,3*44
$GLGSV,1,1,03,65,13,169,,70,02,020,,86,28,066,,0*46
$GAGSV,2,1,07,02,47,220,45,$GAGSV,2,2,07,30,39,295,37,34,47,288,34,36,60,029,47,2*48
$GAGSV,2,1,07,02,47,220,44,04,13,048,31,09,26,101,29,11,17,067,29,7*74
$GAGSV,2,2,07,18,36,304,40,30,39,295,40,36,60,029,45,7*41
$GAGSV,1,1,02,15,03,263,,25,14,176,,0*74
$GBGSV,3,1,09,03,44,206,40,07,72,223,44,08,51,246,38,10,69,263,42,1*77
$GBGSV,3,2,09,13,42,243,43,21,20,044,32,23,20,233,32,28,36,301,30,1*76
$GBGSV,3,3,09,37,20,285,32,1*47
$GBGSV,2,1,06,03,44,206,40,07,72,223,40,08,51,246,40,10,69,263,40,3*72
$GBGSV,2,2,06,11,46,074,31,13,42,243,27,3*75
$GBGSV,1,1,03,04,35,132,,12,02,098,,34,28,091,,0*43
$GNRMC,040321.00,A,3727.0412811,N,12639.2373341,E,0.016,,220622,,,F,V*14
$GNVTG,,T,,M,0.016,N,0.029,K,D*34
$GNGNS,040321.00,3727.0412811,N,12639.2373341,E,FFFF,27,0.62,32.361,17.837,2.0,4095,V*0E
$GNGGA,040321.00,3727.0412811,N,12639.2373341,E,5,12,0.62,32.361,M,17.837,M,2.0,4095*5C
$GNGSA,A,3,06,17,04,03,14,01,19,,,,,,1.28,0.62,1.12,1*07
$GNGSA,A,3,77,78,87,88,71,72,,,,,,,1.28,0.62,1.12,2*0C
$GNGSA,A,3,30,11,09,34,02,04,36,,,,,,1.28,0.62,1.12,3*00
$GNGSA,A,3,23,13,08,11,37,07,28,10,03,,,,1.28,0.62,1.12,4*09
$GPGSV,3,1,09,01,18,062,32,03,45,052,44,04,17,106,22,06,44,276,31,1*65
$GPGSV,3,2,09,14,41,192,48,17,75,020,46,19,58,325,48,28,,,46,1*5B
$GPGSV,3,3,09,41,27,238,38,1*5F
$GPGSV,2,1,06,01,18,062,27,03,45,052,39,04,17,106,21,06,44,276,31,6*61
$GPGSV,2,2,06,14,41,192,40,17,75,020,41,6*68
$GPGSV,2,1,05,02,06,263,,09,13,138,,11,09,257,,12,02,327,,0*6F
$GPGSV,2,2,05,12,02,327,,0*57
$GLGSV,2,1,07,71,36,055,39,72,42,123,15,76,09,202,44,77,32,246,19,1*73
$GLGSV,2,2,07,78,25,311,36,87,51,344,45,88,22,296,41,1*40
$GLGSV,2,1,05,71,36,055,31,76,09,202,31,77,32,246,17,78,25,311,31,3*79
$GLGSV,2,2,05,88,22,296,35,3*44
$GLGSV,1,1,03,65,13,169,,70,02,020,,86,28,066,,0*46
$GAGSV,2,1,07,02,47,220,45,04,13,048,32,11,17,067,27,18,36,304,34,2*77
$GAGSV,2,2,07,30,39,295,37,34,47,288,33,36,60,029,47,2*4F
$GAGSV,2,1,07,02,47,220,44,04,13,048,30,09,26,101,28,11,17,067,29,7*74
$GAGSV,2,2,07,18,36,304,41,30,39,295,40,36,60,029,45,7*40
$GAGSV,1,1,02,15,03,263,,25,14,176,,0*74
$GBGSV,3,1,09,03,44,206,40,07,72,223,44,08,51,246,38,10,69,263,42,1*77
$GBGSV,3,2,09,13,42,243,43,21,20,044,33,23,20,233,33,28,36,301,29,1*7E
$GBGSV,3,3,09,37,20,285,33,1*46
$GBGSV,2,1,05,03,44,206,40,07,72,223,40,08,51,246,41,10,69,263,41,3*71
$GBGSV,2,2,05,11,46,074,31,3*42
$GBGSV,1,1,03,04,35,132,,12,02,098,,34,28,091,,0*43
$GNRMC,040322.00,A,3727.0413132,N,12639.2372869,E,0.021,,220622,,,F,V*1A
$GNVTG,,T,,M,0.021,N,0.038,K,D*30
$GNGNS,040322.00,3727.0413132,N,12639.2372869,E,FFFF,28,0.71,32.345,17.837,2.0,4095,V*0F
$GNGGA,040322.00,3727.0413132,N,12639.2372869,E,5,12,0.71,32.345,M,17.837,M,2.0,4095*52
$GNGSA,A,3,06,17,04,03,14,01,19,,,,,,1.46,0.71,1.27,1*0B
$GNGSA,A,3,77,78,87,88,71,72,,,,,,,1.46,0.71,1.27,2*00
$GNGSA,A,3,30,11,09,34,02,04,36,,,,,,1.46,0.71,1.27,3*0C
$GNGSA,A,3,23,13,08,11,37,07,28,10,03,,,,1.46,0.71,1.27,4*05
$GPGSV,3,1,09,01,18,062,31,03,45,052,44,04,17,106,22,06,44,276,31,1*66
$GPGSV,3,2,09,14,41,192,48,17,75,020,46,19,58,325,48,28,,,46,1*5B
$GPGSV,3,3,09,41,27,238,38,1*5F
$GPGSV,2,1,06,01,18,062,27,03,45,052,39,04,17,106,22,06,44,276,32,6*61
$GPGSV,2,2,06,14,41,192,40,17,75,020,42,6*6B
$GPGSV,2,1,05,02,06,263,,09,13,138,,11,09,257,,12,02,327,,0*6F
$GPGSV,2,2,05,12,02,327,,0*57
$GLGSV,2,1,07,71,36,055,39,72,42,123,14,76,09,202,44,77,32,246,20,1*78
$GLGSV,2,2,07,78,25,311,36,87,51,344,45,88,22,296,41,1*40
$GLGSV,2,1,05,71,36,055,32,76,09,202,30,77,32,246,16,78,25,311,32,3*79
$GLGSV,2,2,05,88,22,296,35,3*44
$GLGSV,1,1,03,65,13,169,,70,02,020,,86,28,066,,0*46
$GAGSV,2,1,07,02,47,220,46,04,13,048,32,11,17,067,27,18,36,304,35,2*75
$GAGSV,2,2,07,30,39,295,39,34,47,288,33,36,60,029,48,2*4E
$GAGSV,2,1,07,02,47,220,44,04,13,048,30,09,26,101,28,11,17,067,29,7*74
$GAGSV,2,2,07,18,36,304,40,30,39,295,39,36,60,029,45,7*4F
$GAGSV,1,1,02,15,03,263,,25,14,176,,0*74
$GBGSV,3,1,09,03,44,206,40,07,72,223,44,08,51,246,38,10,69,263,42,1*77
$GBGSV,3,2,09,13,42,243,43,21,20,044,34,23,20,233,34,28,36,301,28,1*7F
$GBGSV,3,3,09,37,20,285,32,1*47
$GBGSV,2,1,05,03,44,206,39,07,72,223,40,08,51,246,41,10,69,263,42,3*7C
$GBGSV,2,2,05,11,46,074,31,3*42
$GBGSV,1,1,03,04,35,132,,12,02,098,,34,28,091,,0*43
$GNRMC,040323.00,A,3727.0413635,N,12639.2372078,E,0.020,,220622,,,F,V*12
$GNVTG,,T,,M,0.020,N,0.036,K,D*3F
$GNGNS,040323.00,3727.0413635,N,12639.2372078,E,FFFF,28,0.67,32.275,17.837,3.0,4095,V*02
$GNGGA,040323.00,3727.0413635,N,12639.2372078,E,5,12,0.67,32.275,M,17.837,M,3.0,4095*5F
$GNGSA,A,3,06,17,04,03,14,01,19,,,,,,1.35,0.67,1.17,1*0B
$GNGSA,A,3,77,78,87,88,71,72,,,,,,,1.35,0.67,1.17,2*00
$GNGSA,A,3,30,11,09,34,02,04,36,,,,,,1.35,0.67,1.17,3*0C
$GNGSA,A,3,23,13,08,11,37,07,28,10,03,,,,1.35,0.67,1.17,4*05
$GPGSV,3,1,09,01,18,062,31,03,45,052,44,04,17,106,23,06,44,276,30,1*66
$GPGSV,3,2,09,14,41,192,48,17,75,020,46,19,58,325,48,28,,,46,1*5B
$GPGSV,3,3,09,41,27,238,38,1*5F
$GPGSV,2,1,06,01,18,062,26,03,45,052,40,04,17,106,23,06,44,276,32,6*6F
$GPGSV,2,2,06,14,41,192,40,17,75,020,42,6*6B
$GPGSV,2,1,05,02,06,263,,09,13,138,,11,09,257,,12,02,327,,0*6F
$GPGSV,2,2,05,12,02,327,,0*57
$GLGSV,2,1,07,71,36,055,40,72,42,123,10,76,09,202,43,77,32,246,20,1*75
$GLGSV,2,2,07,78,25,311,36,87,51,344,45,88,22,296,41,1*40
$GLGSV,2,1,05,71,36,055,32,76,09,202,30,77,32,246,17,78,25,311,32,3*78
$GLGSV,2,2,05,88,22,296,35,3*44
$GLGSV,1,1,03,65,13,169,,70,02,020,,86,28,066,,0*46
$GAGSV,2,1,07,02,47,220,45,04,13,048,32,11,17,067,27,18,36,304,33,2*70
$GAGSV,2,2,07,30,39,295,37,34,47,288,33,36,60,029,47,2*4F
$GAGSV,2,1,07,02,47,220,44,04,13,048,30,09,26,101,28,11,17,067,29,7*74
$GAGSV,2,2,07,18,36,304,40,30,39,295,39,36,60,029,46,7*4C
$GAGSV,1,1,02,15,03,263,,25,14,176,,0*74
$GBGSV,3,1,09,03,44,206,39,07,72,223,44,08,51,246,38,10,69,263,42,1*79
$GBGSV,3,2,09,13,42,243,43,21,20,044,33,23,20,233,33,28,36,301,30,1*76
$GBGSV,3,3,09,37,20,285,31,1*44
$GBGSV,2,1,05,03,44,206,40,07,72,223,40,08,51,246,41,10,69,263,41,3*71
$GBGSV,2,2,05,11,46,074,32,3*41
$GBGSV,1,1,03,04,35,132,,12,02,098,,34,28,091,,0*43
$GNRMC,040324.00,A,3727.0414337,N,12639.2370956,E,0.018,,220622,,,F,V*19
$GNVTG,,T,,M,0.018,N,0.033,K,D*31
$GNGNS,040324.00,3727.0414337,N,12639.2370956,E,FFFF,28,0.62,32.047,17.837,2.0,4095,V*05
$GNRMC,040325.00,A,3727.0415272,N,12639.2369713,E,0.009,,220622,,,F,V*1E
$GNVTG,,T,,M,0.009,N,0.016,K,D*36
$GNGNS,040325.00,3727.0415272,N,12639.2369713,E,FFFF,29,0.65,31.620,17.837,2.0,4095,V*00
$GNGGA,040325.00,3727.0415272,N,12639.2369713,E,5,12,0.65,31.620,M,17.837,M,2.0,4095*5C
$GNGSA,A,3,06,17,04,03,14,01,19,,,,,,1.30,0.65,1.12,1*09
$GNGSA,A,3,77,78,87,88,71,72,,,,,,,1.30,0.65,1.12,2*02
$GNGSA,A,3,30,11,09,34,02,04,36,,,,,,1.30,0.65,1.12,3*0E
$GNGSA,A,3,23,13,08,11,37,07,28,10,03,,,,1.30,0.65,1.12,4*07
$GPGSV,3,1,09,01,18,062,32,03,45,052,43,04,17,106,25,06,44,276,31,1*65
$GPGSV,3,2,09,14,40,191,48,17,76,022,45,19,58,325,48,28,,,46,1*5B
$GPGSV,3,3,09,41,27,238,37,1*50
$GPGSV,2,1,06,01,18,062,26,03,45,052,40,04,17,106,23,06,44,276,33,6*6E
$GPGSV,2,2,06,14,40,191,40,17,76,022,42,6*68
$GPGSV,2,1,05,02,06,263,,09,13,138,,11,09,257,,12,02,327,,0*6F
$GPGSV,2,2,05,12,02,327,,0*57
$GLGSV,2,1,07,71,36,055,39,72,42,123,15,76,09,202,43,77,32,246,21,1*7F
$GLGSV,2,2,07,78,25,311,34,87,51,344,44,88,22,296,40,1*42
$GLGSV,2,1,05,71,36,055,32,76,09,202,29,77,32,246,15,78,25,311,31,3*71
$GLGSV,2,2,05,88,22,296,34,3*45
$GLGSV,1,1,03,65,13,169,,70,02,020,,86,28,066,,0*46
$GAGSV,2,1,07,02,47,220,45,04,13,048,32,11,17,067,28,18,36,304,33,2*7F
$GAGSV,2,2,07,30,39,295,37,34,47,288,31,36,60,029,47,2*4D
$GAGSV,2,1,07,02,47,220,44,04,13,048,30,09,26,101,28,11,17,067,29,7*74
$GAGSV,2,2,07,18,36,304,38,30,39,295,38,36,60,029,45,7*41
$GAGSV,1,1,02,15,03,263,,25,14,176,,0*74
$GBGSV,3,1,09,03,44,206,39,07,72,223,44,08,51,246,39,10,69,263,42,1*78
$GBGSV,3,2,09,13,42,243,43,21,20,044,33,23,20,233,34,28,36,301,31,1*70
$GBGSV,3,3,09,37,20,285,31,1*44
$GBGSV,2,1,06,03,44,206,39,07,72,223,40,08,51,246,40,10,69,263,41,3*7D
$GBGSV,2,2,06,11,46,074,30,13,42,243,29,3*7A
$GBGSV,1,1,03,04,35,132,,12,02,098,,34,28,091,,0*43
$GNRMC,040326.00,A,3727.0416295,N,12639.2368387,E,0.002,,220622,,,F,V*14
$GNVTG,,T,,M,0.002,N,0.004,K,D*3E
$GNGNS,040326.00,3727.0416295,N,12639.2368387,E,FFFF,27,0.65,31.130,17.837,2.0,4095,V*09
$GNGGA,040326.00,3727.0416295,N,12639.2368387,E,5,12,0.65,31.130,M,17.837,M,2.0,4095*5B
$GNGSA,A,3,06,17,04,03,14,01,19,,,,,,1.38,0.65,1.22,1*02
$GNGSA,A,3,77,78,87,88,71,72,,,,,,,1.38,0.65,1.22,2*09
$GNGSA,A,3,30,11,09,34,02,04,36,,,,,,1.38,0.65,1.22,3*05
$GNGSA,A,3,23,13,08,11,37,07,28,10,03,,,,1.38,0.65,1.22,4*0C
$GPGSV,3,1,09,01,18,062,31,03,45,052,43,04,17,106,25,06,44,276,30,1*67
$GPGSV,3,2,09,14,40,191,47,17,76,022,45,19,58,325,47,28,,,45,1*58
$GPGSV,3,3,09,41,27,238,37,1*50
$GPGSV,2,1,06,01,18,062,25,03,45,052,39,04,17,106,23,06,44,276,33,6*63
$GPGSV,2,2,06,14,40,191,40,17,76,022,42,6*68
$GPGSV,2,1,05,02,06,263,,09,13,138,,11,09,257,,12,02,327,,0*6F
$GPGSV,2,2,05,12,02,327,,0*57
$GLGSV,2,1,07,71,36,055,39,72,42,123,15,76,09,202,43,77,32,246,21,1*7F
$GLGSV,2,2,07,78,25,311,34,87,51,344,44,88,22,296,40,1*42
$GLGSV,2,1,05,71,36,055,32,76,09,202,29,77,32,246,15,78,25,311,30,3*70
$GLGSV,2,2,05,88,22,296,34,3*45
$GLGSV,1,1,03,65,14,169,,70,02,020,,86,28,066,,0*41
$GAGSV,2,1,07,02,47,220,45,04,13,048,32,11,17,067,28,18,36,304,33,2*7F
$GAGSV,2,2,07,30,39,295,37,34,47,288,31,36,60,029,47,2*4D
$GAGSV,2,1,07,02,47,220,43,04,13,048,29,09,26,101,28,11,17,067,29,7*7B
$GAGSV,2,2,07,18,36,304,37,30,39,295,37,36,60,029,45,7*41
$GAGSV,1,1,02,15,03,263,,25,14,176,,0*74
$GBGSV,3,1,09,03,44,206,39,07,72,223,44,08,51,246,39,10,69,263,42,1*78
$GBGSV,3,2,09,13,42,243,43,21,20,044,34,23,20,233,34,28,36,301,30,1*76
$GBGSV,3,3,09,37,20,285,31,1*44
$GBGSV,2,1,06,03,44,206,39,07,72,223,40,08,51,246,40,10,69,263,41,3*7D
$GBGSV,2,2,06,11,46,074,30,13,42,243,29,3*7A
$GBGSV,1,1,03,04,35,132,,12,02,098,,34,28,091,,0*43
$GNRMC,040327.00,A,3727.0417217,N,12639.2367165,E,0.057,,220622,,,F,V*1F
$GNVTG,,T,,M,0.057,N,0.106,K,D*3D
$GNGNS,040327.00,3727.0417217,N,12639.2367165,E,FFFF,27,0.62,30.631,17.837,2.0,4095,V*02
$GNGSA,A,3,06,17,04,03,14,01,19,,,,,,1.28,0.62,1.12,1*07
$GNGSA,A,3,77,78,87,88,71,72,,,,,,,1.28,0.62,1.12,2*0C
$GNGSA,A,3,30,11,09,34,02,04,36,,,,,,1.28,0.62,1.12,3*00
$GNGSA,A,3,23,13,08,11,37,07,28,10,03,,,,1.28,0.62,1.12,4*09
$GPGSV,3,1,09,01,18,062,30,03,45,052,42,04,17,106,26,06,44,276,29,1*6C
$GPGSV,3,2,09,14,40,191,46,17,76,022,44,19,58,325,47,28,,,44,1*59
$GPGSV,3,3,09,41,27,238,36,1*51
$GPGSV,2,1,06,01,18,062,24,03,45,052,39,04,17,106,22,06,44,276,32,6*62
$GPGSV,2,2,06,14,40,191,40,17,76,022,42,6*68
$GPGSV,2,1,05,02,06,263,,09,13,138,,11,09,257,,12,02,327,,0*6F
$GPGSV,2,2,05,12,02,327,,0*57
$GLGSV,2,1,07,71,36,055,38,72,42,123,14,76,09,202,42,77,32,246,21,1*7E
$GLGSV,2,2,07,78,25,311,34,87,51,344,42,88,22,296,38,1*4B
$GLGSV,2,1,05,71,36,055,33,76,09,202,28,77,32,246,13,78,25,311,30,3*76
$GLGSV,2,2,05,88,22,296,33,3*42
$GLGSV,1,1,03,65,14,169,,70,02,020,,86,28,066,,0*41
$GAGSV,2,1,07,02,47,220,45,$GAGSV,2,2,07,30,39,295,37,34,47,288,31,36,60,029,47,2*4D
$GAGSV,2,1,07,02,47,220,43,04,13,048,29,09,26,101,29,11,17,067,29,7*7A
$GAGSV,2,2,07,18,36,304,36,30,39,295,36,36,60,029,44,7*40
$GAGSV,1,1,02,15,03,263,,25,14,176,,0*74
$GBGSV,3,1,09,03,44,206,38,07,72,223,43,08,51,246,38,10,69,263,41,1*7C
$GBGSV,3,2,09,13,42,243,42,21,20,044,35,23,20,233,34,28,36,301,25,1*72
$GBGSV,3,3,09,37,20,285,32,1*47
$GBGSV,2,1,06,03,44,206,39,07,72,223,40,08,51,246,39,10,69,263,41,3*73
$GBGSV,2,2,06,11,46,074,30,13,42,243,29,3*7A
$GBGSV,1,1,03,04,35,132,,12,02,098,,34,28,091,,0*43
$GNRMC,040328.00,A,3727.0417990,N,12639.2366330,E,0.032,,220622,,,F,V*14
$GNVTG,,T,,M,0.032,N,0.060,K,D*3F
$GNGNS,040328.00,3727.0417990,N,12639.2366330,E,FFFF,29,0.72,30.230,17.837,2.0,4095,V*00
$GNGGA,040328.00,3727.0417990,N,12639.2366330,E,5,12,0.72,30.230,M,17.837,M,2.0,4095*5C
$GNGSA,A,3,06,17,04,03,14,01,19,,,,,,1.37,0.72,1.17,1*0D
$GNGSA,A,3,77,78,87,88,71,72,,,,,,,1.37,0.72,1.17,2*06
$GNGSA,A,3,30,11,09,34,02,04,36,,,,,,1.37,0.72,1.17,3*0A
$GNGSA,A,3,23,13,08,11,37,07,28,10,03,,,,1.37,0.72,1.17,4*03
$GPGSV,3,1,09,01,18,062,30,03,45,052,43,04,17,106,26,06,44,276,30,1*65
$GPGSV,3,2,09,14,40,191,47,17,76,022,45,19,58,325,47,28,,,45,1*58
$GPGSV,3,3,09,41,27,238,37,1*50
$GPGSV,2,1,06,01,18,062,22,03,45,052,40,04,17,106,22,06,44,276,31,6*69
$GPGSV,2,2,06,14,40,191,40,17,76,022,42,6*68
$GPGSV,2,1,05,02,06,263,,09,13,138,,11,09,257,,12,02,327,,0*6F
$GPGSV,2,2,05,12,02,327,,0*57
$GLGSV,2,1,07,71,36,055,39,72,42,123,17,76,09,202,42,77,32,246,23,1*7E
$GLGSV,2,2,07,78,25,311,35,87,51,344,43,88,22,296,39,1*4A
$GLGSV,2,1,05,71,36,055,32,76,09,202,28,77,32,246,13,78,25,311,30,3*77
$GLGSV,2,2,05,88,22,296,33,3*42
$GLGSV,1,1,03,65,14,169,,70,02,020,,86,28,066,,0*41
$GAGSV,2,1,07,02,47,220,45,04,13,048,32,11,17,067,28,18,36,304,32,2*7E
$GAGSV,2,2,07,30,39,295,37,34,47,288,31,36,60,029,47,2*4D
$GAGSV,2,1,07,02,47,220,43,04,13,048,29,09,26,101,30,11,17,067,29,7*72
$GAGSV,2,2,07,18,36,304,37,30,39,295,37,36,60,029,45,7*41
$GAGSV,1,1,02,15,03,263,,25,14,176,,0*74
$GBGSV,3,1,09,03,44,206,39,07,72,223,44,08,51,246,39,10,69,263,42,1*78
$GBGSV,3,2,09,13,42,243,44,21,20,044,35,23,20,233,34,28,36,301,31,1*71
$GBGSV,3,3,09,37,20,285,32,1*47
$GBGSV,2,1,06,03,44,206,39,07,72,223,40,08,51,246,39,10,69,263,40,3*72
$GBGSV,2,2,06,11,46,074,31,13,42,243,30,3*73
$GBGSV,1,1,03,04,35,132,,12,02,098,,34,28,091,,0*43
$GNRMC,040329.00,A,3727.0419005,N,12639.2365180,E,0.051,,220622,,,F,V*11
$GNVTG,,T,,M,0.051,N,0.095,K,D*30
$GNGNS,040329.00,3727.0419005,N,12639.2365180,E,FFFF,28,0.69,29.733,17.837,3.0,4095,V*04
$GNGGA,040329.00,3727.0419005,N,12639.2365180,E,5,12,0.69,29.733,M,17.837,M,3.0,4095*59
$GNGSA,A,3,06,17,04,03,14,01,19,,,,,,1.50,0.69,1.32,1*01
$GNGSA,A,3,77,78,87,88,71,72,,,,,,,1.50,0.69,1.32,2*0A
$GNGSA,A,3,30,11,09,34,02,04,36,,,,,,1.50,0.69,1.32,3*06
$GNGSA,A,3,23,13,08,11,37,07,28,10,03,,,,1.50,0.69,1.32,4*0F
$GPGSV,3,1,09,01,18,062,30,03,45,052,42,04,17,106,26,06,44,276,29,1*6C
$GPGSV,3,2,09,14,40,191,47,17,76,022,45,19,58,325,47,28,,,45,1*58
$GPGSV,3,3,09,41,27,238,37,1*50
$GPGSV,2,1,06,01,18,062,21,03,45,052,39,04,17,106,21,06,44,276,30,6*66
$GPGSV,2,2,06,14,40,191,40,17,76,022,42,6*68
$GPGSV,2,1,05,02,06,263,,09,13,138,,11,09,257,,12,02,327,,0*6F
$GPGSV,2,2,05,12,02,327,,0*57
$GLGSV,2,1,07,71,36,055,39,72,42,123,16,76,09,202,43,77,32,246,25,1*78
$GLGSV,2,2,07,78,25,311,36,87,51,344,44,88,22,296,39,1*4E
$GLGSV,2,1,05,71,36,055,33,76,09,202,28,77,32,246,13,78,25,311,28,3*7F
$GLGSV,2,2,05,88,22,296,34,3*45
$GLGSV,1,1,03,65,14,169,,70,02,020,,86,28,066,,0*41
$GAGSV,2,1,07,02,47,220,45,04,13,048,32,11,17,067,28,18,36,304,32,2*7E
$GAGSV,2,2,07,30,39,295,37,34,47,288,31,36,60,029,47,2*4D
$GAGSV,2,1,07,02,47,220,44,04,13,048,29,09,26,101,30,11,17,067,28,7*74
$GAGSV,2,2,07,18,36,304,37,30,39,295,36,36,60,029,46,7*43
$GAGSV,1,1,02,15,03,263,,25,14,176,,0*74
$GBGSV,3,1,09,03,44,206,39,07,72,223,44,08,51,246,39,10,69,263,42,1*78
$GBGSV,3,2,09,13,42,243,44,21,20,044,35,23,20,233,35,28,36,301,30,1*71
$GBGSV,3,3,09,37,20,285,31,1*44
$GBGSV,2,1,06,03,44,206,39,07,72,223,40,08,51,246,40,10,69,263,40,3*7C
$GBGSV,2,2,06,11,46,074,31,13,42,243,33,3*70
$GBGSV,1,1,03,04,35,132,,12,02,098,,34,28,091,,0*43
$GNRMC,040330.00,A,3727.0420021,N,12639.2363889,E,0.016,,220622,,,F,V*10
$GNVTG,,T,,M,0.016,N,0.029,K,D*34
$GNGNS,040330.00,3727.0420021,N,12639.2363889,E,FFFF,27,0.62,29.155,17.837,4.0,4095,V*03
$GNGGA,040330.00,3727.0420021,N,12639.2363889,E,5,12,0.62,29.155,M,17.837,M,4.0,4095*51
$GNGSA,A,3,06,17,04,03,14,01,19,,,,,,1.28,0.62,1.12,1*07
$GNGSA,A,3,77,78,87,88,71,72,,,,,,,1.28,0.62,1.12,2*0C
$GNGSA,A,3,30,11,09,34,02,04,36,,,,,,1.28,0.62,1.12,3*00
$GNGSA,A,3,23,13,08,11,37,07,28,10,03,,,,1.28,0.62,1.12,4*09
$GPGSV,3,1,09,01,18,062,30,03,45,052,43,04,17,106,26,06,44,276,29,1*6D
$GPGSV,3,2,09,14,40,191,47,17,76,022,45,19,58,325,47,28,,,45,1*58
$GPGSV,3,3,09,41,27,238,37,1*50
$GPGSV,2,1,06,01,18,062,20,03,45,052,39,04,17,106,22,06,44,276,30,6*64
$GPGSV,2,2,06,14,40,191,40,17,76,022,42,6*68
$GPGSV,2,1,05,02,06,263,,09,13,138,,11,09,257,,12,02,327,,0*6F
$GPGSV,2,2,05,12,02,327,,0*57
$GNRMC,040331.00,A,3727.0421038,N,12639.2362793,E,0.031,,220622,,,F,V*18
$GNVTG,,T,,M,0.031,N,0.057,K,D*38
$GNGNS,040331.00,3727.0421038,N,12639.2362793,E,FFFF,28,0.65,28.585,17.836,5.0,4095,V*0E
$GNGGA,040331.00,3727.0421038,N,12639.2362793,E,5,12,0.65,28.585,M,17.836,M,5.0,4095*53
$GNGSA,A,3,06,17,04,03,14,01,19,,,,,,1.30,0.65,1.12,1*09
$GNGSA,A,3,77,78,87,88,71,72,,,,,,,1.30,0.65,1.12,2*02
$GNGSA,A,3,30,11,09,34,02,04,36,,,,,,1.30,0.65,1.12,3*0E
$GNGSA,A,3,23,13,08,11,37,07,28,10,03,,,,1.30,0.65,1.12,4*07
$GPGSV,3,1,09,01,18,062,30,03,45,052,43,04,17,106,26,06,44,276,28,1*6C
$GPGSV,3,2,09,14,40,191,47,17,76,022,45,19,58,325,47,28,,,45,1*58
$GPGSV,3,3,09,41,27,238,36,1*51
$GPGSV,2,1,06,01,18,062,18,03,45,052,39,04,17,106,22,06,44,276,29,6*67
$GPGSV,2,2,06,14,40,191,40,17,76,022,41,6*6B
$GPGSV,2,1,05,02,06,263,,09,13,138,,11,09,257,,12,02,327,,0*6F
$GPGSV,2,2,05,12,02,327,,0*57
$GLGSV,2,1,07,71,36,055,39,72,42,123,14,76,09,202,44,77,32,246,26,1*7E
$GLGSV,2,2,07,78,25,311,35,87,51,344,44,88,22,296,39,1*4D
$GLGSV,2,1,05,71,36,055,32,76,09,202,29,77,32,246,09,78,25,311,26,3*7A
$GLGSV,2,2,05,88,22,296,33,3*42
$GLGSV,1,1,03,65,14,169,,70,01,019,,86,28,066,,0*48
$GAGSV,2,1,07,02,47,220,46,04,13,048,32,11,17,067,29,18,36,304,32,2*7C
$GAGSV,2,2,07,30,39,295,37,34,47,288,31,36,60,029,47,2*4D
$GAGSV,2,1,07,02,47,220,44,04,13,048,28,09,26,101,31,11,17,067,28,7*74
$GAGSV,2,2,07,18,36,304,36,30,39,295,36,36,60,029,46,7*42
$GAGSV,1,1,02,15,03,263,,25,14,176,,0*74
$GBGSV,3,1,09,03,44,206,39,07,72,223,44,08,51,246,40,10,69,263,42,1*76
$GBGSV,3,2,09,13,42,243,44,21,20,044,35,23,20,233,35,28,36,301,29,1*79
$GBGSV,3,3,09,37,20,285,32,1*47
$GBGSV,2,1,06,03,44,206,39,07,72,223,40,08,51,246,39,10,69,263,40,3*72
$GBGSV,2,2,06,11,46,074,31,13,42,243,30,3*73
$GBGSV,1,1,03,04,35,132,,12,02,098,,34,28,091,,0*43
$GNRMC,040332.00,A,3727.0421864,N,12639.2362009,E,0.020,,220622,,,F,V*1E
$GNVTG,,T,,M,0.020,N,0.037,K,D*3E
$GNGNS,040332.00,3727.0421864,N,12639.2362009,E,FFFF,28,0.64,28.150,17.836,6.0,4095,V*06
$GNGGA,040332.00,3727.0421864,N,12639.2362009,E,5,12,0.64,28.150,M,17.836,M,6.0,4095*5B
$GNGSA,A,3,06,17,04,03,14,01,19,,,,,,1.32,0.64,1.15,1*0D
$GNGSA,A,3,77,78,87,88,71,72,,,,,,,1.32,0.64,1.15,2*06
$GNGSA,A,3,30,11,09,34,02,04,36,,,,,,1.32,0.64,1.15,3*0A
$GNGSA,A,3,23,13,08,11,37,07,28,10,03,,,,1.32,0.64,1.15,4*03
$GPGSV,3,1,09,01,17,062,30,03,45,052,43,04,17,106,27,06,44,277,27,1*6C
$GPGSV,3,2,09,14,40,191,47,17,76,022,45,19,58,325,47,28,,,45,1*58
$GPGSV,3,3,09,41,27,238,37,1*50
$GPGSV,2,1,06,01,17,062,18,03,45,052,39,04,17,106,23,06,44,277,30,6*60
$GPGSV,2,1,05,02,06,263,,09,13,138,,11,09,257,,12,02,327,,0*6F
$GPGSV,2,2,05,12,02,327,,0*57
$GLGSV,2,1,07,71,36,054,39,72,42,123,12,76,09,202,44,77,32,246,26,1*79
$GLGSV,2,2,07,78,25,311,35,87,51,344,44,88,22,296,39,1*4D
$GLGSV,2,1,05,71,36,054,33,76,09,202,28,77,32,246,07,78,25,311,26,3*75
$GLGSV,2,2,05,88,22,296,34,3*45
$GLGSV,1,1,03,65,14,169,,70,01,019,,86,28,066,,0*48
$GAGSV,2,1,07,02,47,220,46,04,13,048,32,11,17,067,29,18,36,304,32,2*7C
$GAGSV,2,2,07,30,39,295,37,34,47,288,30,36,60,029,47,2*4C
$GAGSV,2,1,07,02,47,220,44,04,13,048,28,09,26,101,31,11,17,067,27,7*7B
$GAGSV,2,2,07,18,36,304,35,30,39,295,36,36,60,029,46,7*41
$GAGSV,1,1,02,15,03,263,,25,14,176,,0*74
$GBGSV,3,1,09,03,44,206,39,07,72,223,44,08,51,246,40,10,69,263,42,1*76
$GBGSV,3,2,09,13,42,243,44,21,20,044,36,23,20,233,35,28,36,301,29,1*7A
$GBGSV,3,3,09,37,20,285,32,1*47
$GBGSV,2,1,06,03,44,206,39,07,72,223,40,08,51,246,40,10,69,263,40,3*7C
$GBGSV,2,2,06,11,46,074,30,13,42,243,30,3$GBGSV,1,1,03,04,35,132,,12,02,098,,34,28,091,,0*43
$GNRMC,040333.00,A,3727.0422579,N,12639.2361271,E,0.112,,220622,,,F,V*13
$GNVTG,,T,,M,0.112,N,0.207,K,D*3F
$GNGNS,040333.00,3727.0422579,N,12639.2361271,E,FFFF,28,0.60,27.771,17.836,7.0,4095,V*04
$GNGGA,040333.00,3727.0422579,N,12639.2361271,E,5,12,0.60,27.771,M,17.836,M,7.0,4095*59
$GNGSA,A,3,77,78,87,88,71,72,,,,,,,1.21,0.60,1.05,2*01
$GNGSA,A,3,30,11,09,34,02,04,36,,,,,,1.21,0.60,1.05,3*0D
$GNGSA,A,3,23,13,08,11,37,07,28,10,03,,,,1.21,0.60,1.05,4*04
$GPGSV,3,1,09,01,17,062,30,03,45,052,43,04,17,106,26,06,44,277,27,1*6D
$GPGSV,3,2,09,14,40,191,47,17,76,022,45,19,58,325,47,28,,,45,1*58
$GPGSV,3,3,09,41,27,238,37,1*50
$GPGSV,2,1,06,01,17,062,17,03,45,052,39,04,17,106,23,06,44,277,29,6*67
$GPGSV,2,2,06,14,40,191,40,17,76,022,42,6*68
$GPGSV,2,1,05,02,06,263,,09,13,138,,11,09,257,,12,02,327,,0*6F
$GPGSV,2,2,05,12,02,327,,0*57
$GLGSV,2,1,07,71,36,054,40,72,43,122,14,76,09,202,44,77,32,246,27,1*70
$GLGSV,2,2,07,78,25,311,35,87,51,344,45,88,22,296,39,1*4C
$GLGSV,2,1,05,71,36,054,34,76,09,202,28,77,32,246,12,78,25,311,25,3*75
$GLGSV,2,2,05,88,22,296,34,3*45
$GLGSV,1,1,03,65,14,169,,70,01,019,,86,28,066,,0*48
$GAGSV,2,1,07,02,47,220,46,04,13,048,32,11,17,067,29,18,36,304,31,2*7F
$GAGSV,2,2,07,30,39,295,37,34,47,288,30,36,6$GAGSV,2,1,07,02,47,220,44,04,13,048,28,09,26,101,31,11,17,067,28,7*74
$GAGSV,2,2,07,18,36,304,35,30,39,295,36,36,60,029,46,7*41
$GAGSV,1,1,02,15,03,263,,25,14,176,,0*74
$GBGSV,3,1,09,03,44,206,39,07,72,223,44,08,51,246,40,10,69,263,42,1*76
$GBGSV,3,2,09,13,42,243,44,21,20,044,36,23,20,233,35,28,36,301,28,1*7B
$GBGSV,3,3,09,37,20,285,32,1*47
$GBGSV,2,1,06,03,44,206,39,07,72,223,40,08,51,246,39,10,69,263,39,3*7C
$GBGSV,2,2,06,11,46,074,31,13,42,243,30,3*73
$GBGSV,1,1,03,04,35,132,,12,02,098,,34,28,091,,0*43
$GNRMC,040334.00,A,3727.0423115,N,12639.2360712,E,0.020,,220622,,,F,V*1A
$GNVTG,,T,,M,0.020,N,0.037,K,D*3E
$GNGNS,040334.00,3727.0423115,N,12639.2360712,E,FFFF,29,0.60,27.467,17.836,8.0,4095,V*07
$GNGGA,040334.00,3727.0423115,N,12639.2360712,E,5,12,0.60,27.467,M,17.836,M,8.0,4095*5B
$GNGSA,A,3,06,17,04,03,14,01,19,,,,,,1.21,0.60,1.05,1*0A
$GNGSA,A,3,77,78,87,88,71,72,,,,,,,1.21,0.60,1.05,2*01
$GNGSA,A,3,30,11,09,34,02,04,36,,,,,,1.21,0.60,1.05,3*0D
$GNGSA,A,3,23,13,08,11,37,07,28,10,03,,,,1.21,0.60,1.05,4*04
$GPGSV,3,1,09,01,17,062,29,03,45,052,43,04,17,106,27,06,44,277,27,1*64
$GPGSV,3,2,09,14,40,191,47,17,76,022,45,19,58,325,47,28,,,45,1*58
$GPGSV,3,3,09,41,27,238,37,1*50
$GPGSV,2,1,06,01,17,062,17,03,45,052,39,04,17,106,23,06,44,277,29,6*67
$GPGSV,2,2,06,14,40,191,41,17,76,022,42,6*69
$GPGSV,2,1,05,02,06,263,,09,13,138,,11,09,257,,12,02,327,,0*6F
$GPGSV,2,2,05,12,02,327,,0*57
$GLGSV,2,1,07,71,36,054,39,72,43,122,19,76,09,202,44,77,32,246,27,1*73
$GLGSV,2,2,07,78,25,311,36,87,51,345,43,88,22,296,39,1*48
$GLGSV,2,1,05,71,36,054,34,76,09,202,30,77,32,246,11,78,25,311,24,3*7E
$GLGSV,2,2,05,88,22,296,34,3*45
$GLGSV,1,1,03,65,14,169,,70,01,019,,86,28,066,,0*48
$GAGSV,2,1,07,02,47,220,46,04,13,048,32,11,17,067,29,18,36,304,31,2*7F
$GAGSV,2,2,07,30,39,295,37,34,47,288,30,36,60,029,47,2*4C
$GAGSV,2,1,07,02,47,220,44,04,13,048,28,09,26,101,30,11,17,067,27,7*7A
$GAGSV,2,2,07,18,36,304,35,30,39,295,36,36,60,029,45,7*42
$GAGSV,1,1,02,15,03,263,,25,14,176,,0*74
$GBGSV,3,1,09,03,44,206,39,07,72,222,44,08,51,246,40,10,69,263,42,1*77
$GBGSV,3,2,09,13,42,243,44,21,20,044,36,23,20,233,34,28,36,301,27,1*75
$GBGSV,3,3,09,37,20,285,32,1*47
$GBGSV,2,1,06,03,44,206,39,07,72,222,40,08,51,246,40,10,69,263,40,3*7D
$GBGSV,2,2,06,11,46,074,31,13,42,243,31,3*72
$GBGSV,1,1,03,04,35,132,,12,02,098,,34,28,091,,0*43
$GNRMC,040335.00,A,3727.0423703,N,12639.2360056,E,0.026,,220622,,,F,V*1B
$GNVTG,,T,,M,0.026,N,0.048,K,D*30
$GNGNS,040335.00,3727.0423703,N,12639.2360056,E,FFFF,27,0.62,27.177,17.836,9.0,4095,V*09
$GNGGA,040335.00,3727.0423703,N,12639.2360056,E,5,12,0.62,27.177,M,17.836,M,9.0,4095*5B
$GNGSA,A,3,06,17,04,03,14,01,19,,,,,,1.28,0.62,1.12,1*07
$GNGSA,A,3,77,78,87,88,71,72,,,,,,,1.28,0.62,1.12,2*0C
$GNGSA,A,3,30,11,09,34,02,04,36,,,,,,1.28,0.62,1.12,3*00
$GNGSA,A,3,23,13,08,11,37,07,28,10,03,,,,1.28,0.62,1.12,4*09
$GPGSV,3,1,09,01,17,062,29,03,45,052,43,04,17,106,27,06,44,277,28,1*6B
$GPGSV,3,2,09,14,40,191,47,17,76,022,44,19,58,325,47,28,,,45,1*59
$GPGSV,3,3,09,41,27,238,37,1*50
$GPGSV,2,1,06,01,17,062,16,03,45,052,39,04,17,106,23,06,44,277,29,6*66
$GPGSV,2,2,06,14,40,191,41,17,76,022,41,6*6A
$GPGSV,2,1,05,02,06,263,,09,13,138,,11,09,257,,12,02,327,,0*6F
$GPGSV,2,2,05,12,02,327,,0*57
$GLGSV,2,1,07,71,36,054,40,72,43,122,20,76,09,202,44,77,32,246,26,1*76
$GLGSV,2,2,07,78,25,311,35,87,51,345,44,88,22,296,39,1*4C
$GLGSV,2,1,05,71,36,054,35,76,09,202,31,77,32,246,14,78,25,311,23,3*7C
$GLGSV,2,2,05,88,22,296,34,3*45
$GLGSV,1,1,03,65,14,169,,70,01,019,,86,28,066,,0*48
$GAGSV,2,1,07,02,47,220,45,04,13,048,32,11,17,067,29,18,36,304,31,2*7C
$GAGSV,2,2,07,30,39,295,36,34,47,288,30,36,60,029,47,2*4D
$GAGSV,2,1,07,02,47,220,44,04,13,048,28,09,26,101,31,11,17,067,27,7*7B
$GAGSV,2,2,07,18,36,304,35,30,39,295,33,36,60,029,45,7*47
$GAGSV,1,1,02,15,03,263,,25,14,176,,0*74
$GBGSV,3,1,09,03,44,206,39,07,72,222,44,08,51,246,40,10,69,263,42,1*77
$GBGSV,3,2,09,13,42,243,44,21,20,044,35,23,20,233,34,28,36,301,31,1*71
$GBGSV,3,3,09,37,20,285,32,1*47
$GBGSV,2,1,06,03,44,206,39,07,72,222,40,08,51,246,39,10,69,263,40,3*73
$GBGSV,2,2,06,11,46,074,31,13,42,243,30,3*73
$GBGSV,1,1,03,04,35,132,,12,02,098,,34,28,091,,0*43
$GNRMC,040336.00,A,3727.0424094,N,12639.2359679,E,0.011,,220622,,,F,V*13
$GNVTG,,T,,M,0.011,N,0.021,K,D*3B
$GNGNS,040336.00,3727.0424094,N,12639.2359679,E,FFFF,27,0.67,26.959,17.836,10.0,4095,V*3D
$GNGGA,040336.00,3727.0424094,N,12639.2359679,E,5,12,0.67,26.959,M,17.836,M,10.0,4095*6F
$GNGSA,A,3,06,17,04,03,14,01,19,,,,,,1.38,0.67,1.20,1*02
$GNGSA,A,3,77,78,87,88,71,72,,,,,,,1.38,0.67,1.20,2*09
$GNGSA,A,3,30,11,09,34,02,04,36,,,,,,1.38,0.67,1.20,3*05
$GNRMC,040337.00,A,3727.0424378,N,12639.2359386,E,0.016,,220622,,,F,V*11
$GNVTG,,T,,M,0.016,N,0.030,K,D*3C
$GNGNS,040337.00,3727.0424378,N,12639.2359386,E,FFFF,29,0.62,26.808,17.836,11.0,4095,V*37
$GNGGA,040337.00,3727.0424378,N,12639.2359386,E,5,12,0.62,26.808,M,17.836,M,11.0,4095*6B
$GNGSA,A,3,06,17,04,03,14,01,19,41,,,,,1.23,0.62,1.05,1*0F
$GNGSA,A,3,77,78,87,88,71,,,,,,,,1.23,0.62,1.05,2*04
$GNGSA,A,3,30,11,09,34,02,04,36,,,,,,1.23,0.62,1.05,3*0D
$GNGSA,A,3,23,13,08,11,37,07,28,10,03,,,,1.23,0.62,1.05,4*04
$GPGSV,3,1,09,01,17,062,29,03,45,052,42,04,17,106,27,06,44,277,28,1*6A
$GPGSV,3,2,09,14,40,191,47,17,76,022,44,19,58,325,46,28,,,45,1*58
$GPGSV,3,3,09,41,27,238,36,1*51
$GPGSV,2,1,06,01,17,062,12,03,45,052,39,04,17,106,25,06,44,277,29,6*64
$GPGSV,2,2,06,14,40,191,41,17,76,022,41,6*6A
$GPGSV,2,1,05,02,06,263,,09,13,138,,11,09,257,,12,02,327,,0*6F
$GPGSV,2,2,05,12,02,327,,0*57
$GLGSV,2,1,08,65,14,169,21,71,36,054,40,72,43,122,22,76,08,201,44,1*77
$GLGSV,2,2,08,77,32,246,25,78,25,310,35,87,51,345,43,88,22,296,39,1*73
$GLGSV,2,1,06,65,14,169,24,71,36,054,35,76,08,201,30,77,32,246,10,3*7C
$GLGSV,2,2,06,78,25,310,22,88,22,296,34,3*7C
$GLGSV,1,1,02,70,01,019,,86,28,066,,0*71
$GAGSV,2,1,07,02,47,220,45,04,13,048,32,11,17,067,29,18,36,304,30,2*7D
$GAGSV,2,2,07,30,39,295,35,34,47,288,29,36,60,029,46,2*47
$GAGSV,2,1,07,02,47,220,44,04,13,048,27,09,26,101,31,11,17,067,26,7*75
$GAGSV,2,2,07,18,36,304,35,30,39,295,35,36,60,029,45,7*41
$GAGSV,1,1,02,15,03,263,,25,14,176,,0*74
$GBGSV,3,1,09,03,44,206,39,07,72,222,44,08,51,246,40,10,69,263,41,1*74
$GBGSV,3,2,09,13,42,243,44,21,20,044,34,23,20,233,33,28,36,301,29,1*7E
$GBGSV,3,3,09,37,20,285,33,1*46
$GBGSV,2,1,06,03,44,206,39,07,72,222,39,08,51,246,38,10,69,263,39,3*72
$GBGSV,2,2,06,11,46,074,30,13,42,243,29,3*7A
$GBGSV,1,1,03,04,35,132,,12,02,098,,34,28,091,,0*43
$GNRMC,040338.00,A,3727.0424601,N,12639.2359054,E,0.002,,220622,,,F,V*1C
$GNVTG,,T,,M,0.002,N,0.003,K,D*39
$GNGNS,040338.00,3727.0424601,N,12639.2359054,E,FFFF,28,0.62,26.699,17.836,12.0,4095,V*3B
$GNGGA,040338.00,3727.0424601,N,12639.2359054,E,5,12,0.62,26.699,M,17.836,M,12.0,4095*66
$GNGSA,A,3,06,17,04,03,14,01,19,41,,,,,1.23,0.62,1.05,1*0F
$GNGSA,A,3,77,78,87,88,71,,,,,,,,1.23,0.62,1.05,2*04
$GNGSA,A,3,30,11,09,34,02,04,36,,,,,,1.23,0.62,1.05,3*0D
$GNGSA,A,3,23,13,08,11,37,07,28,10,03,,,,1.23,0.62,1.05,4*04
$GPGSV,3,1,09,01,17,062,29,03,45,052,42,04,17,106,26,06,44,277,29,1*6A
$GPGSV,3,2,09,14,40,191,47,17,76,022,44,19,58,325,46,28,,,45,1*58
$GPGSV,3,3,09,41,27,238,36,1*51
$GPGSV,2,1,06,01,17,062,09,03,45,052,39,04,17,106,24,06,44,277,30,6*67
$GPGSV,2,2,06,14,40,191,41,17,76,022,41,6*6A
$GPGSV,2,1,05,02,06,263,,09,13,138,,11,09,257,,12,02,327,,0*6F
$GPGSV,2,2,05,12,02,327,,0*57
$GLGSV,2,1,08,65,14,169,20,71,36,054,39,72,43,122,21,76,08,201,44,1*7B
$GLGSV,2,2,08,77,32,246,24,78,25,310,35,87,51,345,43,88,22,296,38,1*73
$GLGSV,2,1,06,65,14,169,25,71,36,054,35,76,08,201,30,77,32,246,14,3*79
$GLGSV,2,2,06,78,25,310,21,88,22,296,34,3*7F
$GLGSV,1,1,02,70,01,019,,86,28,066,,0*71
$GAGSV,2,1,07,02,47,220,45,04,13,048,32,11,17,067,29,18,36,304,30,2*7D
$GAGSV,2,2,07,30,39,295,36,34,47,288,29,36,60,029,47,2*45
$GAGSV,2,1,07,02,47,220,44,04,13,048,26,09,26,101,31,11,17,067,26,7*74
$GAGSV,2,2,07,18,36,304,34,30,39,295,36,36,60,029,45,7*43
$GAGSV,1,1,02,15,03,263,,25,14,176,,0*74
$GBGSV,3,1,09,03,44,206,39,07,72,222,44,08,51,246,40,10,69,263,41,1*74
$GBGSV,3,2,09,13,42,243,44,21,20,044,35,23,20,233,33,28,36,301,28,1*7E
$GBGSV,3,3,09,37,20,285,34,1*41
$GBGSV,2,1,06,03,44,206,39,07,72,222,39,08,51,246,38,10,69,263,39,3*72
$GBGSV,2,2,06,11,46,074,31,13,42,243,29,3*7B
$GBGSV,1,1,03,04,35,132,,12,02,098,,34,28,091,,0*43
$GNRMC,040339.00,A,3727.0424769,N,12639.2358694,E,0.017,,220622,,,F,V*1D
$GNVTG,,T,,M,0.017,N,0.031,K,D*3C
$GNGNS,040339.00,3727.0424769,N,12639.2358694,E,FFFF,27,0.62,26.613,17.836,13.0,4095,V*32
$GNGGA,040339.00,3727.0424769,N,12639.2358694,E,5,12,0.62,26.613,M,17.836,M,13.0,4095*60
$GNGSA,A,3,06,17,04,03,14,01,19,41,,,,,1.23,0.62,1.05,1*0F
$GNGSA,A,3,77,78,87,88,71,,,,,,,,1.23,0.62,1.05,2*04
$GNGSA,A,3,30,11,09,34,02,04,36,,,,,,1.23,0.62,1.05,3*0D
$GNGSA,A,3,23,13,08,11,37,07,28,10,03,,,,1.23,0.62,1.05,4*04
$GPGSV,3,1,09,01,17,062,29,03,45,052,42,04,17,106,26,06,44,277,31,1*63
$GPGSV,3,2,09,14,40,191,47,17,76,022,45,19,58,325,46,28,,,45,1*59
$GPGSV,3,3,09,41,27,238,37,1*50
$GPGSV,2,1,06,01,17,062,08,03,45,052,40,04,17,106,24,06,44,277,30,6*68
$GPGSV,2,2,06,14,40,191,41,17,76,022,41,6*6A
$GPGSV,2,1,05,02,06,263,,09,13,138,,11,09,257,,12,02,327,,0*6F
$GPGSV,2,2,05,12,02,327,,0*57
$GLGSV,2,1,08,65,14,169,18,71,36,054,39,72,43,122,19,76,08,201,44,1*7B
$GLGSV,2,2,08,77,32,246,25,78,25,310,35,87,51,345,44,88,22,296,37,1*7A
$GLGSV,2,1,06,65,14,169,25,71,36,054,35,76,08,201,30,77,32,246,20,3*7E
$GLGSV,2,2,06,78,25,310,21,88,22,296,33,3*78
$GLGSV,1,1,02,70,01,019,,86,28,066,,0*71
$GAGSV,2,1,07,02,47,220,45,04,13,048,32,11,17,067,29,18,36,304,30,2*7D
$GAGSV,2,2,07,30,39,295,36,34,47,288,29,36,60,029,47,2*45
$GAGSV,2,1,07,02,47,220,44,04,13,048,26,09,26,101,31,11,17,067,26,7*74
$GAGSV,2,2,07,18,36,304,33,30,39,295,36,36,60,029,45,7*44
$GAGSV,1,1,02,15,03,263,,25,14,176,,0*74
$GBGSV,3,1,09,03,44,206,39,07,72,222,44,08,51,246,40,10,69,263,42,1*77
$GBGSV,3,2,09,13,42,243,44,21,20,044,35,23,20,233,33,28,36,301,28,1*7E
$GBGSV,3,3,09,37,20,285,34,1*41
$GBGSV,2,1,06,03,44,206,39,07,72,222,39,08,51,246,39,10,69,263,40,3*7D
$GBGSV,2,2,06,11,46,074,31,13,42,243,29,3*7B
$GBGSV,1,1,03,04,35,132,,12,02,098,,34,28,091,,0*43
$GNRMC,040340.00,A,3727.0424897,N,12639.2358356,E,0.016,,220622,,,F,V*17
$GNVTG,,T,,M,0.016,N,0.030,K,D*3C
$GNGNS,040340.00,3727.0424897,N,12639.2358356,E,FFFF,28,0.67,26.539,17.836,14.0,4095,V*3F
$GNGGA,040340.00,3727.0424897,N,12639.2358356,E,5,12,0.67,26.539,M,17.836,M,14.0,4095*62
$GNGSA,A,3,06,17,04,03,14,01,19,41,,,,,1.33,0.67,1.15,1*0A
$GNGSA,A,3,77,78,87,88,71,,,,,,,,1.33,0.67,1.15,2*01
$GNGSA,A,3,30,11,09,34,02,04,36,,,,,,1.33,0.67,1.15,3*08
$GNGSA,A,3,23,13,08,11,37,07,28,10,03,,,,1.33,0.67,1.15,4*01
$GPGSV,3,1,09,01,17,062,29,03,45,052,42,04,17,106,25,06,44,277,32,1*63
$GPGSV,3,2,09,14,40,191,47,17,76,022,44,19,58,325,46,28,,,45,1*58
$GPGSV,3,3,09,41,27,238,37,1*50
$GPGSV,2,1,05,03,45,052,39,04,17,106,24,06,44,277,30,14,40,191,41,6*63
$GPGSV,2,2,05,17,76,022,41,6*54
$GPGSV,2,1,05,02,06,263,,09,13,138,,11,09,257,,12,02,327,,0*6F
$GPGSV,2,2,05,12,02,327,,0*57
$GLGSV,2,1,08,65,14,169,18,71,36,054,39,72,43,122,18,76,08,201,44,1*7A
$GLGSV,2,2,08,77,32,246,23,78,25,310,35,87,51,345,44,88,22,296,37,1*7C
$GLGSV,2,1,06,65,14,169,25,71,36,054,35,76,08,201,31,77,32,246,17,3*7B
$GLGSV,2,2,06,78,25,310,21,88,22,296,33,3*78
$GLGSV,1,1,02,70,01,019,,86,28,066,,0*71
$GAGSV,2,1,07,02,47,220,46,04,13,048,32,11,17,067,30,18,36,304,30,2*76
$GAGSV,2,2,07,30,39,295,36,34,47,288,30,36,60,029,47,2*4D
$GAGSV,2,1,07,02,47,220,45,04,13,048,26,09,26,101,31,11,17,067,26,7*75
$GAGSV,2,2,07,18,36,304,33,30,39,295,36,36,60,029,46,7*47
$GAGSV,1,1,02,15,03,263,,25,14,176,,0*74
$GBGSV,3,1,09,03,44,206,39,07,72,222,44,08,51,246,40,10,69,263,42,1*77
$GBGSV,3,2,09,13,42,243,45,21,20,044,35,23,20,233,33,28,36,301,29,1*7E
$GBGSV,3,3,09,37,20,285,34,1*41
$GBGSV,2,1,06,03,44,206,39,07,72,222,39,08,51,246,40,10,69,263,40,3*73
$GBGSV,2,2,06,11,46,074,31,13,42,243,30,3*73
$GBGSV,1,1,03,04,35,132,,12,02,098,,34,28,091,,0*43
$GNRMC,040341.00,A,3727.0424979,N,12639.2358155,E,0.003,,220622,,,F,V*12
$GNVTG,,T,,M,0.003,N,0.005,K,D*3E
$GNGNS,040341.00,3727.0424979,N,12639.2358155,E,FFFF,28,0.73,26.492,17.836,15.0,4095,V*3A
$GNGGA,040341.00,3727.0424979,N,12639.2358155,E,5,12,0.73,26.492,M,17.836,M,15.0,4095*67
$GNGSA,A,3,06,17,04,03,14,01,19,41,,,,,1.45,0.73,1.25,1*0D
$GNGSA,A,3,65,78,87,88,71,,,,,,,,1.45,0.73,1.25,2*05
$GNGSA,A,3,30,11,09,34,02,04,36,,,,,,1.45,0.73,1.25,3*0F
$GNGSA,A,3,23,13,08,11,37,07,28,10,03,,,,1.45,0.73,1.25,4*06
$GPGSV,3,1,09,01,17,062,29,03,45,052,44,04,17,106,26,06,44,277,33,1*67
$GPGSV,3,2,09,14,40,191,49,17,76,022,46,19,58,325,47,28,,,46,1*56
$GPGSV,3,3,09,41,27,238,38,1*5F
$GPGSV,2,1,05,03,45,052,39,04,17,106,24,06,44,277,29,14,40,191,41,6*6B
$GPGSV,2,2,05,17,76,022,41,6*54
$GPGSV,2,1,05,02,06,263,,09,13,138,,11,09,257,,12,02,327,,0*6F
$GPGSV,2,2,05,12,02,327,,0*57
$GLGSV,2,1,08,65,14,169,20,71,36,054,40,72,43,122,18,76,08,201,45,1*7E
$GLGSV,2,2,08,77,32,246,22,78,25,310,34,87,51,345,44,88,22,296,39,1*72
$GLGSV,2,1,06,65,14,169,25,71,36,054,35,76,08,201,32,77,32,246,20,3*7C
$GLGSV,2,2,06,78,25,310,21,88,22,296,33,3*78
$GLGSV,1,1,02,70,01,019,,86,28,066,,0*71
$GAGSV,2,1,07,02,47,220,46,04,13,048,32,11,17,067,30,18,36,304,30,2*76
$GAGSV,2,2,07,30,39,295,36,34,47,288,29,36,60,029,47,2*45
$GAGSV,2,1,06,02,47,220,46,09,26,101,31,11,17,067,26,18,36,304,32,7*73
$GAGSV,2,2,06,30,39,295,37,36,60,029,46,7*7C
$GAGSV,1,1,02,15,03,263,,25,14,176,,0*74
