$GNRMC,041328.00,A,3727.0511732,N,12639.2688795,E,0.123,,220622,,,F,V*1B
$GNVTG,,T,,M,0.123,N,0.228,K,D*30
$GNGNS,041328.00,3727.0511732,N,12639.2688795,E,FFFF,28,0.64,25.564,17.838,,4095,V*29
$GNGSA,A,3,04,17,03,19,14,01,06,09,,,,,1.30,0.64,1.13,1*00
$GNGSA,A,3,71,72,87,78,65,,,,,,,,1.30,0.64,1.13,2*01
$GNGSA,A,3,02,09,05,25,36,11,,,,,,,1.30,0.64,1.13,3*0C
$GNGSA,A,3,14,03,34,04,10,11,07,01,21,,,,1.30,0.64,1.13,4*06
$GPGSV,3,1,09,01,15,064,30,03,42,050,43,04,19,102,43,06,47,282,17,1*6F
$GPGSV,3,2,09,09,16,136,24,14,36,190,36,17,77,038,47,19,61,329,40,1*60
$GPGSV,3,3,09,50,47,179,42,1*52
$GPGSV,2,1,07,01,15,064,25,03,42,050,40,04,19,102,42,06,47,282,19,6*6F
$GPGSV,2,2,07,09,16,136,35,14,36,190,36,17,77,038,40,6*5C
$GPGSV,2,1,05,02,08,266,,11,12,260,,12,05,325,,40,06,259,,0*62
$GPGSV,2,2,05,40,06,259,,0*5C
$GLGSV,2,1,07,65,19,168,41,71,34,049,44,72,47,116,47,77,28,241,07,1*78
$GLGSV,2,2,07,78,26,305,20,87,52,353,31,88,25,301,22,1*4A
$GLGSV,2,1,06,65,19,168,35,71,34,049,36,72,47,116,37,77,28,241,11,3*7D
$GLGSV,2,2,06,78,26,305,14,88,25,301,13,3*73
$GLGSV,1,1,02,76,04,199,,86,25,072,,0*73
$GAGSV,1,1,0$GAGSV,2,1,07,02,43,217,32,05,16,150,37,09,28,097,45,11,15,070,28,7*70
$GAGSV,2,2,07,25,11,176,32,30,39,291,20,36,58,035,47,7*4E
$GAGSV,2,1,05,04,12,046,,15,05,266,,18,40,305,,27,02,330,,0*78
$GAGSV,2,2,05,27,02,330,,0*46
$GNRMC,041329.00,A,3727.0511294,N,12639.2690783,E,0.094,,220622,,,F,V*10
$GNGNS,041329.00,3727.0511294,N,12639.2690783,E,FFFF,28,0.68,25.889,17.838,,4095,V*2D
$GNGGA,041329.00,3727.0511294,N,12639.2690783,E,5,12,0.68,25.889,M,17.838,M,,4095*70
$GNGSA,A,3,04,17,03,19,14,01,06,09,,,,,1.41,0.68,1.24,1*0E
$GNGSA,A,3,71,72,87,78,65,,,,,,,,1.41,0.68,1.24,2*0F
$GNGSA,A,3,02,09,05,25,36,11,,,,,,,1.41,0.68,1.24,3*02
$GNGSA,A,3,14,03,34,04,10,11,07,01,08,,,,1.41,0.68,1.24,4*03
$GPGSV,3,1,09,01,15,064,33,03,42,050,45,04,19,102,41,06,47,282,16,1*69
$GPGSV,3,2,09,09,16,136,30,14,36,190,36,17,77,038,46,19,61,329,40,1*64
$GPGSV,3,3,09,50,47,179,42,1*52
$GPGSV,2,1,07,01,15,064,28,03,42,050,40,04,19,102,42,06,47,282,20,6*68
$GPGSV,2,2,07,09,16,136,36,14,36,190,37,17,77,038,40,6*5E
$GPGSV,2,1,05,02,08,266,,11,12,260,,12,05,325,,40,06,259,,0*62
$GPGSV,2,2,05,40,06,259,,0*5C
$GLGSV,2,1,07,65,19,168,42,71,34,049,48,72,47,116,48,77,28,241,08,1*77
$GLGSV,2,2,07,78,26,305,19,87,52,353,27,88,25,301,22,1*47
$GLGSV,2,1,06,65,19,168,35,71,34,049,38,72,47,116,$GNRMC,041330.00,A,3727.0511062,N,12639.2692343,E,0.066,,220622,,,F,V*14
$GNVTG,,T,,M,0.066,N,0.123,K,D*38
$GNGNS,041330.00,3727.0511062,N,12639.2692343,E,FFFF,27,0.68,26.158,17.838,,4095,V*2D
$GNGGA,041330.00,3727.0511062,N,12639.2692343,E,5,12,0.68,26.158,M,17.838,M,,4095*7F
$GNRMC,041331.00,A,3727.0510930,N,12639.2693671,E,0.057,,220622,,,F,V*1D
$GNVTG,,T,,M,0.057,N,0.106,K,D*3D
$GNGNS,041331.00,3727.0510930,N,12639.2693671,E,FFFF,28,0.66,26.388,17.838,,4095,V*28
$GNGGA,041331.00,3727.0510930,N,12639.2693671,E,5,12,0.66,26.388,M,17.838,M,,4095*75
$GNGSA,A,3,04,17,03,19,14,01,06,09,,,,,1.31,0.66,1.14,1*04
$GNGSA,A,3,71,72,87,78,65,,,,,,,,1.31,0.66,1.14,2*05
$GNGSA,A,3,02,09,05,25,36,11,,,,,,,1.31,0.66,1.14,3*08
$GNGSA,A,3,14,03,34,04,10,11,07,01,08,,,,1.31,0.66,1.14,4*09
$GPGSV,3,1,09,01,14,065,33,03,42,050,45,04,19,102,41,06,47,282,13,1*6C
$GPGSV,3,2,09,09,16,136,30,14,36,190,36,17,77,038,46,19,61,329,40,1*64
$GPGSV,3,3,09,50,47,179,42,1*52
$GPGSV,2,1,07,01,14,065,30,03,42,050,40,04,19,102,42,06,47,282,19,6*6B
$GPGSV,2,2,07,09,16,136,37,14,36,190,37,17,77,038,41,6*5E
$GPGSV,2,1,05,02,09,266,,11,12,260,,12,05,325,,40,06,259,,0*63
$GPGSV,2,2,05,40,06,259,,0*5C
$GLGSV,2,1,07,65,19,168,41,71,34,049,48,72,47,116,47,77,28,241,08,1*7B
$GLGSV,2,2,07,78,26,305,19,87,52,353,28,88,25,301,22,1*48
$GLGSV,2,1,06,65,19,168,35,71,34,049,39,72,47,116,38,77,28,241,10,3*7C
$GLGSV,2,2,06,78,26,305,13,88,25,301,08,3*7E
$GLGSV,1,1,02,76,04,199,,86,25,072,,0*73
$GAGSV,2,1,05,02,43,217,26,05,16,150,26,09,28,097,44,34,49,292,18,2*70
$GAGSV,2,2,05,36,58,035,47,2*4E
$GAGSV,2,1,07,02,43,217,32,05,16,150,38,09,28,097,45,11,15,070,28,7*7F
$GAGSV,2,2,07,25,11,176,30,30,39,291,21,36,58,035,47,7*4D
$GAGSV,1,1,04,04,12,046,,15,05,266,,18,40,305,,27,02,330,,0*7A
$GBGSV,3,1,10,01,43,152,31,03,44,206,44,04,35,132,40,07,70,220,39,1*7C
$GBGSV,3,2,10,08,52,250,16,10,68,259,39,11,44,079,46,14,52,135,43,1*7C
$GBGSV,3,3,10,34,26,095,41,37,19,281,24,1*7C
$GBGSV,3,1,09,01,43,152,38,03,44,206,37,04,35,132,38,07,70,220,36,3*7B
$GBGSV,3,2,09,08,52,250,08,10,68,259,40,11,44,079,48,14,52,135,45,3*7F
$GBGSV,3,3,09,28,39,304,09,3*43
$GBGSV,2,1,05,05,08,256,,12,00,101,,13,42,246,,21,17,042,,0*79
$GBGSV,2,2,05,21,17,042,,0*41
$GNRMC,041332.00,A,3727.0510872,N,12639.2694937,E,0.046,,220622,,,F,V*13
$GNVTG,,T,,M,0.046,N,0.085,K,D*37
$GNGNS,041332.00,3727.0510872,N,12639.2694937,E,FFFF,28,0.66,26.655,17.838,,4095,V*23
$GNGGA,041332.00,3727.0510872,N,12639.2694937,E,5,12,0.66,26.655,M,17.838,M,,4095*7E
$GNGSA,A,3,04,17,03,19,14,01,06,09,,,,,1.31,0.66,1.14,1*04
$GNGSA,A,3,71,72,87,78,65,,,,,,,,1.31,0.66,1.14,2*05
$GNGSA,A,3,02,09,05,25,36,11,,,,,,,1.31,0.66,1.14,3*08
$GNGSA,A,3,14,03,34,04,10,11,07,01,08,,,,1.31,0.66,1.14,4*09
$GPGSV,3,1,09,01,14,065,34,03,41,049,46,04,19,102,43,06,47,282,13,1*61
$GPGSV,3,2,09,09,16,136,31,14,36,190,36,17,77,038,47,19,61,329,40,1*64
$GPGSV,3,3,09,50,47,179,41,1*51
$GPGSV,2,1,07,01,14,065,34,03,41,049,40,04,19,102,41,06,47,282,18,6*66
$GPGSV,2,2,07,09,16,136,38,14,36,190,36,17,77,038,41,6*50
$GPGSV,2,2,05,40,06,259,,0*5C
$GLGSV,2,1,06,65,19,168,39,71,34,049,48,72,47,116,47,78,26,305,16,1*7A
$GLGSV,2,2,06,87,52,353,28,88,25,301,23,1*7D
$GLGSV,2,1,06,65,19,168,35,71,34,049,42,72,47,116,40,77,28,241,11,3*7E
$GLGSV,2,2,06,78,26,305,18,88,25,301,09,3*74
$GLGSV,1,1,02,76,04,199,,86,25,072,,0*73
$GAGSV,2,1,05,02,43,217,26,05,16,150,26,09,28,097,45,34,49,292,18,2*71
$GAGSV,2,2,05,36,58,035,47,2*4E
$GAGSV,2,1,07,02,43,217,32,05,16,150,38,09,28,097,45,11,15,070,28,7*7F
$GAGSV,2,2,07,25,11,176,30,30,39,291,21,36,58,035,47,7*4D
$GAGSV,1,1,04,04,12,046,,15,05,266,,18,40,305,,27,02,330,,0*7A
$GBGSV,3,1,10,01,43,152,31,03,44,206,44,04,35,132,40,07,70,220,39,1*7C
$GBGSV,3,2,10,08,52,250,17,10,68,259,39,11,44,079,46,14,52,135,44,1*7A
$GBGSV,3,3,10,34,26,095,43,37,19,281,24,1*7E
$GBGSV,3,1,09,01,43,152,39,03,44,206,37,04,35,132,40,07,70,220,36,3*75
$GBGSV,3,2,09,08,52,250,08,10,68,259,40,11,44,079,47,14,52,135,45,3*70
$GBGSV,3,3,09,28,$GNRMC,041333.00,A,3727.0510891,N,12639.2695960,E,0.048,,220622,,,F,V*12
$GNVTG,,T,,M,0.048,N,0.088,K,D*34
$GNGNS,041333.00,3727.0510891,N,12639.2695960,E,FFFF,28,0.66,26.851,17.838,,4095,V*26
$GNGGA,041333.00,3727.0510891,N,12639.2695960,E,5,12,0.66,26.851,M,17.838,M,,4095*7B
$GNGSA,A,3,04,17,03,19,14,01,06,09,,,,,1.31,0.66,1.14,1*04
$GNGSA,A,3,71,72,87,78,65,88,,,,,,,1.31,0.66,1.14,2*05
$GNGSA,A,3,02,09,05,25,36,11,,,,,,,1.31,0.66,1.14,3*08
$GNGSA,A,3,14,03,34,04,10,11,07,01,,,,,1.31,0.66,1.14,4*01
$GPGSV,3,1,09,01,14,065,35,03,41,049,46,04,20,102,43,06,47,282,15,1*6C
$GPGSV,3,2,09,09,16,136,31,14,36,190,36,17,77,038,47,19,61,329,40,1*64
$GPGSV,3,3,09,50,47,179,41,1*51
$GPGSV,2,1,07,01,14,065,33,03,41,049,42,04,20,102,42,06,47,282,18,6*6A
$GPGSV,2,2,07,09,16,136,38,14,36,190,36,17,77,038,41,6*50
$GPGSV,2,1,05,02,09,266,,11,12,260,,12,05,325,,40,06,259,,0*63
$GPGSV,2,2,05,40,06,259,,0*5C
$GLGSV,2,1,06,65,19,168,38,71,34,049,48,72,47,116,47,78,26,305,15,1*78
$GLGSV,2,2,06,87,52,353,29,88,25,301,23,1*7C
$GLGSV,2,1,06,65,19,168,34,71,34,049,41,72,47,116,41,77,28,241,10,3*7C
$GLGSV,2,2,06,78,26,305,21,88,25,301,13,3*75
$GLGSV,1,1,02,76,04,199,,86,25,072,,0*73
$GAGSV,2,1,05,02,43,217,27,05,16,150,28,09,28,097,43,34,49,292,19,2*79
$GAGSV,2,2,05,36,58,035,48,2*41
$GAGSV,2,1,07,02,43,217,32,05,16,150,38,09,28,097,46,11,15,070,28,7*7C
$GAGSV,2,2,07,25,11,176,29,30,39,291,21,36,58,035,47,7*45
$GAGSV,1,1,04,04,12,046,,15,05,266,,18,40,305,,27,02,330,,0*7A
$GBGSV,3,1,10,01,43,152,31,03,44,206,44,04,35,132,40,07,70,220,39,1*7C
$GBGSV,3,2,10,08,52,250,16,10,68,259,39,11,44,079,46,14,52,135,44,1*7B
$GBGSV,3,3,10,34,26,095,43,37,19,281,24,1*7E
$GBGSV,3,1,09,01,43,152,40,03,44,206,37,04,35,132,38,07,70,220,36,3*74
$GBGSV,3,2,09,08,52,250,07,10,68,259,40,11,44,079,46,14,52,135,45,3*7E
$GBGSV,3,3,09,28,39,304,07,3*4D
$GBGSV,2,1,05,05,08,256,,12,00,101,,13,42,246,,21,17,042,,0*79
$GBGSV,2,2,05,21,17,042,,0*41
$GNRMC,041334.00,A,3727.0510900,N,12639.2696905,E,0.045,,220622,,,F,V*11
$GNVTG,,T,,M,0.045,N,0.084,K,D*35
$GNGNS,041334.00,3727.0510900,N,12639.2696905,E,FFFF,28,0.63,27.048,17.838,,4095,V*2C
$GNGGA,041334.00,3727.0510900,N,12639.2696905,E,5,12,0.63,27.048,M,17.838,M,,4095*71
$GNGSA,A,3,04,17,03,19,14,01,06,09,,,,,1.24,0.63,1.06,1*06
$GNGSA,A,3,71,72,87,65,88,,,,,,,,1.24,0.63,1.06,2*08
$GNGSA,A,3,02,09,05,25,36,11,,,,,,,1.24,0.63,1.06,3*0A
$GNGSA,A,3,14,03,34,04,10,21,11,07,01,,,,1.24,0.63,1.06,4*00
$GPGSV,3,1,09,01,14,065,35,03,41,049,46,04,20,102,42,06,47,282,18,1*60
$GPGSV,3,2,09,09,16,136,32,14,36,190,36,17,77,038,46,19,61,329,40,1*66
$GPGSV,3,3,09,50,47,179,42,1*52
$GPGSV,2,1,07,01,14,065,34,03,41,049,41,04,20,102,42,06,47,282,16,6*60
$GPGSV,2,2,07,09,16,136,38,14,36,190,38,17,77,038,41,6*5E
$GPGSV,2,1,05,02,09,266,,11,12,260,,12,05,325,,40,06,259,,0*63
$GLGSV,1,1,02,76,04,199,,86,25,072,,0*73
$GAGSV,2,1,05,02,43,217,27,05,16,150,28,09,28,097,44,34,49,292,18,2*7F
$GAGSV,2,2,05,36,58,035,47,2*4E
$GNRMC,041335.00,A,3727.0510946,N,12639.2697715,E,0.041,,220622,,,F,V*18
$GNVTG,,T,,M,0.041,N,0.075,K,D*3F
$GNGNS,041335.00,3727.0510946,N,12639.2697715,E,FFFF,28,0.62,27.231,17.838,,4095,V*2C
$GNGGA,041335.00,3727.0510946,N,12639.2697715,E,5,12,0.62,27.231,M,17.838,M,,4095*71
$GNGSA,A,3,04,17,03,19,14,01,06,09,,,,,1.28,0.62,1.12,1*0E
$GNGSA,A,3,71,72,87,78,65,88,,,,,,,1.28,0.62,1.12,2*0F
$GNGSA,A,3,02,09,05,25,36,11,,,,,,,1.28,0.62,1.12,3*02
$GNGSA,A,3,14,03,34,04,10,11,07,01,,,,,1.28,0.62,1.12,4*0B
$GPGSV,3,1,09,01,14,065,35,03,41,049,45,04,20,102,43,06,47,283,20,1*68
$GPGSV,3,2,09,09,16,136,31,14,36,190,36,17,77,038,47,19,61,329,40,1*64
$GPGSV,3,3,09,50,47,179,42,1*52
$GPGSV,2,1,07,01,14,065,34,03,41,049,41,04,20,102,42,06,47,283,16,6*61
$GPGSV,2,2,07,09,16,136,37,14,36,190,37,17,77,038,41,6*5E
$GPGSV,2,1,05,02,09,266,,11,12,260,,12,05,325,,40,06,259,,0*63
$GPGSV,2,2,05,40,06,259,,0*5C
$GLGSV,2,1,06,65,19,168,39,71,34,049,48,72,47,116,47,78,26,305,15,1*79
$GLGSV,2,2,06,87,52,353,31,88,25,301,23,1*75
$GLGSV,2,1,06,65,19,168,36,71,34,049,42,72,47,116,41,77,28,241,13,3*7E
$GLGSV,2,2,06,78,26,305,22,88,25,301,16,3*73
$GLGSV,1,1,02,76,04,199,,86,25,072,,0*73
$GAGSV,2,1,05,02,43,217,27,05,16,150,29,09,28,097,45,34,49,292,19,2*7E
$GAGSV,2,2,05,36,58,035,47,2*4E
$GAGSV,2,1,07,02,43,217,32,05,16,150,38,09,28,097,45,11,15,070,28,7*7F
$GAGSV,2,2,07,25,11,176,30,30,39,291,19,36,58,035,47,7*46
$GAGSV,1,1,04,04,12,046,,15,05,266,,18,40,305,,27,02,330,,0*7A
$GBGSV,3,1,10,01,43,152,33,03,44,206,44,04,35,132,40,07,70,220,39,1*7E
$GBGSV,3,2,10,08,52,250,14,10,68,259,39,11,44,079,46,14,52,135,44,1*79
$GBGSV,3,3,10,21,17,042,32,34,26,095,41,1*7F
$GBGSV,3,1,09,01,43,152,39,03,44,206,37,04,35,132,38,07,70,220,36,3*7A
$GBGSV,3,2,09,08,52,250,09,10,68,259,40,11,44,079,48,14,52,135,45,3*7E
$GBGSV,3,3,09,28,39,304,08,3*42
$GBGSV,2,1,05,05,08,256,,12,00,101,,13,42,246,,23,17,230,,0*7C
$GBGSV,2,2,05,23,17,230,,0*44
$GNRMC,041336.00,A,3727.0510962,N,12639.2698396,E,0.041,,220622,,,F,V*1D
$GNVTG,,T,,M,0.041,N,0.076,K,D*3C
$GNGNS,041336.00,3727.0510962,N,12639.2698396,E,FFFF,28,0.63,27.356,17.838,,4095,V*28
$GNGGA,041336.00,3727.0510962,N,12639.2698396,E,5,12,0.63,27.356,M,17.838,M,,4095*75
$GNGSA,A,3,04,17,03,19,14,01,06,09,,,,,1.24,0.63,1.06,1*06
$GNGSA,A,3,71,72,87,65,88,,,,,,,,1.24,0.63,1.06,2*08
$GNGSA,A,3,02,09,05,25,36,11,,,,,,,1.24,0.63,1.06,3*0A
$GNGSA,A,3,14,03,34,04,10,21,11,07,01,,,,1.24,0.63,1.06,4*00
$GPGSV,3,1,09,01,14,065,35,03,41,049,46,04,20,102,42,06,47,283,19,1*60
$GPGSV,3,2,09,09,16,136,30,14,36,190,36,17,77,038,47,19,61,329,40,1*65
$GPGSV,3,3,09,50,47,179,41,1*51
$GNRMC,041337.00,A,3727.0510957,N,12639.2698831,E,0.030,,220622,,,F,V*1A
$GNVTG,,T,,M,0.030,N,0.055,K,D*3B
$GNGNS,041337.00,3727.0510957,N,12639.2698831,E,FFFF,28,0.63,27.409,17.838,,4095,V*24
$GNGGA,041337.00,3727.0510957,N,12639.2698831,E,5,12,0.63,27.409,M,17.838,M,,4095*79
$GNGSA,A,3,04,17,03,19,14,01,06,09,,,,,1.24,0.63,1.06,1*06
$GNGSA,A,3,71,72,87,65,88,,,,,,,,1.24,0.63,1.06,2*08
$GNGSA,A,3,02,09,05,25,36,11,,,,,,,1.24,0.63,1.06,3*0A
$GNGSA,A,3,14,03,34,04,10,21,11,07,01,,,,1.24,0.63,1.06,4*00
$GPGSV,3,1,09,01,14,065,35,03,41,049,46,04,20,102,43,06,47,283,18,1*60
$GPGSV,3,2,09,09,16,136,30,14,36,190,36,17,77,038,47,19,61,329,40,1*65
$GPGSV,3,3,09,50,47,179,42,1*52
$GPGSV,2,1,07,01,14,065,35,03,41,049,40,04,20,102,41,06,47,283,14,6*60
$GPGSV,2,2,07,09,16,136,37,14,36,190,36,17,77,038,41,6*5F
$GPGSV,2,1,05,02,09,266,,11,12,260,,12,05,325,,40,06,259,,0*63
$GPGSV,2,2,05,40,06,259,,0*5C
$GLGSV,2,1,06,65,19,168,39,71,34,049,48,72,47,116,46,78,26,305,20,1*7E
$GLGSV,2,2,06,87,52,353,32,88,25,301,22,1*77
$GLGSV,2,1,06,65,19,168,33,71,34,049,41,72,47,116,41,77,28,241,10,3*7B
$GLGSV,2,2,06,78,26,305,23,88,25,301,12,3*76
$GLGSV,1,1,02,76,04,199,,86,25,072,,0*73
$GAGSV,2,1,05,02,43,217,27,05,16,150,29,09,28,097,44,34,49,292,20,2*75
$GAGSV,2,2,05,36,58,035,47,2*4E
$GAGSV,2,1,07,02,43,217,31,05,16,150,38,09,28,097,45,11,15,070,26,7*72
$GAGSV,2,2,07,25,11,176,30,30,39,291,16,36,58,035,47,7*49
$GAGSV,1,1,04,04,12,046,,15,05,266,,18,40,305,,27,02,330,,0*7A
$GBGSV,3,1,10,01,43,152,32,03,44,206,44,04,35,132,40,07,70,220,39,1*7F
$GBGSV,3,2,10,08,52,250,14,10,68,259,39,11,44,079,46,14,52,135,44,1*79
$GBGSV,3,3,10,21,17,042,29,34,26,095,42,1*76
$GBGSV,3,1,09,01,43,152,39,03,44,206,37,04,35,132,37,07,70,220,36,3*75
$GBGSV,3,2,09,08,52,250,09,10,68,259,40,11,44,079,48,14,52,135,46,3*7D
$GBGSV,3,3,09,28,39,304,08,3*42
$GBGSV,2,1,05,05,08,256,,12,00,101,,13,42,246,,23,17,230,,0*7C
$GBGSV,2,2,05,23,17,230,,0*44
$GNRMC,041338.00,A,3727.0510982,N,12639.2699113,E,0.031,,220622,,,F,V*14
$GNVTG,,T,,M,0.031,N,0.058,K,D*37
$GNGNS,041338.00,3727.0510982,N,12639.2699113,E,FFFF,28,0.63,27.445,17.838,,4095,V*23
$GNGGA,041338.00,3727.0510982,N,12639.2699113,E,5,12,0.63,27.445,M,17.838,M,,4095*7E
$GNGSA,A,3,04,17,03,19,14,01,06,09,,,,,1.24,0.63,1.06,1*06
$GNGSA,A,3,71,72,87,65,88,,,,,,,,1.24,0.63,1.06,2*08
$GNGSA,A,3,02,09,05,25,36,11,,,,,,,1.24,0.63,1.06,3*0A
$GNGSA,A,3,14,03,34,04,10,21,11,07,01,,,,1.24,0.63,1.06,4*00
$GPGSV,3,1,09,01,14,065,35,03,41,049,46,04,20,102,43,06,47,283,17,1*6F
$GPGSV,3,2,09,09,17,135,30,14,36,190,36,17,77,038,47,19,61,329,40,1*67
$GPGSV,3,3,09,50,47,179,42,1*52
$GPGSV,2,1,07,01,14,065,35,03,41,049,40,04,20,102,41,06,47,283,12,6*66
$GPGSV,2,2,07,09,17,135,37,14,36,190,36,17,77,038,41,6*5D
$GPGSV,2,1,05,02,09,266,,11,12,260,,12,05,325,,40,06,259,,0*63
$GPGSV,2,2,05,40,06,259,,0*5C
$GLGSV,2,1,06,65,19,168,38,71,34,049,48,72,47,116,46,78,26,305,22,1*7D
$GNRMC,041339.00,A,3727.0511056,N,12639.2699373,E,0.015,,220622,,,F,V*16
$GNVTG,,T,,M,0.015,N,0.028,K,D*36
$GNGNS,041339.00,3727.0511056,N,12639.2699373,E,FFFF,28,0.63,27.476,17.838,,4095,V*27
$GNGGA,041339.00,3727.0511056,N,12639.2699373,E,5,12,0.63,27.476,M,17.838,M,,4095*7A
$GNGSA,A,3,04,17,03,19,14,01,06,09,,,,,1.24,0.63,1.06,1*06
$GNGSA,A,3,71,72,87,65,88,,,,,,,,1.24,0.63,1.06,2*08
$GNGSA,A,3,02,09,05,25,36,11,,,,,,,1.24,0.63,1.06,3*0A
$GNGSA,A,3,14,03,34,04,10,21,11,07,01,,,,1.24,0.63,1.06,4*00
$GPGSV,3,1,09,01,14,065,35,03,41,049,46,04,20,102,43,06,47,283,17,1*6F
$GPGSV,3,2,09,09,17,135,30,14,36,190,36,17,77,038,47,19,61,329,40,1*67
$GPGSV,3,3,09,50,47,179,42,1*52
$GPGSV,2,1,07,01,14,065,35,03,41,049,40,04,20,102,41,06,47,283,09,6*6C
$GPGSV,2,2,07,09,17,135,37,14,36,190,35,17,77,038,41,6*5E
$GPGSV,2,1,05,02,09,266,,11,12,260,,12,05,325,,40,06,259,,0*63
$GPGSV,2,2,05,40,06,259,,0*5C
$GLGSV,2,1,06,65,19,168,38,71,34,049,48,72,47,116,47,78,26,305,24,1*7A
$GLGSV,2,2,06,87,52,353,33,88,25,301,20,1*74
$GLGSV,2,1,06,65,19,168,32,71,34,049,41,72,47,116,40,77,28,241,13,3*78
$GLGSV,2,2,06,78,26,305,24,88,25,301,12,3*71
$GLGSV,1,1,02,76,04,199,,86,25,072,,0*73
$GAGSV,2,1,06,02,43,217,27,05,16,150,29,09,28,097,44,11,15,070,28,2*7E
$GAGSV,2,2,06,34,49,292,20,36,58,035,47,2*7C
$GAGSV,2,1,07,02,43,217,31,05,16,150,38,09,28,097,45,11,15,070,24,7*70
$GAGSV,2,2,07,25,11,176,30,30,39,291,16,36,58,035,47,7*49
$GAGSV,1,1,04,04,12,046,,15,05,266,,18,40,305,,27,02,330,,0*7A
$GBGSV,3,1,10,01,43,152,33,03,44,206,44,04,35,132,40,07,70,220,40,1*70
$GBGSV,3,2,10,08,52,250,16,10,68,259,39,11,44,079,46,14,52,135,44,1*7B
$GBGSV,3,3,10,21,17,042,27,34,26,095,43,1*79
$GBGSV,2,1,07,01,43,152,39,03,44,206,37,04,35,132,38,07,70,220,36,3*75
$GBGSV,2,2,07,10,68,259,40,11,44,079,48,14,52,135,45,3*40
$GBGSV,2,1,06,05,08,256,,12,00,101,,13,42,246,,23,17,230,,0*7F
$GBGSV,2,2,06,23,17,230,,28,39,304,,0*70
$GNRMC,041340.00,A,3727.0511128,N,12639.2699648,E,0.006,,220622,,,F,V*1F
$GNVTG,,T,,M,0.006,N,0.012,K,D*3D
$GNGNS,041340.00,3727.0511128,N,12639.2699648,E,FFFF,28,0.60,27.515,17.838,,4095,V*2B
$GNGGA,041340.00,3727.0511128,N,12639.2699648,E,5,12,0.60,27.515,M,17.838,M,,4095*76
$GNGSA,A,3,04,17,03,19,14,01,06,09,,,,,1.20,0.60,1.04,1*03
$GNGSA,A,3,71,72,87,78,65,88,,,,,,,1.20,0.60,1.04,2*02
$GNGSA,A,3,02,09,05,25,36,11,,,,,,,1.20,0.60,1.04,3*0F
$GNGSA,A,3,14,03,34,04,10,11,07,01,,,,,1.20,0.60,1.04,4*06
$GPGSV,3,1,09,01,14,065,36,03,41,049,45,04,20,102,43,06,47,283,18,1*60
$GPGSV,3,2,09,09,17,135,30,14,36,190,35,17,77,038,47,19,61,329,40,1*64
$GPGSV,3,3,09,50,47,179,42,1*52
$GPGSV,2,1,07,01,14,065,35,03,41,049,40,04,20,102,41,06,47,283,09,6*6C
$GPGSV,2,2,07,09,17,135,36,14,36,190,35,17,77,038,41,6*5F
$GPGSV,2,1,05,02,09,266,,11,12,260,,12,06,325,,40,06,259,,0*60
$GPGSV,2,2,05,40,06,259,,0*5C
$GLGSV,2,1,06,65,19,168,37,71,34,049,48,72,47,116,46,78,26,305,24,1*74
$GLGSV,2,2,06,87,52,353,33,88,25,301,19,1*7E
$GLGSV,2,1,06,65,19,168,31,71,34,049,41,72,47,116,39,77,28,241,11,3*77
$GLGSV,2,2,06,78,26,305,24,88,25,301,12,3*71
$GLGSV,1,1,02,76,04,199,,86,25,072,,0*73
$GAGSV,2,1,06,02,43,217,27,05,16,150,29,09,28,097,44,11,15,070,27,2*71
$GAGSV,2,2,06,34,49,292,20,36,58,035,47,2*7C
$GAGSV,2,1,07,02,43,217,31,05,16,150,38,09,28,097,45,11,15,070,25,7*71
$GAGSV,2,2,07,25,11,176,29,30,39,291,16,36,58,035,47,7*41
$GAGSV,1,1,04,04,12,046,,15,05,266,,18,40,305,,27,02,330,,0*7A
$GBGSV,3,1,10,01,43,152,33,03,44,206,43,04,35,132,40,07,70,220,40,1*77
$GBGSV,3,2,10,08,52,250,17,10,68,259,39,11,44,079,46,14,52,135,44,1*7A
$GBGSV,3,3,10,21,17,042,27,34,26,095,43,1*79
$GBGSV,2,1,07,01,43,152,38,03,44,206,37,04,35,132,38,07,70,220,36,3*74
$GBGSV,2,2,07,10,68,259,40,11,44,079,48,14,52,135,44,3*41
$GNRMC,041341.00,A,3727.0511279,N,12639.2699792,E,0.028,,220622,,,F,V*13
$GNVTG,,T,,M,0.028,N,0.051,K,D*36
$GNGNS,041341.00,3727.0511279,N,12639.2699792,E,FFFF,28,0.64,27.515,17.838,,4095,V*2F
$GNGSA,A,3,04,17,03,19,14,01,06,09,,,,,1.29,0.64,1.12,1*09
$GNGSA,A,3,71,72,87,65,88,,,,,,,,1.29,0.64,1.12,2*07
$GNGSA,A,3,02,09,05,25,36,11,,,,,,,1.29,0.64,1.12,3*05
$GNGSA,A,3,14,03,34,04,10,21,11,07,01,,,,1.29,0.64,1.12,4*0F
$GPGSV,3,1,09,01,14,065,36,03,41,049,46,04,20,102,43,06,47,283,18,1*63
$GPGSV,3,2,09,09,17,135,30,14,36,190,36,17,77,038,47,19,61,329,40,1*67
$GPGSV,3,3,09,50,47,179,42,1*52
$GPGSV,2,1,07,01,14,065,36,03,41,049,40,04,20,102,41,06,47,283,09,6*6F
$GPGSV,2,2,07,09,17,135,37,14,36,190,36,17,77,038,41,6*5D
$GPGSV,2,1,05,02,09,266,,11,12,260,,12,06,325,,40,06,259,,0*60
$GPGSV,2,2,05,40,06,259,,0*5C
$GLGSV,2,1,06,65,19,168,34,71,34,049,47,72,47,116,47,78,26,305,24,1*79
$GLGSV,2,2,06,87,52,353,32,88,25,301,18,1*7E
$GLGSV,2,1,06,65,19,168,30,71,34,049,39,72,47,116,38,77,28,241,09,3*71
$GLGSV,2,2,06,78,26,305,23,88,25,301,10,3*74
$GLGSV,1,1,02,76,04,199,,86,25,072,,0*73
$GAGSV,2,1,06,02,43,217,2$GAGSV,2,2,06,34,49,292,19,36,58,035,47,2*76
$GAGSV,2,1,06,02,43,217,31,05,16,150,38,09,28,097,45,11,15,070,25,7*70
$GAGSV,2,2,06,25,11,176,29,36,58,035,47,7*74
$GAGSV,2,1,05,04,12,046,,15,05,266,,18,40,305,,27,02,330,,0*78
$GAGSV,2,2,05,27,02,330,,0*46
$GBGSV,3,1,10,01,43,152,32,03,44,206,44,04,35,132,39,07,70,220,39,1*71
$GBGSV,3,2,10,08,52,250,17,10,68,259,39,11,44,079,46,14,52,135,44,1*7A
$GBGSV,3,3,10,21,17,042,29,34,26,095,42,1*76
$GBGSV,2,1,07,01,43,152,39,03,44,206,37,04,35,132,39,07,70,220,36,3*74
$GBGSV,2,2,07,10,68,259,40,11,44,079,48,14,52,135,45,3*40
$GBGSV,2,1,06,05,08,256,,12,00,101,,13,42,246,,23,17,230,,0*7F
$GBGSV,2,2,06,23,17,230,,28,39,304,,0*70
$GPGSV,3,1,09,01,14,065,36,03,41,049,46,04,20,102,43,06,47,283,19,1*62
$GPGSV,3,2,09,09,17,135,30,14,35,190,33,17,77,038,46,19,61,329,40,1*60
$GPGSV,3,3,09,50,47,179,41,1*51
$GPGSV,2,1,06,01,14,065,36,03,41,049,40,04,20,102,41,09,17,135,37,6*67
$GPGSV,2,2,06,14,35,190,36,17,77,038,41,6*63
$GPGSV,2,1,05,02,09,266,,11,12,260,,12,06,325,,40,06,259,,0*60
$GPGSV,2,2,05,40,06,259,,0*5C
$GLGSV,2,1,06,65,19,168,34,71,34,049,47,72,47,116,46,78,26,305,22,1*7E
$GLGSV,2,2,06,87,52,353,32,88,25,301,19,1*7F
$GLGSV,2,1,06,65,19,168,29,71,34,049,40,72,47,116,38,77,28,241,06,3*78
$GLGSV,2,2,06,78,26,305,24,88,25,301,09,3*7B
$GLGSV,1,1,02,76,04,199,,86,25,072,,0*73
$GAGSV,2,1,06,02,43,217,26,05,16,150,30,09,28,097,45,11,15,070,27,2*79
$GAGSV,2,2,06,34,49,292,19,36,58,035,47,2*76
$GAGSV,2,1,06,02,43,217,31,05,16,150,38,09,28,097,45,11,15,070,25,7*70
$GAGSV,2,2,06,25,11,176,29,36,58,035,47,7*74
$GAGSV,2,1,05,04,12,046,,15,05,266,,18,40,305,,27,02,330,,$GNRMC,041343.00,A,3727.0511619,N,12639.2699992,E,0.003,,220622,,,F,V*14
$GNVTG,,T,,M,0.003,N,0.006,K,D*3D
$GNGNS,041343.00,3727.0511619,N,12639.2699992,E,FFFF,28,0.68,27.522,17.838,,4095,V*29
$GNGGA,041343.00,3727.0511619,N,12639.2699992,E,5,12,0.68,27.522,M,17.838,M,,4095*74
$GNGSA,A,3,04,17,03,19,14,01,06,09,,,,,1.41,0.68,1.24,1*0E
$GNGSA,A,3,71,72,87,65,78,,,,,,,,1.41,0.68,1.24,2*0F
$GNGSA,A,3,02,09,05,25,36,11,,,,,,,1.41,0.68,1.24,3*02
$GNGSA,A,3,14,03,34,04,10,08,11,07,01,,,,1.41,0.68,1.24,4*03
$GPGSV,3,1,09,01,14,065,36,03,41,049,46,04,20,102,42,06,47,283,18,1*62
$GPGSV,3,2,09,09,17,135,32,14,35,190,35,17,77,038,47,19,61,329,40,1*65
$GPGSV,3,3,09,50,47,179,41,1*51
$GPGSV,2,1,06,01,14,065,36,03,41,049,39,04,20,102,41,09,17,135,37,6*69
$GPGSV,2,2,06,14,35,190,36,17,77,038,41,6*63
$GPGSV,2,1,05,02,09,266,,11,12,260,,12,06,325,,40,06,259,,0*60
$GPGSV,2,2,05,40,06,259,,0*5C
$GLGSV,2,1,06,65,19,168,34,71,34,049,47,72,47,116,47,78,26,305,23,1*7E
$GLGSV,2,2,06,87,52,353,33,88,25,301,21,1*75
$GLGSV,2,1,06,65,19,168,28,71,34,049,39,72,47,116,38,77,28,241,07,3*76
$GLGSV,2,2,06,78,26,305,24,88,25,301,08,3*7A
$GLGSV,1,1,02,76,04,199,,86,25,072,,0*73
$GAGSV,2,1,06,02,43,217,27,05,16,150,30,09,28,097,44,11,15,070,27,2*79
$GAGSV,2,2,06,34,49,292,20,36,58,035,47,2*7C
$GAGSV,2,1,06,02,43,217,31,05,16,150,38,09,28,097,45,11,15,070,26,7*73
$GAGSV,2,2,06,25,11,176,30,36,58,035,47,7*7C
$GAGSV,2,1,05,04,12,046,,15,05,266,,18,40,305,,27,02,330,,0*78
$GAGSV,2,2,05,27,02,330,,0*46
$GBGSV,3,1,09,01,43,152,33,03,44,206,44,04,35,132,40,07,70,220,40,1*78
$GBGSV,3,2,09,08,52,250,18,10,68,259,39,11,44,079,46,14,52,135,45,1*7C
$GBGSV,3,3,09,34,26,095,42,1*46
$GBGSV,2,1,07,01,43,152,39,03,44,206,37,04,35,132,38,07,70,220,37,3*74
$GBGSV,2,2,07,10,68,259,40,11,44,079,48,14,52,135,45,3*40
$GBGSV,2,1,07,05,08,256,,12,00,101,,13,42,246,,21,17,042,,0*7B
$GBGSV,2,2,07,21,17,042,,23,17,230,,28,39,304,,0*42
$GNRMC,041344.00,A,3727.0511653,N,12639.2700383,E,0.002,,220622,,,F,V*17
$GNVTG,,T,,M,0.002,N,0.003,K,D*39
$GNGNS,041344.00,3727.0511653,N,12639.2700383,E,FFFF,28,0.66,27.612,17.838,,4095,V*25
$GNGSA,A,3,04,17,03,19,14,01,06,09,,,,,1.31,0.66,1.14,1*04
$GNGSA,A,3,71,72,87,65,78,,,,,,,,1.31,0.66,1.14,2*05
$GNGSA,A,3,02,09,05,25,36,11,,,,,,,1.31,0.66,1.14,3*08
$GNGSA,A,3,14,03,34,04,10,08,11,07,01,,,,1.31,0.66,1.14,4*09
$GPGSV,3,1,09,01,14,065,36,03,41,049,46,04,20,102,42,06,47,283,17,1*6D
$GPGSV,3,2,09,09,17,135,33,14,35,190,35,17,77,038,47,19,61,329,40,1*64
$GPGSV,3,3,09,50,47,179,41,1*51
$GPGSV,2,1,06,01,14,065,36,03,41,049,39,04,20,102,42,09,17,135,37,6*6A
$GPGSV,2,2,06,14,35,190,36,17,77,038,41,6*63
$GPGSV,2,1,05,02,09,266,,11,12,260,,12,06,325,,40,06,259,,0*60
$GPGSV,2,2,05,40,06,259,,0*5C
$GLGSV,2,1,06,65,19,168,30,71,34,049,47,72,47,116,46,78,26,305,21,1*79
$GLGSV,2,2,06,87,52,353,34,88,25,301,22,1*71
$GLGSV,2,1,06,65,19,168,28,71,34,049,42,72,47,116,40,77,28,241,11,3*72
$GLGSV,2,2,06,78,26,305,25,88,25,301,08,3*7B
$GLGSV,1,1,02,76,04,199,,86,25,072,,0*73
$GAGSV,2,1,06,02,43,217,27,05,16,150,3$GAGSV,2,2,06,34,49,292,20,36,58,035,47,2*7C
$GAGSV,2,1,06,02,43,217,32,05,16,150,38,09,28,097,45,11,15,070,25,7*73
$GAGSV,2,2,06,25,11,176,29,36,58,035,47,7*74
$GAGSV,2,1,05,04,12,046,,15,05,266,,18,40,305,,27,02,330,,0*78
$GAGSV,2,2,05,27,02,330,,0*46
$GBGSV,3,1,10,01,43,152,32,03,44,206,44,04,35,132,40,07,70,220,40,1*71
$GBGSV,3,2,10,08,52,250,18,10,68,259,39,11,44,079,46,14,52,135,45,1*74
$GBGSV,3,3,10,21,17,042,26,34,26,095,43,1*78
$GBGSV,2,1,07,01,43,152,39,03,44,206,37,04,35,132,39,07,70,220,37,3*75
$GBGSV,2,2,07,10,68,259,40,11,44,079,48,14,52,135,45,3*40
$GBGSV,2,1,06,05,08,256,,12,00,101,,13,42,246,,23,17,230,,0*7F
$GBGSV,2,2,06,23,17,230,,28,39,304,,0*70
$GNRMC,041345.00,A,3727.0511624,N,12639.2700745,E,0.003,,220622,,,F,V*19
$GNVTG,,T,,M,0.003,N,0.005,K,D*3E
$GNGNS,041345.00,3727.0511624,N,12639.2700745,E,FFFF,28,0.67,27.697,17.838,,4095,V*26
$GNGGA,041345.00,3727.0511624,N,12639.2700745,E,5,12,0.67,27.697,M,17.838,M,,4095*7B
$GNGSA,A,3,04,17,03,19,14,01,09,,,,,,1.32,0.67,1.14,1*00
$GNGSA,A,3,71,72,87,65,88,78,,,,,,,1.32,0.67,1.14,2*07
$GNGSA,A,3,02,09,05,25,36,11,,,,,,,1.32,0.67,1.14,3*0A
$GNGSA,A,3,14,03,34,04,10,21,11,07,01,,,,1.32,0.67,1.14,4*00
$GPGSV,3,1,09,01,14,065,35,03,41,049,46,04,20,102,42,06,47,283,17,1*6E
$GPGSV,3,2,09,09,17,135,33,14,35,190,35,17,77,042,47,19,61,329,40,1*69
$GPGSV,3,3,09,50,47,179,42,1*52
$GPGSV,2,1,06,01,14,065,36,03,41,049,39,04,20,102,42,09,17,135,37,6*6A
$GPGSV,2,2,06,14,35,190,36,17,77,042,41,6*6E
$GPGSV,2,1,05,02,09,266,,11,12,260,,12,06,325,,40,06,259,,0*60
$GPGSV,2,2,05,40,06,259,,0*5C
$GLGSV,2,1,06,65,19,168,31,71,34,049,47,72,47,116,46,78,26,305,21,1*78
$GLGSV,2,2,06,87,52,353,35,88,25,301,23,1*71
$GLGSV,2,1,06,65,19,168,28,71,34,049,41,72,47,116,40,77,28,241,08,3*79
$GLGSV,2,2,06,78,26,305,25,88,25,301,11,3*73
$GLGSV,1,1,02,76,04,199,,86,25,072,,0*73
$GAGSV,2,1,06,02,43,217,27,05,16,150,29,09,28,097,44,11,15,070,28,2*7E
$GAGSV,2,2,06,34,49,292,20,36,58,035,47,2*7C
$GAGSV,2,1,06,02,43,217,32,05,16,150,38,09,28,097,45,11,15,070,25,7*73
$GAGSV,2,2,06,25,11,176,28,36,58,035,47,7*75
$GAGSV,2,1,05,04,12,046,,15,05,266,,18,40,305,,27,02,330,,0*78
$GAGSV,2,2,05,27,02,330,,0*46
$GBGSV,3,1,10,01,43,152,32,03,44,206,44,04,35,132,40,07,70,220,39,1*7F
$GBGSV,3,2,10,08,52,250,17,10,68,259,39,11,44,079,46,14,52,135,45,1*7B
$GBGSV,3,3,10,21,17,042,26,34,26,095,43,1*78
$GBGSV,2,1,07,01,43,152,39,03,44,206,36,04,35,132,38,07,70,220,37,3*75
$GBGSV,2,2,07,10,68,259,40,11,44,079,48,14,52,135,45,3*40
$GBGSV,2,1,06,05,08,256,,12,00,101,,13,42,246,,23,17,230,,0*7F
$GBGSV,2,2,06,23,17,230,,28,39,304,,0*70
$GNRMC,041346.00,A,3727.0511540,N,12639.2701042,E,0.007,,220622,,,F,V*1E
$GNVTG,,T,,M,0.007,N,0.012,K,D*3C
$GNGNS,041346.00,3727.0511540,N,12639.2701042,E,FFFF,28,0.66,27.758,17.838,,4095,V*26
$GNGGA,041346.00,3727.0511540,N,12639.2701042,E,5,12,0.66,27.758,M,17.838,M,,4095*7B
$GNGSA,A,3,04,17,03,19,14,01,09,,,,,,1.26,0.66,1.07,1*06
$GNGSA,A,3,71,72,87,65,88,78,,,,,,,1.26,0.66,1.07,2*01
$GNGSA,A,3,02,09,05,25,36,11,,,,,,,1.26,0.66,1.07,3*0C
$GNGSA,A,3,14,03,34,04,10,21,11,07,01,,,,1.26,0.66,1.07,4*06
$GPGSV,3,1,09,01,14,065,35,03,41,049,46,04,20,102,42,06,47,283,18,1*61
$GPGSV,3,2,09,09,17,135,33,14,35,190,34,17,77,042,47,19,61,329,40,1*68
$GPGSV,3,3,09,50,47,179,42,1*52
$GPGSV,2,1,06,01,14,065,36,03,41,049,38,04,20,102,41,09,17,135,36,6*69
$GPGSV,2,2,06,14,35,190,36,17,77,042,41,6*6E
$GPGSV,2,1,05,02,09,266,,11,12,260,,12,06,325,,40,06,259,,0*60
$GPGSV,2,2,05,40,06,259,,0*5C
$GLGSV,2,1,06,65,19,168,30,71,34,049,47,72,47,116,46,78,26,305,20,1*78
$GLGSV,2,2,06,87,52,353,35,88,25,301,25,1*77
$GLGSV,2,1,06,65,19,168,27,71,34,049,42,72,47,116,40,77,28,241,12,3*7E
$GLGSV,2,2,06,78,26,305,25,88,25,301,14,3*76
$GLGSV,1,1,02,76,04,199,,86,25,072,,0*73
$GAGSV,2,1,06,02,43,217,27,05,16,150,29,09,28,097,44,11,15,070,28,2*7E
$GAGSV,2,2,06,34,49,292,20,36,58,035,47,2*7C
$GAGSV,2,1,06,02,43,217,32,05,16,150,37,09,28,097,46,11,15,070,25,7*7F
$GAGSV,2,2,06,25,11,176,29,36,58,035,47,7*74
$GAGSV,2,1,05,04,12,046,,15,05,266,,18,40,305,,27,02,330,,0*78
$GAGSV,2,2,05,27,02,330,,0*46
$GBGSV,3,1,10,01,43,152,33,03,44,206,44,04,35,132,39,07,70,220,39,1*70
$GBGSV,3,2,10,08,52,250,17,10,68,259,39,11,44,079,45,14,52,135,45,1*78
$GBGSV,3,3,10,21,17,042,27,34,26,095,43,1*79
$GBGSV,2,1,07,01,43,152,39,03,44,206,37,04,35,132,38,07,70,220,36,3*75
$GBGSV,2,2,07,10,68,259,40,11,44,079,48,14,52,135,45,3*40
$GBGSV,2,1,06,05,08,256,,12,00,101,,13,42,246,,23,17,230,,0*7F
$GBGSV,2,2,06,23,17,230,,28,39,304,,0*70
$GNRMC,041347.00,A,3727.0511443,N,12639.2701237,E,0.013,,220622,,,F,V*18
$GNVTG,,T,,M,0.013,N,0.025,K,D*3D
$GNGNS,041347.00,3727.0511443,N,12639.2701237,E,FFFF,28,0.67,27.785,17.838,,4095,V*24
$GNGGA,041347.00,3727.0511443,N,12639.2701237,E,5,12,0.67,27.785,M,17.838,M,,4095*79
$GNGSA,A,3,04,17,03,19,14,01,09,,,,,,1.31,0.67,1.13,1*04
$GNGSA,A,3,71,72,87,65,88,78,,,,,,,1.31,0.67,1.13,2*03
$GNGSA,A,3,02,09,05,25,36,11,,,,,,,1.31,0.67,1.13,3*0E
$GNGSA,A,3,14,03,34,04,10,21,11,07,01,,,,1.31,0.67,1.13,4*04
$GPGSV,3,1,09,01,14,065,34,03,41,049,47,04,20,102,42,06,47,283,19,1*60
$GPGSV,3,2,09,09,17,135,33,14,35,190,35,17,77,042,47,19,62,330,40,1*62
$GPGSV,3,3,09,50,47,179,42,1*52
$GPGSV,2,1,06,01,14,065,36,03,41,049,38,04,20,102,41,09,17,135,36,6*69
$GPGSV,2,2,06,14,35,190,36,17,77,042,40,6*6F
$GPGSV,2,1,05,02,09,266,,11,12,260,,12,06,325,,40,06,259,,0*60
$GPGSV,2,2,05,40,06,259,,0*5C
$GLGSV,2,1,06,65,19,168,28,71,34,049,47,72,47,116,46,78,26,305,18,1*7A
$GLGSV,2,2,06,87,52,353,35,88,25,301,27,1*75
$GLGSV,2,1,06,65,19,168,26,71,34,049,42,72,47,116,40,77,28,241,11,3*7C
$GLGSV,2,2,06,78,26,305,25,88,25,301,14,3*76
$GLGSV,1,1,02,76,04,199,,86,25,072,,0*73
$GAGSV,2,1,06,02,43,217,27,05,16,150,30,09,28,097,44,11,15,070,28,2*76
$GAGSV,2,2,06,34,49,292,20,36,58,035,47,2*7C
$GAGSV,2,1,06,02,43,217,33,05,16,150,37,09,28,097,46,11,15,070,24,7*7F
$GAGSV,2,2,06,25,11,176,28,36,58,035,47,7*75
$GAGSV,2,1,05,04,12,046,,15,05,266,,18,40,305,,27,02,330,,0*78
$GAGSV,2,2,05,27,02,330,,0*46
$GBGSV,3,1,10,01,43,152,33,03,44,206,44,04,35,132,39,07,70,220,40,1*7E
$GBGSV,3,2,10,08,52,250,17,10,68,259,39,11,44,079,45,14,52,135,45,1*78
$GBGSV,3,3,10,21,17,042,28,34,26,095,44,1*71
$GBGSV,2,1,07,01,43,152,40,03,44,206,37,04,35,132,38,07,70,220,36,3*7B
$GBGSV,2,2,07,10,68,259,40,11,44,079,48,14,52,135,45,3*40
$GBGSV,2,1,06,05,08,256,,12,00,101,,13,42,246,,23,17,230,,0*7F
$GBGSV,2,2,06,23,17,230,,28,39,304,,0*70
$GNRMC,041348.00,A,3727.0511315,N,12639.2701385,E,0.018,,220622,,,F,V*10
$GNVTG,,T,,M,0.018,N,0.033,K,D*31
$GNGNS,041348.00,3727.0511315,N,12639.2701385,E,FFFF,28,0.67,27.797,17.838,,4095,V*24
$GNGGA,041348.00,3727.0511315,N,12639.2701385,E,5,12,0.67,27.797,M,17.838,M,,4095*79
$GNGSA,A,3,04,17,03,19,14,01,09,,,,,,1.31,0.67,1.13,1*04
$GNGSA,A,3,71,72,87,65,88,78,,,,,,,1.31,0.67,1.13,2*03
$GNGSA,A,3,14,03,34,04,10,21,11,07,01,,,,1.31,0.67,1.13,4*04
$GPGSV,3,1,09,01,14,065,34,03,41,049,47,04,20,102,42,06,47,283,18,1*61
$GPGSV,3,2,09,09,17,135,33,14,35,190,35,17,77,042,47,19,62,330,40,1*62
$GPGSV,3,3,09,50,47,179,42,1*52
$GPGSV,2,1,06,01,14,065,36,03,41,049,38,04,20,102,41,09,17,135,36,6*69
$GPGSV,2,2,06,14,35,190,36,17,77,042,41,6*6E
$GPGSV,2,1,05,02,09,266,,11,12,260,,12,06,325,,40,06,259,,0*60
$GPGSV,2,2,05,40,06,259,,0*5C
$GLGSV,2,1,06,65,19,168,28,71,34,049,47,72,47,116,47,78,26,305,16,1*75
$GLGSV,2,2,06,87,52,353,36,88,25,301,27,1*76
$GLGSV,2,1,06,65,19,168,26,71,34,049,42,72,47,116,40,77,28,241,13,3*7E
$GLGSV,2,2,06,78,26,305,26,88,25,301,13,3*72
$GLGSV,1,1,02,76,04,199,,86,25,072,,0*73
$GAGSV,2,1,06,02,43,217,27,05,16,150,31,09,28,097,44,11,15,070,28,2*77
$GAGSV,2,2,06,34,49,292,20,36,58,035,47,2*7C
$GAGSV,2,1,06,02,43,217,33,05,16,150,38,09,28,097,46,11,15,070,23,7*77
$GAGSV,2,2,06,25,11,176,29,36,58,035,47,7*74
$G$GNRMC,041349.00,A,3727.0511220,N,12639.2701381,E,0.004,,220622,,,F,V*1F
$GNVTG,,T,,M,0.004,N,0.008,K,D*34
$GNGNS,041349.00,3727.0511220,N,12639.2701381,E,FFFF,28,0.67,27.750,17.838,,4095,V*2D
$GNGGA,041349.00,3727.0511220,N,12639.2701381,E,5,12,0.67,27.750,M,17.838,M,,4095*70
$GNGSA,A,3,04,17,03,19,14,01,09,,,,,,1.31,0.67,1.13,1*04
$GNGSA,A,3,71,72,87,65,88,78,,,,,,,1.31,0.67,1.13,2*03
$GNGSA,A,3,02,09,05,25,36,11,,,,,,,1.31,0.67,1.13,3*0E
$GNGSA,A,3,14,03,34,04,10,21,11,07,01,,,,1.31,0.67,1.13,4*04
$GPGSV,3,1,09,01,14,065,33,03,41,049,47,04,20,102,42,06,47,283,18,1*66
$GPGSV,3,2,09,09,17,135,32,14,35,190,35,17,77,042,47,19,62,330,40,1*63
$GPGSV,3,3,09,50,47,179,42,1*52
$GPGSV,2,1,06,01,14,065,36,03,41,049,39,04,20,102,41,09,17,135,35,6*6B
$GPGSV,2,2,06,14,35,190,36,17,77,042,41,6*6E
$GPGSV,2,1,05,02,09,266,,11,12,260,,12,06,325,,40,06,259,,0*60
$GPGSV,2,2,05,40,06,259,,0*5C
$GLGSV,2,1,06,65,19,168,27,71,34,049,46,72,47,116,46,78,26,305,14,1*78
$GLGSV,2,2,06,87,52,353,36,88,25,301,27,1*76
$GLGSV,2,1,06,65,19,168,25,71,34,049,41,72,47,116,40,77,28,241,07,3*7B
$GLGSV,2,2,06,78,26,305,26,88,25,301,13,3*72
$GLGSV,1,1,02,76,04,199,,86,25,072,,0*73
$GAGSV,2,1,06,02,43,217,27,05,16,150,31,09,28,097,44,11,15,070,28,2*77
$GAGSV,2,2,06,34,49,292,21,36,58,035,47,2*7D
$GAGSV,2,1,06,02,43,217,33,05,16,150,37,09,28,097,46,11,15,070,22,7*79
$GAGSV,2,2,06,25,11,176,30,36,58,035,47,7*7C
$GAGSV,2,1,05,04,12,046,,15,05,266,,18,40,305,,27,02,330,,0*78
$GAGSV,2,2,05,27,02,330,,0*46
$GBGSV,3,1,10,01,43,152,33,03,44,206,44,04,35,132,39,07,70,220,40,1*7E
$GBGSV,3,2,10,08,52,250,16,10,68,259,39,11,44,079,45,14,52,135,45,1*79
$GBGSV,3,3,10,21,17,042,31,34,26,095,43,1*7E
$GBGSV,2,1,07,01,43,152,39,03,44,206,37,04,35,132,38,07,70,220,37,3*74
$GBGSV,2,2,07,10,68,259,40,11,44,079,47,14,52,135,45,3*4F
$GBGSV,2,1,06,05,08,256,,12,00,101,,13,42,246,,23,17,230,,0*7F
$GBGSV,2,2,06,23,17,230,,28,39,304,,0*70
$GNRMC,041350.00,A,3727.0511129,N,12639.2701418,E,0.003,,220622,,,F,V*1D
$GNVTG,,T,,M,0.003,N,0.005,K,D*3E
$GNGNS,041350.00,3727.0511129,N,12639.2701418,E,FFFF,28,0.67,27.696,17.838,,4095,V*23
$GNGGA,041350.00,3727.0511129,N,12639.2701418,E,5,12,0.67,27.696,M,17.838,M,,4095*7E
$GNGSA,A,3,04,17,03,19,14,01,09,,,,,,1.31,0.67,1.13,1*04
$GNGSA,A,3,71,72,87,65,88,78,,,,,,,1.31,0.67,1.13,2*03
$GNGSA,A,3,02,09,05,25,36,11,,,,,,,1.31,0.67,1.13,3*0E
$GNGSA,A,3,14,03,34,04,10,21,11,07,01,,,,1.31,0.67,1.13,4*04
$GPGSV,3,1,09,01,14,065,33,03,41,049,47,04,20,102,42,06,47,283,17,1*69
$GPGSV,3,2,09,09,17,135,32,14,35,190,35,17,77,042,47,19,62,330,40,1*63
$GPGSV,3,3,09,50,47,179,42,1*52
$GPGSV,2,1,06,01,14,065,36,03,41,049,39,04,20,102,42,09,17,135,36,6*6B
$GPGSV,2,2,06,14,35,190,36,17,77,042,41,6*6E
$GPGSV,2,1,05,02,09,266,,11,12,260,,12,06,325,,40,06,259,,0*60
$GPGSV,2,2,05,40,06,259,,0*5C
$GLGSV,2,1,06,65,19,168,28,71,34,049,46,72,47,116,46,78,26,305,15,1*76
$GLGSV,2,2,06,87,52,353,35,88,25,301,27,1*75
$GLGSV,2,1,06,65,19,168,24,71,34,049,41,72,47,116,40,77,28,241,10,3*7C
$GLGSV,2,2,06,78,26,305,26,88,25,301,11,3*70
$GLGSV,1,1,02,76,04,199,,86,25,072,,0*73
$GAGSV,2,1,06,02,43,217,26,05,16,150,31,09,28,097,44,11,15,070,29,2*77
$GAGSV,2,2,06,34,49,292,20,36,58,035,47,2*7C
$GAGSV,2,1,06,02,43,217,33,05,16,150,37,09,28,097,46,11,15,070,20,7*7B
$GAGSV,2,2,06,25,11,176,28,36,58,035,47,7*75
$GAGSV,2,1,05,04,12,046,,15,05,266,,18,40,305,,27,02,330,,0*78
$GAGSV,2,2,05,27,02,330,,0*46
$GBGSV,3,1,10,01,43,152,33,03,44,206,44,04,35,132,40,07,70,220,39,1*7E
$GBGSV,3,2,10,08,52,250,15,10,68,259,39,11,44,079,45,14,52,135,45,1*7A
$GBGSV,3,3,10,21,17,042,32,34,26,095,43,1*7D
$GBGSV,2,1,07,01,43,152,40,03,44,206,37,04,35,132,38,07,70,220,37,3*7A
$GBGSV,2,2,07,10,68,259,40,11,44,079,47,14,52,135,45,3*4F
$GNRMC,041351.00,A,3727.0511066,N,12639.2701443,E,0.017,,220622,,,F,V*1D
$GNVTG,,T,,M,0.017,N,0.032,K,D*3F
$GNGNS,041351.00,3727.0511066,N,12639.2701443,E,FFFF,27,0.67,27.649,17.838,,4095,V*2B
$GNGGA,041351.00,3727.0511066,N,12639.2701443,E,5,12,0.67,27.649,M,17.838,M,,4095*79
$GNGSA,A,3,04,17,03,19,14,01,09,,,,,,1.31,0.67,1.13,1*04
$GNGSA,A,3,71,72,87,65,88,78,,,,,,,1.31,0.67,1.13,2*03
$GNGSA,A,3,02,09,05,25,36,11,,,,,,,1.31,0.67,1.13,3*0E
$GNGSA,A,3,14,03,34,04,10,21,11,07,01,,,,1.31,0.67,1.13,4*04
$GPGSV,3,1,09,01,14,065,33,03,41,049,47,04,20,102,42,06,47,283,17,1*69
$GPGSV,3,2,09,09,17,135,31,14,35,190,35,17,77,042,46,19,62,330,40,1*61
$GPGSV,3,3,09,50,47,179,42,1*52
$GPGSV,2,1,06,01,14,065,36,03,41,049,39,04,20,102,42,09,17,135,36,6*6B
$GPGSV,2,2,06,14,35,190,36,17,77,042,41,6*6E
$GPGSV,2,1,05,02,09,266,,11,12,260,,12,06,325,,40,06,259,,0*60
$GPGSV,2,2,05,40,06,259,,0*5C
$GLGSV,2,1,06,65,19,168,29,71,34,049,46,72,47,116,46,78,26,305,13,1*71
$GLGSV,2,2,06,87,52,353,35,88,25,301,27,1*75
$GLGSV,2,1,06,65,19,168,24,71,34,049,41,72,47,116,40,77,28,241,09,3*74
$GLGSV,2,2,06,78,26,305,26,88,25,301,09,3*79
$GLGSV,1,1,02,76,04,199,,86,25,072,,0*73
$GAGSV,2,1,06,02,43,217,27,05,16,150,31,09,28,097,44,11,15,070,29,2*76
$GAGSV,2,2,06,34,49,292,19,36,58,035,47,2*76
$GAGSV,2,1,06,02,43,217,32,05,16,150,36,09,28,097,46,11,15,070,18,7*70
$GAGSV,2,2,06,25,11,176,28,36,58,035,47,7*75
$GAGSV,2,1,05,04,12,046,,15,05,266,,18,40,305,,27,02,330,,0*78
$GAGSV,2,2,05,27,02,330,,0*46
$GBGSV,3,1,10,01,43,152,33,03,44,206,44,04,35,132,39,07,70,220,39,1*70
$GBGSV,3,2,10,08,52,250,16,10,68,259,40,11,44,079,45,14,52,135,45,1*77
$GBGSV,3,3,10,21,17,042,32,34,26,095,44,1*7A
$GBGSV,2,1,07,01,43,152,40,03,44,206,37,04,35,132,38,07,70,220,37,3*7A
$GBGSV,2,2,07,10,68,259,40,11,44,079,47,14,52,135,45,3*4F
$GBGSV,2,1,06,05,08,256,,12,00,101,,13,42,246,,23,17,230,,0*7F
$GBGSV,2,2,06,23,17,230,,28,39,304,,0*70
$GNRMC,041352.00,A,3727.0511032,N,12639.2701491,E,0.029,,220622,,,F,V*1D
$GNVTG,,T,,M,0.029,N,0.054,K,D*32
$GNGNS,041352.00,3727.0511032,N,12639.2701491,E,FFFF,27,0.67,27.624,17.838,,4095,V*2D
$GNGGA,041352.00,3727.0511032,N,12639.2701491,E,5,12,0.67,27.624,M,17.838,M,,4095*7F
$GNGSA,A,3,04,17,03,19,14,01,09,,,,,,1.31,0.67,1.13,1*04
$GNGSA,A,3,71,72,87,65,88,78,,,,,,,1.31,0.67,1.13,2*03
$GNGSA,A,3,02,09,05,25,36,11,,,,,,,1.31,0.67,1.13,3*0E
$GNGSA,A,3,14,03,34,04,10,21,11,07,01,,,,1.31,0.67,1.13,4*04
$GPGSV,3,1,09,01,14,065,32,03,41,049,47,04,20,102,42,06,47,283,18,1*67
$GPGSV,3,2,09,09,17,135,31,14,35,190,36,17,77,042,47,19,62,330,40,1*63
$GPGSV,3,3,09,50,47,179,42,1*52
$GPGSV,2,1,06,01,14,065,36,03,41,049,39,04,20,102,42,09,17,135,36,6*6B
$GPGSV,2,2,06,14,35,190,35,17,77,042,41,6*6D
$GPGSV,2,1,05,02,09,266,,11,12,260,,12,06,325,,40,06,259,,0*60
$GPGSV,2,2,05,40,06,259,,0*5C
$GLGSV,2,1,06,65,19,168,30,71,34,049,46,72,47,116,46,78,26,305,17,1*7D
$GLGSV,2,2,06,87,52,353,35,88,25,301,27,1*75
$GLGSV,2,1,06,65,19,168,22,71,34,049,41,72,47,116,40,77,28,241,10,3*7A
$GLGSV,2,2,06,78,26,305,26,88,25,301,10,3*71
$GLGSV,1,1,02,76,04,199,,86,25,072,,0*73
$GAGSV,2,1,06,02,43,217,27,05,16,150,31,09,28,097,44,11,15,070,28,2*77
$GAGSV,2,2,06,34,49,292,19,36,58,035,47,2*76
$GAGSV,2,1,06,02,43,217,33,05,16,150,36,09,28,097,46,11,15,070,16,7*7F
$GAGSV,2,2,06,25,11,176,28,36,58,035,47,7*75
$GAGSV,2,1,05,04,12,046,,15,05,266,,18,40,305,,27,02,330,,0*78
$GAGSV,2,2,05,27,02,330,,0*46
$GBGSV,3,1,10,01,43,152,33,03,44,206,44,04,35,132,39,07,70,220,40,1*7E
$GBGSV,3,2,10,08,52,250,16,10,68,259,40,11,44,079,45,14,52,135,45,1*77
$GBGSV,3,3,10,21,17,042,31,34,26,095,44,1*79
$GBGSV,2,1,07,01,43,152,40,03,44,206,37,04,35,132,39,07,70,220,37,3*7B
$GBGSV,2,2,07,10,68,259,40,11,44,079,46,14,52,135,44,3*4F
$GBGSV,2,1,07,02,27,236,,05,08,256,,12,00,101,,13,42,246,,0*78
$GBGSV,2,2,07,13,42,246,,23,17,230,,28,39,304,,0*45
$GNRMC,041353.00,A,3727.0510982,N,12639.2701426,E,0.011,,220622,,,F,V*18
$GNVTG,,T,,M,0.011,N,0.020,K,D*3A
$GNGNS,041353.00,3727.0510982,N,12639.2701426,E,FFFF,28,0.67,27.567,17.838,,4095,V*28
$GNGGA,041353.00,3727.0510982,N,12639.2701426,E,5,12,0.67,27.567,M,17.838,M,,4095*75
$GNGSA,A,3,04,17,03,19,14,01,09,,,,,,1.31,0.67,1.13,1*04
$GNGSA,A,3,71,72,87,65,88,78,,,,,,,1.31,0.67,1.13,2*03
$GNGSA,A,3,02,09,05,25,36,11,,,,,,,1.31,0.67,1.13,3*0E
$GNGSA,A,3,14,03,34,04,10,21,11,07,01,,,,1.31,0.67,1.13,4*04
$GPGSV,3,1,09,01,14,065,31,03,41,049,47,04,20,102,42,06,47,283,18,1*64
$GPGSV,3,2,09,09,17,135,31,14,35,190,36,17,77,042,47,19,62,330,39,1*6D
$GPGSV,3,3,09,50,47,179,42,1*52
$GPGSV,2,1,06,01,14,065,36,03,41,049,39,04,20,102,42,09,17,135,36,6*6B
$GPGSV,2,2,06,14,35,190,35,17,77,042,41,6*6D
$GPGSV,2,1,05,02,09,266,,11,12,260,,12,06,325,,40,06,259,,0*60
$GPGSV,2,2,05,40,06,259,,0*5C
$GLGSV,2,1,06,65,19,168,32,71,34,049,46,72,47,116,46,78,26,305,18,1*70
$GLGSV,2,2,06,87,52,353,35,88,25,301,28,1*7A
$GLGSV,2,1,06,65,19,168,24,71,34,049,42,72,47,116,40,77,28,241,12,3*7D
$GLGSV,2,2,06,78,26,305,25,88,25,301,09,3*7A
$GLGSV,1,1,02,76,04,199,,86,25,072,,0*73
$GAGSV,2,1,06,02,43,217,26,05,16,150,32,09,28,097,44,11,15,070,28,2*75
$GAGSV,2,2,06,34,49,292,19,36,58,035,47,2*76
$GAGSV,2,1,05,02,43,217,32,05,16,150,37,09,28,097,46,25,11,176,27,7*7A
$GAGSV,2,2,05,36,58,035,47,7*4B
$GAGSV,2,1,05,04,12,046,,15,05,266,,18,40,305,,27,02,330,,0*78
$GAGSV,2,2,05,27,02,330,,0*46
$GBGSV,3,1,11,01,43,152,32,03,44,206,44,04,35,132,40,07,70,220,39,1*7E
$GBGSV,3,2,11,08,52,250,16,10,68,259,40,11,44,079,45,13,42,246,18,1*7F
$GBGSV,3,3,11,14,52,135,45,21,17,042,32,34,26,095,44,1*4F
$GBGSV,2,1,07,01,43,152,40,03,44,206,37,04,35,132,39,07,70,220,37,3*7B
$GBGSV,2,2,07,10,68,259,40,11,44,079,46,14,52,135,44,3*4F
$GBGSV,2,1,06,02,27,236,,05,08,256,,12,00,101,,23,17,230,,0*7B
$GBGSV,2,2,06,23,17,230,,28,39,304,,0*70
$GNRMC,041354.00,A,3727.0510920,N,12639.2701401,E,0.006,,220622,,,F,V*14
$GNVTG,,T,,M,0.006,N,0.011,K,D*3E
$GNGNS,041354.00,3727.0510920,N,12639.2701401,E,FFFF,27,0.67,27.526,17.838,,4095,V*28
$GNGGA,041354.00,3727.0510920,N,12639.2701401,E,5,12,0.67,27.526,M,17.838,M,,4095*7A
$GNGSA,A,3,04,17,03,19,14,01,09,,,,,,1.31,0.67,1.13,1*04
$GNGSA,A,3,71,72,87,65,88,78,,,,,,,1.31,0.67,1.13,2*03
$GNGSA,A,3,02,09,05,25,36,11,,,,,,,1.31,0.67,1.13,3*0E
$GNGSA,A,3,14,03,34,04,10,21,11,07,01,,,,1.31,0.67,1.13,4*04
$GPGSV,3,1,09,01,14,065,30,03,41,049,47,04,20,102,42,06,47,283,18,1*65
$GPGSV,3,2,09,09,17,135,30,14,35,190,36,17,77,042,47,19,62,330,39,1*6C
$GPGSV,3,3,09,50,47,179,41,1*51
$GPGSV,2,1,06,01,14,065,36,03,41,049,39,04,20,102,41,09,17,135,36,6*68
$GPGSV,2,2,06,14,35,190,36,17,77,042,41,6*6E
$GPGSV,2,1,05,02,09,266,,11,12,260,,12,06,325,,40,06,259,,0*60
$GPGSV,2,2,05,40,06,259,,0*5C
$GLGSV,2,1,06,65,19,168,32,71,34,049,46,72,47,116,46,78,26,305,20,1*7B
$GLGSV,2,2,06,87,52,353,35,88,25,301,29,1*7B
$GLGSV,2,1,06,65,19,168,23,71,34,049,42,72,47,116,40,77,28,241,11,3*79
$GLGSV,2,2,06,78,26,305,25,88,25,301,11,3*73
$GLGSV,1,1,02,76,04,199,,86,25,072,,0*73
$GAGSV,2,1,07,02,43,217,27,05,16,150,32,09,28,097,44,11,15,070,29,2*74
$GAGSV,2,2,07,30,39,291,24,34,49,292,20,36,58,035,47,2*48
$GAGSV,2,1,05,02,43,217,32,05,16,150,36,09,28,097,46,25,11,176,27,7*7B
$GAGSV,2,2,05,36,58,035,47,7*4B
$GAGSV,1,1,04,04,12,046,,15,05,266,,18,40,305,,27,02,330,,0*7A
$GBGSV,3,1,11,01,43,152,32,03,44,206,44,04,35,132,40,07,70,220,39,1*7E
$GBGSV,3,2,11,08,52,250,16,10,68,259,40,11,44,079,45,13,42,246,16,1*71
$GBGSV,3,3,11,14,52,135,45,21,17,042,32,34,26,095,43,1*48
$GBGSV,2,1,07,01,43,152,39,03,44,206,37,04,35,132,39,07,70,220,37,3*75
$GBGSV,2,2,07,10,68,259,40,11,44,079,46,14,52,135,44,3*4F
$GNRMC,041355.00,A,3727.0510845,N,12639.2701388,E,0.011,,220622,,,F,V*17
$GNVTG,,T,,M,0.011,N,0.021,K,D*3B
$GNGNS,041355.00,3727.0510845,N,12639.2701388,E,FFFF,27,0.67,27.492,17.838,,4095,V*23
$GNGGA,041355.00,3727.0510845,N,12639.2701388,E,5,12,0.67,27.492,M,17.838,M,,4095*71
$GNGSA,A,3,04,17,03,19,14,01,09,,,,,,1.31,0.67,1.13,1*04
$GNGSA,A,3,71,72,87,65,88,78,,,,,,,1.31,0.67,1.13,2*03
$GNGSA,A,3,02,09,05,25,36,11,,,,,,,1.31,0.67,1.13,3*0E
$GNGSA,A,3,14,03,34,04,10,21,11,07,01,,,,1.31,0.67,1.13,4*04
$GPGSV,3,1,09,01,14,065,29,03,41,049,47,04,20,102,42,06,47,283,17,1*62
$GPGSV,3,2,09,09,17,135,29,14,35,190,36,17,77,042,47,19,62,330,39,1*64
$GPGSV,3,3,09,50,47,179,41,1*51
$GPGSV,2,1,06,01,14,065,35,03,41,049,39,04,20,102,42,09,17,135,35,6*6B
$GPGSV,2,2,06,14,35,190,35,17,77,042,41,6*6D
$GPGSV,2,1,05,02,09,266,,11,12,260,,12,06,325,,40,06,259,,0*60
$GPGSV,2,2,05,40,06,259,,0*5C
$GLGSV,2,1,06,65,19,168,34,71,34,049,46,72,47,116,46,78,26,305,21,1*7C
$GLGSV,2,2,06,87,52,353,36,88,25,301,29,1*78
$GLGSV,2,1,06,65,19,168,25,71,34,049,41,72,47,116,40,77,28,241,13,3*7E
$GLGSV,2,2,06,78,26,305,25,88,25,301,11,3*73
$GLGSV,1,1,02,76,04,199,,86,25,072,,0*73
$GAGSV,2,1,07,02,43,217,27,05,16,150,32,09,28,097,44,11,15,070,29,2*74
$GAGSV,2,2,07,30,39,291,24,34,49,292,20,36,58,035,47,2*48
$GAGSV,2,1,05,02,43,217,32,05,16,150,37,09,28,097,46,25,10,176,27,7*7B
$GAGSV,2,2,05,36,58,035,47,7*4B
$GAGSV,1,1,04,04,12,046,,15,05,266,,18,40,305,,27,02,330,,0*7A
$GBGSV,3,1,11,01,43,152,32,03,44,206,44,04,35,132,40,07,70,220,39,1*7E
$GBGSV,3,2,11,08,52,250,16,10,68,259,40,11,44,079,45,13,42,246,15,1*72
$GBGSV,3,3,11,14,52,135,45,21,17,042,32,34,26,095,43,1*48
$GBGSV,2,1,07,01,43,152,39,03,44,206,37,04,35,132,39,07,70,220,37,3*75
$GBGSV,2,2,07,10,68,259,40,11,44,079,46,14,52,135,45,3*4E
$GBGSV,2,1,06,02,27,236,,05,08,256,,12,00,101,,23,17,230,,0*7B
$GBGSV,2,2,06,23,17,230,,28,39,304,,0*70
$GNRMC,041356.00,A,3727.0510777,N,12639.2701290,E,0.006,,220622,,,F,V*14
$GNVTG,,T,,M,0.006,N,0.012,K,D*3D
$GNGNS,041356.00,3727.0510777,N,12639.2701290,E,FFFF,28,0.68,27.423,17.838,,4095,V*2C
$GNGGA,041356.00,3727.0510777,N,12639.2701290,E,5,12,0.68,27.423,M,17.838,M,,4095*71
$GNGSA,A,3,04,17,03,19,14,01,09,,,,,,1.34,0.68,1.15,1*08
$GNGSA,A,3,71,72,87,65,88,78,,,,,,,1.34,0.68,1.15,2*0F
$GNGSA,A,3,02,09,05,25,36,11,,,,,,,1.34,0.68,1.15,3*02
$GNGSA,A,3,14,03,34,04,10,21,11,07,01,,,,1.34,0.68,1.15,4*08
$GPGSV,3,1,09,01,14,065,29,03,41,049,47,04,20,102,42,06,47,283,17,1*62
$GPGSV,3,2,09,09,17,135,28,14,35,190,36,17,77,042,47,19,62,330,39,1*65
$GPGSV,3,3,09,50,47,179,42,1*52
$GPGSV,2,1,06,01,14,065,35,03,41,049,39,04,20,102,42,09,17,135,35,6*6B
$GPGSV,2,2,06,14,35,190,35,17,77,042,41,6*6D
$GPGSV,2,1,05,02,09,266,,11,12,260,,12,06,325,,40,06,259,,0*60
$GPGSV,2,2,05,40,06,259,,0*5C
$GLGSV,2,1,06,65,19,168,35,71,34,049,46,72,47,116,46,78,26,305,23,1*7F
$GLGSV,2,2,06,87,52,353,36,88,25,301,29,1*78
$GLGSV,2,1,06,65,19,168,26,71,34,049,41,72,47,116,40,77,28,241,09,3*76
$GLGSV,2,2,06,78,26,305,25,88,25,301,11,3*73
$GLGSV,1,1,02,76,04,199,,86,25,072,,0*73
$GAGSV,2,1,07,02,43,217,27,05,16,150,33,09,28,097,44,11,15,070,28,2*74
$GAGSV,2,2,07,30,39,291,24,34,49,292,20,36,58,035,47,2*48
$GAGSV,2,1,05,02,43,217,32,05,16,150,37,09,28,097,45,25,10,176,26,7*79
$GAGSV,2,2,05,36,58,035,47,7*4B
$GAGSV,1,1,04,04,12,046,,15,05,266,,18,40,305,,27,02,330,,0*7A
$GBGSV,3,1,11,01,43,152,33,03,44,206,44,04,35,132,40,07,70,220,39,1*7F
$GBGSV,3,2,11,08,52,250,17,10,68,259,40,11,44,079,45,13,42,246,15,1*73
$GBGSV,3,3,11,14,52,135,45,21,17,042,32,34,26,095,44,1*4F
$GBGSV,2,1,07,01,43,152,40,03,44,206,37,04,35,132,39,07,70,220,37,3*7B
$GBGSV,2,2,07,10,68,259,40,11,44,079,46,14,52,135,45,3*4E
$GBGSV,2,1,06,02,27,236,,05,08,256,,12,00,101,,23,17,230,,0*7B
$GBGSV,2,2,06,23,17,230,,28,39,304,,0*70
$GNRMC,041357.00,A,3727.0510738,N,12639.2701124,E,0.014,,220622,,,F,V*11
$GNVTG,,T,,M,0.014,N,0.026,K,D*39
$GNGNS,041357.00,3727.0510738,N,12639.2701124,E,FFFF,27,0.68,27.333,17.838,,4095,V*23
$GNGGA,041357.00,3727.0510738,N,12639.2701124,E,5,12,0.68,27.333,M,17.838,M,,4095*71
$GNGSA,A,3,04,17,03,19,14,01,09,,,,,,1.34,0.68,1.15,1*08
$GNGSA,A,3,71,72,87,65,88,78,,,,,,,1.34,0.68,1.15,2*0F
$GNGSA,A,3,02,09,05,25,36,11,,,,,,,1.34,0.68,1.15,3*02
$GNGSA,A,3,14,03,34,04,10,21,11,07,01,,,,1.34,0.68,1.15,4*08
$GPGSV,3,1,09,01,14,065,29,03,41,049,46,04,20,102,42,06,47,283,15,1*61
$GPGSV,3,2,09,09,17,135,27,14,35,190,35,17,77,042,47,19,62,330,39,1*69
$GPGSV,3,3,09,50,47,179,41,1*51
$GPGSV,2,1,06,01,14,065,34,03,41,049,40,04,20,102,42,09,17,135,35,6*64
$GPGSV,2,2,06,14,35,190,36,17,77,042,41,6*6E
$GPGSV,2,1,05,02,09,266,,11,12,260,,12,06,325,,40,06,259,,0*60
$GPGSV,2,2,05,40,06,259,,0*5C
$GLGSV,2,1,06,65,19,168,36,71,34,049,46,72,47,116,46,78,26,305,25,1*7A
$GLGSV,2,2,06,87,52,353,37,88,25,301,28,1*78
$GLGSV,2,1,06,65,19,168,26,71,34,049,41,72,47,116,40,77,28,241,07,3*78
$GLGSV,2,2,06,78,26,305,25,88,25,301,08,3*7B
$GLGSV,1,1,02,76,04,199,,86,25,072,,0*73
$GAGSV,2,1,07,02,43,217,27,05,16,150,32,09,28,097,44,11,15,070,28,2*75
$GAGSV,2,2,07,30,39,291,24,34,49,292,19,36,58,035,47,2*42
$GAGSV,2,1,06,02,43,217,31,05,16,150,37,09,28,097,45,11,15,070,24,7*7E
$GAGSV,2,2,06,25,10,176,26,36,58,035,47,7*7A
$GAGSV,1,1,04,04,12,046,,15,05,266,,18,40,305,,27,02,330,,0*7A
$GBGSV,3,1,11,01,43,152,33,03,44,206,44,04,35,132,40,07,70,220,39,1*7F
$GNRMC,041358.00,A,3727.0510705,N,12639.2700920,E,0.023,,220622,,,F,V*19
$GNVTG,,T,,M,0.023,N,0.042,K,D*3F
$GNGNS,041358.00,3727.0510705,N,12639.2700920,E,FFFF,28,0.68,27.241,17.838,,4095,V*24
$GNGGA,041358.00,3727.0510705,N,12639.2700920,E,5,12,0.68,27.241,M,17.838,M,,4095*79
$GNGSA,A,3,04,17,03,19,14,01,09,,,,,,1.34,0.68,1.15,1*08
$GNGSA,A,3,71,72,87,65,88,78,,,,,,,1.34,0.68,1.15,2*0F
$GNGSA,A,3,02,09,05,25,36,11,,,,,,,1.34,0.68,1.15,3*02
$GNGSA,A,3,14,03,34,04,10,21,11,07,01,,,,1.34,0.68,1.15,4*08
$GPGSV,3,1,09,01,14,065,28,03,41,049,47,04,20,102,42,06,47,283,15,1*61
$GPGSV,3,2,09,09,17,135,27,14,35,190,36,17,77,042,47,19,62,330,39,1*6A
$GPGSV,3,3,09,50,47,179,41,1*51
$GPGSV,2,1,06,01,14,065,34,03,41,049,39,04,20,102,42,09,17,135,35,6*6A
$GPGSV,2,2,06,14,35,190,36,17,77,042,41,6*6E
$GPGSV,2,1,05,02,09,266,,11,12,260,,12,06,325,,40,06,259,,0*60
$GPGSV,2,2,05,40,06,259,,0*5C
$GLGSV,2,1,06,65,19,168,37,71,34,049,47,72,47,116,46,78,26,305,25,1*7A
$GLGSV,2,2,06,87,52,353,36,88,25,301,28,1*79
$GNRMC,041359.00,A,3727.0510615,N,12639.2700859,E,0.000,,220622,,,F,V*16
$GNVTG,,T,,M,0.000,N,0.001,K,D*39
$GNGNS,041359.00,3727.0510615,N,12639.2700859,E,FFFF,28,0.67,27.170,17.838,,4095,V*24
$GNGGA,041359.00,3727.0510615,N,12639.2700859,E,5,12,0.67,27.170,M,17.838,M,,4095*79
$GNGSA,A,3,04,17,03,19,14,01,09,,,,,,1.31,0.67,1.13,1*04
$GNGSA,A,3,71,72,87,65,88,78,,,,,,,1.31,0.67,1.13,2*03
$GNGSA,A,3,02,09,05,25,36,11,,,,,,,1.31,0.67,1.13,3*0E
$GNGSA,A,3,14,03,34,04,10,21,11,07,01,,,,1.31,0.67,1.13,4*04
$GPGSV,3,1,09,01,14,065,28,03,41,049,47,04,20,102,42,06,47,283,13,1*67
$GPGSV,3,2,09,09,17,135,27,14,35,190,36,17,77,042,47,19,62,330,39,1*6A
$GPGSV,3,3,09,50,47,179,41,1*51
$GPGSV,2,1,06,01,14,065,33,03,41,049,39,04,20,102,42,09,17,135,34,6*6C
$GPGSV,2,2,06,14,35,190,36,17,77,042,41,6*6E
$GPGSV,2,1,05,02,09,266,,11,12,260,,12,06,325,,40,06,259,,0*60
$GPGSV,2,2,05,40,06,259,,0*5C
$GLGSV,2,1,06,65,19,168,37,71,34,049,47,72,47,116,47,78,26,305,25,1*7B
$GLGSV,2,2,06,87,52,353,37,88,25,301,30,1*71
$GLGSV,2,1,06,65,19,168,28,71,34,049,41,72,47,116,40,77,28,241,09,3*78
$GLGSV,2,2,06,78,26,305,24,88,25,301,09,3*7B
$GLGSV,1,1,02,76,04,199,,86,25,072,,0*73
$GAGSV,2,1,07,02,43,217,27,05,16,150,32,09,28,097,44,11,15,070,28,2*75
$GAGSV,2,2,07,30,39,291,23,34,49,292,19,36,58,035,47,2*45
$GAGSV,2,1,06,02,43,217,31,05,16,150,37,09,28,097,45,11,15,070,26,7*7C
$GAGSV,2,2,06,25,10,176,25,36,58,035,47,7*79
$GAGSV,1,1,04,04,12,046,,15,05,266,,18,40,305,,27,02,330,,0*7A
$GBGSV,3,1,11,01,43,152,33,03,44,206,44,04,35,132,40,07,70,220,39,1*7F
$GBGSV,3,2,11,08,52,250,13,10,68,259,40,11,44,079,45,13,42,246,14,1*76
$GBGSV,3,3,11,14,52,135,45,21,17,042,31,34,26,095,44,1*4C
$GBGSV,2,1,07,01,43,152,40,03,44,206,37,04,35,132,39,07,70,220,38,3*74
$GBGSV,2,2,07,10,68,259,40,11,44,079,46,14,52,135,45,3*4E
$GBGSV,2,1,06,02,27,236,,05,08,256,,12,00,101,,23,17,230,,0*7B
$GBGSV,2,2,06,23,17,230,,28,39,304,,0*70
$GNRMC,041400.00,A,3727.0510463,N,12639.2700890,E,0.018,,220622,,,F,V*12
$GNVTG,,T,,M,0.018,N,0.034,K,D*36
$GNGNS,041400.00,3727.0510463,N,12639.2700890,E,FFFF,28,0.67,27.143,17.838,,4095,V*29
$GNGGA,041400.00,3727.0510463,N,12639.2700890,E,5,12,0.67,27.143,M,17.838,M,,4095*74
$GNGSA,A,3,04,17,03,19,14,01,09,,,,,,1.31,0.67,1.13,1*04
$GNGSA,A,3,71,72,87,65,88,78,,,,,,,1.31,0.67,1.13,2*03
$GNGSA,A,3,02,09,05,25,36,11,,,,,,,1.31,0.67,1.13,3*0E
$GNGSA,A,3,14,03,34,04,10,21,11,07,01,,,,1.31,0.67,1.13,4*04
$GPGSV,3,1,09,01,14,065,28,03,41,049,47,04,20,102,42,06,47,283,10,1*64
$GPGSV,3,2,09,09,17,135,27,14,35,190,36,17,77,042,47,19,62,330,39,1*6A
$GPGSV,3,3,09,50,47,179,41,1*51
$GPGSV,1,1,01,06,47,283,16,5*5A
$GPGSV,2,1,06,01,14,065,33,03,41,049,39,04,20,102,42,09,17,135,34,6*6C
$GPGSV,2,2,06,14,35,190,36,17,77,042,41,6*6E
$GPGSV,2,1,05,02,09,266,,11,12,260,,12,06,325,,40,06,259,,0*60
$GPGSV,2,2,05,40,06,259,,0*5C
$GLGSV,2,1,06,65,19,168,37,71,34,049,47,72,47,116,47,78,26,305,25,1*7B
$GLGSV,2,2,06,87,52,353,37,88,25,301,29,1*79
$GLGSV,2,1,06,65,19,168,29,71,34,049,41,72,47,116,40,77,28,241,08,3*78
$GLGSV,2,2,06,78,26,305,24,88,25,301,09,3*7B
$GLGSV,1,1,02,76,04,199,,86,25,072,,0*73
$GAGSV,2,1,07,02,43,217,28,05,16,150,33,09,28,097,44,11,15,070,28,2*7B
$GAGSV,2,2,07,30,39,291,24,34,49,292,20,36,58,035,47,2*48
$GNRMC,041401.00,A,3727.0510292,N,12639.2700822,E,0.019,,220622,,,F,V*13
$GNVTG,,T,,M,0.019,N,0.034,K,D*37
$GNGNS,041401.00,3727.0510292,N,12639.2700822,E,FFFF,28,0.67,27.104,17.838,,4095,V*2A
$GNGGA,041401.00,3727.0510292,N,12639.2700822,E,5,12,0.67,27.104,M,17.838,M,,4095*77
$GNGSA,A,3,04,17,03,19,14,01,09,,,,,,1.31,0.67,1.13,1*04
$GNGSA,A,3,71,72,87,65,88,78,,,,,,,1.31,0.67,1.13,2*03
$GNGSA,A,3,02,09,05,25,36,11,,,,,,,1.31,0.67,1.13,3*0E
$GNGSA,A,3,14,03,34,04,10,21,11,07,01,,,,1.31,0.67,1.13,4*04
$GPGSV,3,1,09,01,14,065,27,03,41,049,46,04,20,102,41,06,47,283,09,1*61
$GPGSV,3,2,09,09,17,135,27,14,35,190,36,17,77,042,47,19,62,330,39,1*6A
$GPGSV,3,3,09,50,47,179,41,1*51
$GPGSV,2,1,07,01,14,065,32,03,41,049,39,04,20,102,42,06,47,283,16,6*68
$GPGSV,2,2,07,09,17,135,34,14,35,190,35,17,77,042,41,6*53
$GPGSV,2,1,05,02,09,266,,11,12,260,,12,06,325,,40,06,259,,0*60
$GPGSV,2,2,05,40,06,259,,0*5C
$GLGSV,2,1,06,65,19,168,38,71,34,049,47,72,47,116,47,78,26,305,24,1*75
$GLGSV,2,2,06,87,52,353,37,88,25,301,29,1*79
$GLGSV,2,1,06,65,19,168,29,71,34,049,41,72,47,116,39,77,28,241,12,3*7D
$GLGSV,2,2,06,78,26,305,24,88,25,301,08,3*7A
$GLGSV,1,1,02,76,04,199,,86,25,072,,0*73
$GAGSV,2,1,07,02,43,217,27,05,16,150,33,09,28,097,43,11,15,070,28,2*73
$GAGSV,2,2,07,30,39,291,23,34,49,292,19,36,58,035,47,2*45
$GAGSV,2,1,06,02,43,217,30,05,16,150,37,09,28,097,45,11,15,070,28,7*73
$GAGSV,2,2,06,25,10,176,24,36,58,035,47,7*78
$GAGSV,1,1,04,04,12,046,,15,05,266,,18,40,305,,27,02,330,,0*7A
$GBGSV,3,1,10,01,43,152,33,03,44,206,44,04,35,132,40,07,70,220,39,1*7E
$GBGSV,3,2,10,08,52,250,14,10,68,259,40,11,44,079,45,14,52,135,45,1*75
$GBGSV,3,3,10,21,17,042,31,34,26,095,44,1*79
$GBGSV,2,1,07,01,43,152,39,03,44,206,37,04,35,132,39,07,70,220,37,3*75
$GBGSV,2,2,07,10,68,259,39,11,44,079,45,14,52,135,45,3*43
$GBGSV,2,1,07,02,27,236,,05,08,256,,12,00,101,,13,42,246,,0*78
$GBGSV,2,2,07,13,42,246,,23,17,230,,28,39,304,,0*45
$GNRMC,041402.00,A,3727.0510084,N,12639.2700767,E,0.020,,220622,,,F,V*11
$GNVTG,,T,,M,0.020,N,0.037,K,D*3E
$GNGNS,041402.00,3727.0510084,N,12639.2700767,E,FFFF,28,0.67,27.061,17.838,,4095,V*20
$GNGGA,041402.00,3727.0510084,N,12639.2700767,E,5,12,0.67,27.061,M,17.838,M,,4095*7D
$GNGSA,A,3,04,17,03,19,14,01,09,,,,,,1.31,0.67,1.13,1*04
$GNGSA,A,3,71,72,87,65,88,78,,,,,,,1.31,0.67,1.13,2*03
$GNGSA,A,3,02,09,05,25,36,11,,,,,,,1.31,0.67,1.13,3*0E
$GNGSA,A,3,14,03,34,04,10,21,11,07,01,,,,1.31,0.67,1.13,4*04
$GPGSV,3,1,09,01,14,065,27,03,41,049,47,04,20,102,42,06,47,283,12,1*69
$GPGSV,3,2,09,09,17,135,28,14,35,190,37,17,77,042,47,19,62,330,39,1*64
$GPGSV,3,3,09,50,47,179,41,1*51
$GPGSV,2,1,07,01,14,065,31,03,41,049,39,04,20,102,42,06,47,283,16,6*6B
$GPGSV,2,2,07,09,17,135,34,14,35,190,35,17,77,042,41,6*53
$GPGSV,2,1,05,02,09,266,,11,12,260,,12,06,325,,40,06,259,,0*60
$GPGSV,2,2,05,40,06,259,,0*5C
$GLGSV,2,1,06,65,19,168,38,71,34,049,47,72,47,116,47,78,26,305,22,1*73
$GLGSV,2,2,06,87,52,353,37,88,25,301,28,1*78
$GLGSV,2,1,06,65,19,168,30,71,34,049,41,72,47,116,40,77,28,241,10,3*79
$GLGSV,2,2,06,78,26,305,23,88,25,301,11,3*75
$GLGSV,1,1,02,76,04,199,,86,25,072,,0*73
$GAGSV,2,1,07,02,43,217,27,05,16,150,33,09,28,097,45,11,15,070,28,2*75
$GAGSV,2,2,07,30,39,291,23,34,49,292,19,36,58,035,47,2*45
$GAGSV,2,1,06,02,43,217,30,05,16,150,37,09,28,097,45,11,15,070,28,7*73
$GAGSV,2,2,06,25,10,176,24,36,58,035,47,7*78
$GAGSV,1,1,04,04,12,046,,15,05,266,,18,40,305,,27,02,330,,0*7A
$GBGSV,3,1,10,01,43,152,33,03,44,206,44,04,35,132,40,07,70,220,39,1*7E
$GBGSV,3,2,10,08,52,250,15,10,68,259,40,11,44,079,45,14,52,135,46,1*77
$GBGSV,3,3,10,21,17,042,32,34,26,095,44,1*7A
$GBGSV,2,1,07,01,43,152,39,03,44,206,37,04,35,132,39,07,70,220,37,3*75
$GBGSV,2,2,07,10,68,259,39,11,44,079,46,14,52,135,45,3*40
$GBGSV,2,1,07,02,27,236,,05,08,256,,12,00,101,,13,42,246,,0*78
$GNRMC,041403.00,A,3727.0510015,N,12639.2700751,E,0.025,,220622,,,F,V*18
$GNVTG,,T,,M,0.025,N,0.047,K,D*3C
$GNGNS,041403.00,3727.0510015,N,12639.2700751,E,FFFF,28,0.67,27.041,17.838,,4095,V*2E
$GNGGA,041403.00,3727.0510015,N,12639.2700751,E,5,12,0.67,27.041,M,17.838,M,,4095*73
$GNGSA,A,3,04,17,03,19,14,01,09,,,,,,1.31,0.67,1.13,1*04
$GNGSA,A,3,71,72,87,65,88,78,,,,,,,1.31,0.67,1.13,2*03
$GNGSA,A,3,02,09,05,25,36,11,,,,,,,1.31,0.67,1.13,3*0E
$GNGSA,A,3,14,03,34,04,10,21,11,07,01,,,,1.31,0.67,1.13,4*04
$GPGSV,3,1,09,01,14,065,28,03,41,049,47,04,20,102,41,06,47,283,10,1*67
$GPGSV,3,2,09,09,17,135,28,14,35,190,37,17,77,042,47,19,62,330,39,1*64
$GPGSV,3,3,09,50,47,179,41,1*51
$GPGSV,2,1,07,01,14,065,31,03,41,049,39,04,20,102,42,06,47,283,15,6*68
$GPGSV,2,2,07,09,17,135,34,14,35,190,35,17,77,042,41,6*53
$GPGSV,2,1,05,02,09,266,,11,12,260,,12,06,325,,40,06,259,,0*60
$GPGSV,2,2,05,40,06,259,,0*5C
$GLGSV,2,1,06,65,19,168,38,71,34,049,47,72,47,116,46,78,26,305,22,1*72
$GLGSV,2,2,06,87,52,353,37,88,25,301,27,1*77
$GLGSV,2,1,06,65,19,168,30,71,34,049,41,72,47,116,40,77,28,241,09,3*71
$GLGSV,2,2,06,78,26,305,23,88,25,301,13,3*77
$GLGSV,1,1,02,76,04,199,,86,25,072,,0*73
$GAGSV,2,1,07,02,43,217,27,05,16,150,33,09,28,097,44,11,15,070,27,2*7B
$GAGSV,2,2,07,30,39,291,24,34,49,292,19,36,58,035,48,2*4D
$GAGSV,2,1,06,02,43,217,30,05,16,150,37,09,28,097,45,11,15,070,29,7*72
$GAGSV,2,2,06,25,10,176,23,36,58,035,47,7*7F
$GAGSV,1,1,04,04,12,046,,15,05,266,,18,40,305,,27,02,330,,0*7A
$GBGSV,3,1,10,01,43,152,32,03,44,206,44,04,35,132,40,07,70,220,39,1*7F
$GBGSV,3,2,10,08,52,250,15,10,68,259,40,11,44,079,45,14,52,135,46,1*77
$GBGSV,3,3,10,21,17,042,31,34,26,095,44,1*79
$GBGSV,2,1,07,01,43,152,40,03,44,206,37,04,35,132,38,07,70,220,37,3*7A
$GBGSV,2,2,07,10,68,259,39,11,44,079,45,14,52,135,45,3*43
$GBGSV,2,1,07,02,27,236,,05,08,256,,12,00,101,,13,42,246,,0*78
$GBGSV,2,2,07,13,42,246,,23,17,230,,28,39,304,,0*45
$GNRMC,041404.00,A,3727.0510013,N,12639.2700864,E,0.025,,220622,,,F,V*10
$GNVTG,,T,,M,0.025,N,0.046,K,D*3D
$GNGNS,041404.00,3727.0510013,N,12639.2700864,E,FFFF,28,0.67,27.078,17.838,,4095,V*2C
$GNGGA,041404.00,3727.0510013,N,12639.2700864,E,5,12,0.67,27.078,M,17.838,M,,4095*71
$GNGSA,A,3,04,17,03,19,14,01,09,,,,,,1.31,0.67,1.13,1*04
$GNGSA,A,3,71,72,87,65,88,78,,,,,,,1.31,0.67,1.13,2*03
$GNGSA,A,3,02,09,05,25,36,11,,,,,,,1.31,0.67,1.13,3*0E
$GNGSA,A,3,14,03,34,04,10,21,11,07,01,,,,1.31,0.67,1.13,4*04
$GPGSV,3,2,09,09,17,135,29,14,35,190,37,17,77,042,47,19,62,330,39,1*65
$GPGSV,3,3,09,50,47,179,41,1*51
$GPGSV,2,1,07,01,14,065,30,03,41,049,39,04,20,102,42,06,47,283,15,6*69
$GPGSV,2,2,07,09,17,135,34,14,35,190,35,17,77,042,41,6*53
$GPGSV,2,1,05,02,09,266,,11,12,260,,12,06,325,,40,06,259,,0*60
$GPGSV,2,2,05,40,06,259,,0*5C
$GLGSV,2,1,06,65,19,168,39,71,34,049,47,72,47,116,47,78,26,305,21,1*71
$GLGSV,2,2,06,87,52,353,37,88,25,301,26,1*76
$GLGSV,2,1,06,65,19,168,31,71,34,049,41,72,47,116,40,77,28,241,10,3*78
$GLGSV,2,2,06,78,26,305,23,88,25,301,15,3*71
$GLGSV,1,1,02,76,04,199,,86,25,072,,0*73
$GAGSV,2,1,06,02,43,217,27,05,16,150,32,09,28,097,44,11,15,070,27,2*7B
$GAGSV,2,2,06,30,39,291,25,36,58,035,47,2*79
$GAGSV,2,1,06,02,43,217,30,05,16,150,38,09,28,097,46,11,15,070,30,7*76
$GAGSV,2,2,06,25,10,176,24,36,58,035,47,7*78
$GAGSV,2,1,05,04,12,046,,15,05,266,,18,40,305,,27,02,330,,0*78
$GAGSV,2,2,05,27,02,330,,0*46
$GBGSV,3,1,1$GNRMC,041405.00,A,3727.0510010,N,12639.2700957,E,0.024,,220622,,,F,V*12
