$GNRMC,041510.00,A,3727.0503823,N,12639.2705603,E,0.017,,220622,,,F,V*16
$GNVTG,,T,,M,0.017,N,0.032,K,D*3F
$GNGNS,041510.00,3727.0503823,N,12639.2705603,E,FFFF,26,0.64,28.216,17.838,,4095,V*23
$GNGSA,A,3,02,09,05,36,11,,,,,,,,1.30,0.64,1.13,3*0B
$GNGSA,A,3,14,03,34,04,10,21,11,07,01,,,,1.30,0.64,1.13,4*06
$GPGSV,3,1,09,01,14,065,25,03,41,049,48,04,20,102,33,06,47,283,19,1*69
$GPGSV,3,2,09,09,17,135,37,14,35,190,46,17,77,042,37,19,62,330,25,1*66
$GPGSV,3,3,09,50,47,179,39,1*5E
$GPGSV,2,1,06,01,14,065,34,03,41,049,39,04,20,102,39,09,17,135,34,6*67
$GPGSV,2,2,06,14,35,190,37,17,77,042,38,6*61
$GPGSV,2,1,05,02,09,266,,11,12,260,,12,06,325,,40,06,259,,0*60
$GPGSV,2,2,05,40,06,259,,0*5C
$GLGSV,2,1,06,65,20,167,39,71,34,049,49,72,47,116,37,78,26,305,26,1*7A
$GLGSV,2,2,06,87,52,353,31,88,25,301,24,1*72
$GLGSV,2,1,06,65,20,167,31,71,34,049,41,72,47,116,33,77,28,241,14,3*7D
$GLGSV,2,2,06,78,26,305,15,88,25,301,19,3*78
$GLGSV,1,1,02,76,04,199,,86,25,072,,0*73
$GAGSV,2,1,05,02,42,217,26,05,17,149,39,09,28,097,40,11,15,071,30,2*79
$GAGSV,2,2,05,36,57,036,45,2*40
$GAGSV,2,1,06,02,42,217,35,05,17,149,39,09,28,097,43,11,15,071,20,7*7F
$GAGSV,2,2,06,34,49,293,24,36,57,036,45,7*72
$GAGSV,2,1,06,04,12,045,,15,05,267,,18,41,306,,25,10,176,,0*7A
$GAGSV,2,2,06,25,10,176,,27,02,330,,0*73
$GBGSV,3,1,09,01,43,152,32,03,44,206,42,04,35,132,41,07,69,220,33,1*72
$GBGSV,3,2,09,10,68,258,29,11,44,080,44,14,53,134,41,21,17,041,36,1*78
$GBGSV,3,3,09,34,25,095,45,1*42
$GBGSV,2,1,07,01,43,152,34,03,44,206,33,04,35,132,34,07,69,220,33,3*7D
$GBGSV,2,2,07,10,68,258,30,11,44,080,40,14,53,134,39,3*43
$GNRMC,041511.00,A,3727.0503108,N,12639.2706897,E,0.071,,220622,,,F,V*17
$GNVTG,,T,,M,0.071,N,0.131,K,D*3D
$GNGNS,041511.00,3727.0503108,N,12639.2706897,E,FFFF,27,0.64,28.509,17.838,,4095,V*2A
$GNGGA,041511.00,3727.0503108,N,12639.2706897,E,5,12,0.64,28.509,M,17.838,M,,4095*78
$GNGSA,A,3,04,17,03,19,14,01,09,,,,,,1.30,0.64,1.13,1*06
$GNGSA,A,3,78,71,72,87,65,88,,,,,,,1.30,0.64,1.13,2*01
$GNGSA,A,3,02,09,05,36,11,34,,,,,,,1.30,0.64,1.13,3*0C
$GNGSA,A,3,14,03,34,04,10,21,11,07,01,,,,1.30,0.64,1.13,4*06
$GPGSV,3,1,09,01,14,065,25,03,41,049,46,04,20,102,40,06,47,283,13,1*69
$GPGSV,3,2,09,09,17,135,30,14,35,190,43,17,77,042,41,19,62,330,32,1*63
$GPGSV,3,3,09,50,47,179,40,1*50
$GPGSV,2,1,06,01,14,065,34,03,41,049,39,04,20,102,38,09,17,135,33,6*61
$GPGSV,2,2,06,14,35,190,32,17,77,042,38,6*64
$GPGSV,2,1,05,02,09,266,,11,12,260,,12,06,325,,40,06,259,,0*60
$GPGSV,2,2,05,40,06,259,,0*5C
$GLGSV,2,1,06,65,20,167,39,71,34,049,50,72,47,116,37,78,26,305,26,1*72
$GLGSV,2,2,06,87,52,353,32,88,25,301,22,1*77
$GLGSV,2,1,06,65,20,167,29,71,34,049,40,72,47,116,33,77,28,241,11,3*70
$GLGSV,2,2,06,78,26,305,15,88,25,301,19,3*78
$GLGSV,1,1,02,76,04,199,,86,25,072,,0*73
$GAGSV,2,1,05,02,42,217,25,05,17,149,34,09,28,097,38,11,15,071,29,2*70
$GAGSV,2,2,05,36,57,036,45,2*40
$GAGSV,2,1,06,02,42,217,34,05,17,149,40,09,28,097,46,11,15,071,22,7*77
$GAGSV,2,2,06,34,49,293,24,36,57,036,46,7*71
$GAGSV,2,1,06,04,12,045,,15,05,267,,18,41,306,,25,10,176,,0*7A
$GAGSV,2,2,06,25,10,176,,27,02,330,,0*73
$GBGSV,3,1,10,01,43,152,34,03,44,206,41,04,35,132,40,07,69,220,34,1*79
$GBGSV,3,2,10,08,52,251,19,10,68,258,33,11,44,080,29,14,53,134,43,1*76
$GBGSV,3,3,10,21,17,041,39,34,25,095,43,1*76
$GBGSV,2,1,07,01,43,152,34,03,44,206,31,04,35,132,35,07,69,220,31,3*7C
$GBGSV,2,2,07,10,68,258,34,11,44,080,41,14,53,134,39,3*46
$GBGSV,2,1,06,02,27,236,,05,08,256,,13,43,247,,23,16,229,,0*75
$GBGSV,2,2,06,23,16,229,,28,39,305,,0*78
$GNRMC,041512.00,A,3727.0502918,N,12639.2707333,E,0.010,,220622,,,F,V*1F
$GNVTG,,T,,M,0.010,N,0.019,K,D*31
$GNGNS,041512.00,3727.0502918,N,12639.2707333,E,FFFF,28,0.67,28.529,17.838,,4095,V*2B
$GNGGA,041512.00,3727.0502918,N,12639.2707333,E,5,12,0.67,28.529,M,17.838,M,,4095*76
$GNGSA,A,3,04,17,03,19,14,01,09,,,,,,1.32,0.67,1.14,1*00
$GNGSA,A,3,78,71,72,87,65,77,88,,,,,,1.32,0.67,1.14,2*07
$GNGSA,A,3,02,09,05,36,11,,,,,,,,1.32,0.67,1.14,3*0D
$GNGSA,A,3,14,03,34,04,10,21,11,07,01,,,,1.32,0.67,1.14,4*00
$GPGSV,3,1,09,01,14,065,31,03,41,049,45,04,20,102,42,06,47,283,10,1*6E
$GPGSV,3,2,09,09,17,135,31,14,35,190,41,17,77,042,42,19,62,330,33,1*62
$GPGSV,3,3,09,50,47,179,40,1*50
$GNRMC,041513.00,A,3727.0502757,N,12639.2707596,E,0.022,,220622,,,F,V*13
$GNVTG,,T,,M,0.022,N,0.042,K,D*3E
$GNGNS,041513.00,3727.0502757,N,12639.2707596,E,FFFF,27,0.67,28.512,17.838,,4095,V*21
$GNGGA,041513.00,3727.0502757,N,12639.2707596,E,5,12,0.67,28.512,M,17.838,M,,4095*73
$GNGSA,A,3,04,17,03,19,14,01,09,,,,,,1.32,0.67,1.14,1*00
$GNGSA,A,3,78,71,72,87,65,77,88,,,,,,1.32,0.67,1.14,2*07
$GNGSA,A,3,02,09,05,36,11,,,,,,,,1.32,0.67,1.14,3*0D
$GNGSA,A,3,14,03,34,04,10,21,11,07,01,,,,1.32,0.67,1.14,4*00
$GPGSV,3,1,09,01,13,065,31,03,41,049,48,04,20,102,39,06,47,283,08,1*61
$GPGSV,3,2,09,09,17,135,35,14,35,190,42,17,77,042,43,19,62,330,36,1*61
$GPGSV,3,3,09,50,47,179,39,1*5E
$GPGSV,1,1,01,06,47,283,15,5*59
$GPGSV,2,1,06,01,13,065,34,03,41,049,39,04,20,102,37,09,17,135,31,6*6B
$GPGSV,2,2,06,14,35,190,28,17,77,042,38,6*6F
$GPGSV,2,1,05,02,09,266,,11,12,260,,12,06,325,,40,06,259,,0*60
$GPGSV,2,2,05,40,06,259,,0*5C
$GLGSV,2,1,06,65,20,167,36,71,33,048,50,72,48,115,39,78,26,305,29,1*76
$GLGSV,2,2,06,87,52,353,35,88,25,301,25,1*77
$GLGSV,2,1,06,65,20,167,32,71,33,048,39,72,48,115,35,77,28,241,11,3*78
$GLGSV,2,2,06,78,26,305,17,88,25,301,18,3*7B
$GLGSV,1,1,02,76,04,199,,86,25,072,,0*73
$GAGSV,2,1,05,02,42,217,23,05,17,149,35,09,28,097,37,11,15,071,27,2*76
$GAGSV,2,2,05,36,57,036,45,2*40
$GAGSV,2,1,06,02,42,217,35,05,17,149,38,09,28,097,47,11,15,071,22,7*78
$GAGSV,2,2,06,34,49,293,25,36,57,036,46,7*70
$GAGSV,2,1,06,04,12,045,,15,05,267,,18,41,306,,25,10,176,,0*7A
$GAGSV,2,2,06,25,10,176,,27,02,330,,0*73
$GBGSV,3,1,10,01,43,152,33,03,44,206,40,04,35,132,40,07,69,220,35,1*7E
$GBGSV,3,2,10,08,52,251,16,10,68,258,35,11,44,080,37,14,53,134,42,1*71
$GBGSV,3,3,10,21,17,041,39,34,25,095,45,1*70
$GBGSV,2,1,07,01,43,152,37,03,44,206,30,04,35,132,37,07,69,220,31,3*7C
$GBGSV,2,2,07,10,68,258,34,11,44,080,42,14,53,134,37,3*4B
$GBGSV,2,1,06,02,27,236,,05,08,256,,13,43,247,,23,16,229,,0*75
$GBGSV,2,2,06,23,16,229,,28,39,305,,0*78
$GNRMC,041514.00,A,3727.0502801,N,12639.2707179,E,0.021,,220622,,,F,V*1E
$GNVTG,,T,,M,0.021,N,0.039,K,D*31
$GNGNS,041514.00,3727.0502801,N,12639.2707179,E,FFFF,27,0.67,28.339,17.838,,4095,V*20
$GNGGA,041514.00,3727.0502801,N,12639.2707179,E,5,12,0.67,28.339,M,17.838,M,,4095*72
$GNGSA,A,3,04,17,03,19,14,01,09,,,,,,1.32,0.67,1.14,1*00
$GNGSA,A,3,78,71,72,87,65,88,,,,,,,1.32,0.67,1.14,2*07
$GNGSA,A,3,02,09,05,36,11,34,,,,,,,1.32,0.67,1.14,3*0A
$GNGSA,A,3,14,03,34,04,10,21,11,07,01,,,,1.32,0.67,1.14,4*00
$GPGSV,3,1,09,01,13,065,33,03,41,049,48,04,20,102,36,06,47,283,11,1*64
$GPGSV,3,2,09,09,17,135,37,14,35,190,42,17,77,042,42,19,62,330,36,1*62
$GPGSV,3,3,09,50,47,179,37,1*50
$GPGSV,2,1,07,01,13,065,34,03,41,049,38,04,20,102,36,06,47,283,14,6*69
$GPGSV,2,2,07,09,17,135,29,14,35,190,29,17,77,042,36,6*52
$GPGSV,2,1,05,02,09,266,,11,12,260,,12,06,325,,40,06,259,,0*60
$GPGSV,2,2,05,40,06,259,,0*5C
$GLGSV,2,1,06,65,20,167,36,71,33,048,51,72,48,115,40,78,26,305,29,1*79
$GLGSV,2,2,06,87,52,353,37,88,25,301,25,1*75
$GLGSV,2,1,06,65,20,167,32,71,33,048,37,72,48,115,35,77,28,241,12,3*75
$GLGSV,2,2,06,78,26,305,16,88,25,301,18,3*7A
$GLGSV,1,1,02,76,04,199,,86,25,072,,0*73
$GAGSV,2,1,05,02,42,217,23,05,17,149,37,09,28,097,36,11,15,071,27,2*75
$GAGSV,2,2,05,36,57,036,44,2*41
$GAGSV,2,1,06,02,42,217,34,05,17,149,33,09,28,097,46,11,15,071,22,7*73
$GAGSV,2,2,06,34,49,293,26,36,57,036,48,7*7D
$GAGSV,2,1,06,04,12,045,,15,05,267,,18,41,306,,25,10,176,,0*7A
$GAGSV,2,2,06,25,10,176,,27,02,330,,0*73
$GBGSV,3,1,10,01,43,152,31,03,44,206,38,04,35,132,39,07,69,220,34,1*7C
$GBGSV,3,2,10,08,52,251,16,10,68,258,34,11,44,080,44,14,53,134,42,1*74
$GBGSV,3,3,10,21,17,041,38,34,25,095,46,1*72
$GBGSV,2,1,07,01,43,152,37,03,44,206,30,04,35,132,34,07,69,220,30,3*7E
$GBGSV,2,2,07,10,68,258,33,11,44,080,42,14,53,134,29,3*43
$GBGSV,2,1,06,02,27,236,,05,08,256,,13,43,247,,23,16,229,,0*75
$GBGSV,2,2,06,23,16,229,,28,39,305,,0*78
$GNRMC,041515.00,A,3727.0502852,N,12639.2706701,E,0.053,,220622,,,F,V*14
$GNVTG,,T,,M,0.053,N,0.098,K,D*3F
$GNGNS,041515.00,3727.0502852,N,12639.2706701,E,FFFF,28,0.67,28.178,17.838,,4095,V*27
$GNGSA,A,3,04,17,03,19,14,01,09,,,,,,1.32,0.67,1.14,1*00
$GNGSA,A,3,78,71,72,87,65,88,,,,,,,1.32,0.67,1.14,2*07
$GNGSA,A,3,02,09,05,36,11,34,,,,,,,1.32,0.67,1.14,3*0A
$GNGSA,A,3,14,03,34,04,10,21,11,07,01,,,,1.32,0.67,1.14,4*00
$GPGSV,3,1,09,01,13,065,33,03,41,049,47,04,20,102,36,06,47,283,16,1*6C
$GPGSV,3,2,09,09,17,135,36,14,35,190,43,17,77,042,42,19,62,330,35,1*61
$GPGSV,3,3,09,50,47,179,37,1*50
$GPGSV,2,1,07,01,13,065,34,03,41,049,39,04,20,102,37,06,47,283,15,6*68
$GPGSV,2,2,07,09,17,135,28,14,35,190,28,17,77,042,37,6*53
$GPGSV,2,1,05,02,09,266,,11,12,260,,12,06,325,,40,06,259,,0*60
$GPGSV,2,2,05,40,06,259,,0*5C
$GLGSV,2,1,06,65,20,167,33,71,33,048,50,72,48,115,39,78,26,305,28,1*72
$GLGSV,2,2,06,87,52,353,37,88,25,301,25,1*75
$GLGSV,2,1,06,65,20,167,30,71,33,048,37,72,48,115,33,77,28,241,09,3*7B
$GLGSV,2,2,06,78,26,305,17,88,25,301,18,3*7B
$GLGSV,1,1,02,76,04,199,,86,25,072,,0*73
$GAGSV,2,1,05,02,42,217,2$GAGSV,2,2,05,36,57,036,45,2*40
$GAGSV,2,1,06,02,42,217,33,05,17,149,38,09,28,097,47,11,15,071,23,7*7F
$GAGSV,2,2,06,34,49,293,26,36,57,036,47,7*72
$GAGSV,2,1,06,04,12,045,,15,05,267,,18,41,306,,25,10,176,,0*7A
$GAGSV,2,2,06,25,10,176,,27,02,330,,0*73
$GBGSV,3,1,10,01,43,152,33,03,44,206,40,04,35,132,40,07,69,220,35,1*7E
$GBGSV,3,2,10,08,52,251,13,10,68,258,35,11,44,080,38,14,53,134,42,1*7B
$GBGSV,3,3,10,21,17,041,38,34,25,095,45,1*71
$GBGSV,2,1,07,01,43,152,37,03,44,206,30,04,35,132,36,07,69,220,30,3*7C
$GBGSV,2,2,07,10,68,258,33,11,44,080,42,14,53,134,35,3*4E
$GBGSV,2,1,06,02,27,236,,05,08,256,,13,43,247,,23,16,229,,0*75
$GBGSV,2,2,06,23,16,229,,28,39,305,,0*78
$GNRMC,041516.00,A,3727.0503082,N,12639.2706000,E,0.047,,220622,,,F,V*10
$GNVTG,,T,,M,0.047,N,0.087,K,D*34
$GNGNS,041516.00,3727.0503082,N,12639.2706000,E,FFFF,28,0.61,27.996,17.838,,4095,V*27
$GNGGA,041516.00,3727.0503082,N,12639.2706000,E,5,12,0.61,27.996,M,17.838,M,,4095*7A
$GNGSA,A,3,04,17,03,19,14,01,09,,,,,,1.21,0.61,1.05,1*04
$GNGSA,A,3,78,71,72,87,65,88,,,,,,,1.21,0.61,1.05,2*03
$GNGSA,A,3,02,09,05,36,11,34,,,,,,,1.21,0.61,1.05,3*0E
$GNGSA,A,3,14,03,34,04,10,21,11,07,01,,,,1.21,0.61,1.05,4*04
$GPGSV,3,2,09,09,17,135,28,14,35,190,40,17,77,042,45,19,62,330,38,1*67
$GPGSV,3,3,09,50,47,179,39,1*5E
$GPGSV,2,1,07,01,13,065,33,03,41,049,36,04,20,102,36,06,47,283,13,6*67
$GPGSV,2,2,07,09,17,135,27,14,35,190,32,17,77,042,37,6*57
$GPGSV,2,1,05,02,09,266,,11,12,260,,12,06,325,,40,06,259,,0*60
$GPGSV,2,2,05,40,06,259,,0*5C
$GLGSV,2,1,06,65,20,167,33,71,33,048,51,72,48,115,37,78,26,305,29,1*7C
$GLGSV,2,2,06,87,52,353,37,88,25,301,27,1*77
$GLGSV,2,1,06,65,20,167,30,71,33,048,38,72,48,115,32,77,28,241,08,3*74
$GLGSV,2,2,06,78,26,305,18,88,25,301,17,3*7B
$GLGSV,1,1,02,76,04,199,,86,25,072,,0*73
$GAGSV,2,1,05,02,42,217,22,05,17,149,32,09,28,097,40,11,15,071,27,2*70
$GAGSV,2,2,05,36,57,036,46,2*43
$GAGSV,2,1,06,02,42,217,35,05,17,149,39,09,28,097,45,11,15,071,22,7*7B
$GAGSV,2,2,06,34,49,293,25,36,57,036,47,7*71
$GAGSV,2,1,06,04,12,045,,15,05,267,,18,41,306,,25,10,176,,0*7A
$GAGSV,2,2,06,25,10,176,,27,02,330,,0*73
$GBGSV,3,1,10,$GBGSV,3,2,10,08,52,251,11,10,68,258,37,11,44,080,42,14,53,134,45,1*71
$GBGSV,3,3,10,21,17,041,39,34,25,095,46,1*73
$GBGSV,2,1,07,01,43,152,36,03,44,206,31,04,35,132,36,07,69,220,32,3*7E
$GBGSV,2,2,07,10,68,258,39,11,44,080,40,14,53,134,42,3*46
$GBGSV,2,1,06,02,27,236,,05,08,256,,13,43,247,,23,16,229,,0*75
$GBGSV,2,2,06,23,16,229,,28,39,305,,0*78
$GNRMC,041517.00,A,3727.0503371,N,12639.2705086,E,0.050,,220622,,,F,V*15
$GNVTG,,T,,M,0.050,N,0.093,K,D*37
$GNGNS,041517.00,3727.0503371,N,12639.2705086,E,FFFF,28,0.61,27.832,17.838,,4095,V*2B
$GNGGA,041517.00,3727.0503371,N,12639.2705086,E,5,12,0.61,27.832,M,17.838,M,,4095*76
$GNGSA,A,3,04,17,03,19,14,01,09,,,,,,1.21,0.61,1.05,1*04
$GNGSA,A,3,78,71,72,87,65,88,,,,,,,1.21,0.61,1.05,2*03
$GNGSA,A,3,02,09,05,36,11,34,,,,,,,1.21,0.61,1.05,3*0E
$GNGSA,A,3,14,03,34,04,10,21,11,07,01,,,,1.21,0.61,1.05,4*04
$GPGSV,3,1,09,01,13,065,37,03,41,049,46,04,20,102,39,06,47,283,08,1*69
$GPGSV,3,2,09,09,17,135,28,14,35,190,40,17,77,042,44,19,62,330,37,1*69
$GPGSV,3,3,09,50,47,179,40,1*50
$GPGSV,2,1,07,01,13,065,33,03,41,049,37,04,20,102,36,06,47,283,10,6*65
$GPGSV,2,2,07,09,17,135,27,14,35,190,33,17,77,042,37,6*56
$GPGSV,2,1,05,02,09,266,,11,12,260,,12,06,325,,40,06,259,,0*60
$GPGSV,2,2,05,40,06,259,,0*5C
$GLGSV,2,1,06,65,20,167,34,71,33,048,51,72,48,115,39,78,26,305,29,1*75
$GLGSV,2,2,06,87,52,353,37,88,25,301,27,1*77
$GLGSV,2,1,06,65,20,167,28,71,33,048,39,72,48,115,33,77,28,241,08,3*7D
$GLGSV,2,2,06,78,26,305,20,88,25,301,17,3*70
$GLGSV,1,1,02,76,03,199,,86,25,072,,0*74
$GAGSV,2,1,06,02,42,217,22,05,17,149,31,09,28,097,40,11,15,071,28,2*7F
$GAGSV,2,2,06,30,39,290,23,36,57,036,46,2*73
$GAGSV,2,1,06,02,42,217,35,05,17,149,40,09,28,097,46,11,15,071,22,7*76
$GAGSV,2,2,06,34,49,293,24,36,57,036,47,7*70
$GAGSV,2,1,05,04,12,045,,15,05,267,,18,41,306,,25,10,176,,0*79
$GAGSV,2,2,05,25,10,176,,0*47
$GBGSV,3,1,10,01,43,152,36,03,44,206,42,04,35,132,38,07,69,220,36,1*75
$GBGSV,3,2,10,10,68,258,38,11,44,080,37,13,43,247,17,14,53,134,45,1*77
$GBGSV,3,3,10,21,17,041,39,34,25,095,46,1*73
$GBGSV,2,1,07,01,43,152,36,03,44,206,32,04,35,132,36,07,69,220,33,3*7C
$GBGSV,2,2,07,10,68,258,38,11,44,080,40,14,53,134,42,3*47
$GBGSV,2,1,06,02,27,236,,05,08,256,,08,52,251,,23,16,229,,0*78
$GBGSV,2,2,06,23,16,229,,28,39,305,,0*78
$GNRMC,041518.00,A,3727.0503449,N,12639.2704615,E,0.043,,220622,,,F,V*19
$GNVTG,,T,,M,0.043,N,0.080,K,D*37
$GNGNS,041518.00,3727.0503449,N,12639.2704615,E,FFFF,28,0.62,27.726,17.838,,4095,V*2C
$GNGGA,041518.00,3727.0503449,N,12639.2704615,E,5,12,0.62,27.726,M,17.838,M,,4095*71
$GLGSV,2,1,06,65,20,167,30,71,33,048,41,72,48,115,36,77,27,240,08,3*70
$GLGSV,2,2,06,78,26,305,20,88,25,301,18,3*7F
$GLGSV,1,1,02,76,03,199,,86,25,072,,0*74
$GAGSV,2,1,06,02,42,217,21,05,17,149,33,09,28,097,40,11,15,071,27,2*71
$GAGSV,2,2,06,30,39,290,22,36,57,036,46,2*72
$GAGSV,2,1,06,02,42,217,35,05,17,149,40,09,28,097,46,11,15,071,23,7*77
$GAGSV,2,2,06,34,49,293,23,36,57,036,47,7*77
$GAGSV,2,1,05,04,12,045,,15,05,267,,18,41,306,,25,10,176,,0*79
$GAGSV,2,2,05,25,10,176,,0*47
$GBGSV,3,1,10,01,43,152,36,03,44,206,42,04,35,132,38,07,69,220,36,1*75
$GBGSV,3,2,10,10,68,258,37,11,44,080,38,13,43,247,14,14,53,134,45,1*74
$GBGSV,3,3,10,21,17,041,40,34,25,095,46,1*7D
$GBGSV,2,1,08,01,43,152,38,03,44,206,32,04,35,132,38,07,69,220,33,3*73
$GBGSV,2,2,08,10,68,258,38,11,44,080,42,14,53,134,41,21,17,041,21,3*7A
$GBGSV,2,1,06,02,27,236,,05,08,256,,08,52,251,,23,16,229,,0*78
$GBGSV,2,2,06,23,16,229,,28,39,305,,0*78
$GNRMC,041519.00,A,3727.0502846,N,12639.2704344,E,0.030,,220622,,,F,V*1F
$GNVTG,,T,,M,0.030,N,0.056,K,D*38
$GNGNS,041519.00,3727.0502846,N,12639.2704344,E,FFFF,27,0.60,27.733,17.838,,4095,V*27
$GNGGA,041519.00,3727.0502846,N,12639.2704344,E,5,12,0.60,27.733,M,17.838,M,,4095*75
$GNGSA,A,3,04,17,03,19,14,01,06,09,,,,,1.19,0.60,1.02,1*0F
$GNGSA,A,3,78,71,72,65,88,,,,,,,,1.19,0.60,1.02,2*01
$GNGSA,A,3,02,09,05,36,11,,,,,,,,1.19,0.60,1.02,3*04
$GNGSA,A,3,14,03,34,04,10,21,11,07,01,,,,1.19,0.60,1.02,4*09
$GPGSV,3,1,09,01,13,065,37,03,41,049,46,04,20,102,39,06,47,283,16,1*66
$GPGSV,3,2,09,09,17,135,36,14,35,190,41,17,77,042,45,19,62,330,37,1*66
$GPGSV,3,3,09,50,47,179,40,1*50
$GPGSV,2,1,06,01,13,065,34,03,41,049,40,04,20,102,36,09,17,135,25,6*61
$GPGSV,2,2,06,14,35,190,25,17,77,042,38,6*62
$GPGSV,2,1,05,02,09,266,,11,12,260,,12,06,325,,40,06,259,,0*60
$GPGSV,2,2,05,40,06,259,,0*5C
$GLGSV,2,1,06,65,20,167,33,71,33,048,51,72,48,115,40,78,26,304,28,1*7C
$GLGSV,2,2,06,87,52,353,39,88,25,301,29,1*77
$GLGSV,2,1,06,65,20,167,32,71,33,048,41,72,48,115,36,77,27,240,13,3*78
$GLGSV,2,2,06,78,26,304,21,88,25,301,18,3*7F
$GLGSV,1,1,02,76,03,199,,86,25,072,,0*74
$GAGSV,2,1,06,02,42,217,21,05,17,149,32,09,28,097,39,11,15,071,27,2*7E
$GAGSV,2,2,06,30,39,290,22,36,57,036,46,2*72
$GAGSV,2,1,06,02,42,217,35,05,17,149,39,09,28,097,47,11,15,071,25,7*7E
$GAGSV,2,2,06,34,49,293,24,36,57,036,47,7*70
$GAGSV,2,1,05,04,12,045,,15,05,267,,18,41,306,,25,10,176,,0*79
$GAGSV,2,2,05,25,10,176,,0*47
$GBGSV,3,1,10,01,43,152,36,03,44,206,42,04,35,132,38,07,69,220,36,1*75
$GBGSV,3,2,10,10,68,258,37,11,44,080,35,13,43,247,13,14,53,134,44,1*7F
$GBGSV,3,3,10,21,17,041,39,34,25,095,45,1*70
$GBGSV,3,1,09,01,43,152,37,03,44,206,31,04,35,132,38,07,69,220,34,3*78
$GBGSV,3,2,09,08,52,251,19,10,68,258,38,11,44,080,42,14,53,134,39,3*77
$GBGSV,3,3,09,34,25,095,13,3*43
$GBGSV,2,1,05,02,27,236,,05,08,256,,23,16,229,,28,39,305,,0*74
$GBGSV,2,2,05,28,39,305,,0*44
$GNGGA,041520.00,3727.0501192,N,12639.2712850,E,5,12,0.60,34.234,M,17.838,M,,4095*75
$GNGSA,A,3,04,17,03,19,14,01,06,09,,,,,1.19,0.60,1.02,1*0F
$GNGSA,A,3,78,71,72,65,88,,,,,,,,1.19,0.60,1.02,2*01
$GNGSA,A,3,02,09,05,36,11,,,,,,,,1.19,0.60,1.02,3*04
$GNGSA,A,3,14,03,34,04,10,21,11,07,01,,,,1.19,0.60,1.02,4*09
$GPGSV,3,1,09,01,13,065,37,03,41,049,47,04,20,102,39,06,47,283,18,1*69
$GPGSV,3,2,09,09,17,135,35,14,35,190,39,17,77,042,46,19,62,330,37,1*69
$GPGSV,3,3,09,50,47,179,40,1*50
$GPGSV,2,1,06,01,13,065,34,03,41,049,39,04,20,102,35,09,17,135,24,6*6D
$GPGSV,2,2,06,14,35,190,27,17,77,042,38,6*60
$GPGSV,2,1,05,02,09,266,,11,12,260,,12,06,325,,40,06,259,,0*60
$GPGSV,2,2,05,40,06,259,,0*5C
$GLGSV,2,1,06,65,20,167,34,71,33,048,51,72,48,115,38,78,26,304,26,1*7A
$GLGSV,2,2,06,87,52,353,39,88,25,301,29,1*77
$GLGSV,2,1,06,65,20,167,31,71,33,048,41,72,48,115,36,77,27,240,09,3*70
$GLGSV,2,2,06,78,26,304,21,88,25,301,18,3*7F
$GLGSV,1,1,03,76,03,199,,79,00,345,,86,25,072,,0*49
$GAGSV,2,1,06,02,42,217,22,05,17,149,25,09,28,097,39,11,15,071,27,2*7B
$GAGSV,2,2,06,30,39,290,22,36,57,036,47,2*73
$GAGSV,2,1,06,02,42,217,35,05,17,149,39,09,28,097,46,11,15,071,25,7*7F
$GAGSV,2,2,06,34,49,293,23,36,57,036,47,7*77
$GAGSV,2,1,05,04,12,045,,15,05,267,,18,41,306,,25,10,176,,0*79
$GAGSV,2,2,05,25,10,176,,0*47
$GBGSV,3,1,10,01,43,152,36,03,44,206,42,04,35,132,37,07,69,220,36,1*7A
$GBGSV,3,2,10,10,68,258,36,11,44,080,41,13,43,247,11,14,53,134,45,1*7E
$GBGSV,3,3,10,21,17,041,39,34,25,095,45,1*70
$GBGSV,3,1,09,01,43,152,32,03,44,206,32,04,35,132,39,07,69,220,33,3*78
$GBGSV,3,2,09,08,52,251,17,10,68,258,38,11,44,080,41,14,53,134,39,3*7A
$GBGSV,3,3,09,28,39,305,14,3*4E
$GBGSV,1,1,04,02,27,236,,05,08,256,,23,16,229,,37,19,280,,0*76
$GNRMC,041521.00,A,3727.0505403,N,12639.2705533,E,0.031,,220622,,,F,V*18
$GNVTG,,T,,M,0.031,N,0.057,K,D*38
$GNGNS,041521.00,3727.0505403,N,12639.2705533,E,FFFF,28,0.62,31.389,17.838,,4095,V*2E
$GNGGA,041521.00,3727.0505403,N,12639.2705533,E,5,12,0.62,31.389,M,17.838,M,,4095*73
$GNGSA,A,3,04,17,03,19,14,01,06,09,,,,,1.25,0.62,1.08,1*08
$GNGSA,A,3,78,71,72,87,65,88,,,,,,,1.25,0.62,1.08,2*09
$GNGSA,A,3,02,09,05,36,11,,,,,,,,1.25,0.62,1.08,3*03
$GNGSA,A,3,14,03,34,04,10,21,11,07,01,,,,1.25,0.62,1.08,4*0E
$GPGSV,3,1,09,01,13,065,37,03,41,049,47,04,20,102,38,06,47,283,18,1*68
$GPGSV,3,2,09,09,17,135,34,14,35,190,39,17,77,042,45,19,62,330,37,1*6B
$GPGSV,3,3,09,50,47,179,40,1*50
$GPGSV,2,1,06,01,13,065,34,03,41,049,38,04,20,102,33,09,17,135,22,6*6C
$GPGSV,2,2,06,14,35,190,28,17,77,042,38,6*6F
$GPGSV,2,1,05,02,09,266,,11,12,260,,12,06,325,,40,06,259,,0*60
$GPGSV,2,2,05,40,06,259,,0*5C
$GLGSV,2,1,06,65,20,167,34,71,33,048,50,72,48,115,40,78,26,304,24,1*76
$GLGSV,2,2,06,87,52,353,39,88,25,301,29,1*77
$GLGSV,2,1,06,65,20,167,31,71,33,048,40,72,48,115,36,77,27,240,12,3*7B
$GLGSV,2,2,06,78,26,304,21,88,25,301,19,3*7E
$GLGSV,1,1,03,76,03,199,,79,00,345,,86,25,072,,0*49
$GAGSV,2,1,06,02,42,217,23,05,17,149,27,09,28,097,39,11,15,071,27,2*78
$GAGSV,2,2,06,30,39,290,23,36,57,036,46,2*73
$GAGSV,2,1,06,02,42,217,35,05,17,149,39,09,28,097,46,11,15,071,25,7*7F
$GAGSV,2,2,06,34,49,293,22,36,57,036,47,7*76
$GAGSV,2,1,05,04,12,045,,15,05,267,,18,41,306,,25,10,176,,0*79
$GAGSV,2,2,05,25,10,176,,0*47
$GBGSV,3,1,10,01,43,152,38,03,44,206,42,04,35,132,37,07,69,220,35,1*77
$GBGSV,3,2,10,10,68,258,37,11,44,080,40,13,43,247,09,14,53,134,45,1*77
$GBGSV,3,3,10,21,17,041,37,34,25,095,45,1*7E
$GBGSV,2,1,08,01,43,152,33,03,44,206,32,04,35,132,38,07,69,220,33,3*78
$GBGSV,2,2,08,10,68,258,39,11,44,080,42,14,53,134,39,28,39,305,11,3*71
$GBGSV,2,1,05,02,27,236,,05,08,256,,08,52,251,,23,16,229,,0*7B
$GBGSV,2,2,05,23,16,229,,0*4D
$GNRMC,041522.00,A,3727.0504797,N,12639.2706249,E,0.037,,220622,,,F,V*1B
$GNVTG,,T,,M,0.037,N,0.068,K,D*32
$GNGNS,041522.00,3727.0504797,N,12639.2706249,E,FFFF,28,0.62,30.403,17.838,,4095,V*2F
$GAGSV,2,2,06,34,49,293,20,36,57,036,47,7*74
$GAGSV,2,1,05,04,12,045,,15,05,267,,18,41,306,,25,10,176,,0*79
$GAGSV,2,2,05,25,10,176,,0*47
$GBGSV,3,1,10,01,43,152,37,03,44,206,42,04,35,132,36,07,69,220,35,1*79
$GBGSV,3,2,10,10,68,258,36,11,44,080,40,13,43,247,13,14,53,134,45,1*7D
$GBGSV,3,3,10,21,17,041,37,34,25,095,44,1*7F
$GBGSV,2,1,08,01,43,152,36,03,44,206,32,04,35,132,38,07,69,220,33,3*7D
$GBGSV,2,2,08,10,68,258,39,11,44,080,41,14,53,134,38,28,39,305,09,3*7A
$GBGSV,2,1,05,02,27,236,,05,08,256,,08,52,251,,23,16,229,,0*7B
$GBGSV,2,2,05,23,16,229,,0*4D
$GNRMC,041523.00,A,3727.0504116,N,12639.2706352,E,0.027,,220622,,,F,V*1F
$GNVTG,,T,,M,0.027,N,0.050,K,D*38
$GNGNS,041523.00,3727.0504116,N,12639.2706352,E,FFFF,28,0.60,29.897,17.838,,4095,V*21
$GNGGA,041523.00,3727.0504116,N,12639.2706352,E,5,12,0.60,29.897,M,17.838,M,,4095*7C
$GNGSA,A,3,04,17,03,19,14,01,09,,,,,,1.19,0.60,1.02,1*09
$GNGSA,A,3,78,71,72,87,65,88,,,,,,,1.19,0.60,1.02,2*0E
$GNGSA,A,3,02,09,05,36,11,,,,,,,,1.19,0.60,1.02,3*04
$GNGSA,A,3,14,03,34,04,10,21,11,07,13,01,,,1.19,0.60,1.02,4*0B
$GPGSV,3,1,09,01,13,065,38,03,41,049,47,04,20,102,39,06,47,283,17,1*69
$GPGSV,3,2,09,09,17,135,33,14,35,190,40,17,77,042,46,19,62,330,38,1*6E
$GPGSV,3,3,09,50,47,179,40,1*50
$GPGSV,2,1,06,01,13,065,35,03,41,049,38,04,20,102,35,09,17,135,23,6*6A
$GPGSV,2,2,06,14,35,190,29,17,77,042,37,6*61
$GPGSV,2,1,05,02,09,266,,11,12,260,,12,06,325,,40,06,259,,0*60
$GPGSV,2,2,05,40,06,259,,0*5C
$GLGSV,2,1,06,65,20,167,32,71,33,048,50,72,48,115,40,78,26,304,20,1*74
$GLGSV,2,2,06,87,52,353,40,88,25,301,29,1*79
$GLGSV,2,1,06,65,20,167,29,71,33,048,40,72,48,115,36,77,27,240,10,3*70
$GLGSV,2,2,06,78,26,304,22,88,25,301,21,3*76
$GLGSV,1,1,03,76,03,199,,79,00,345,,86,25,072,,0*49
$GAGSV,2,1,06,02,42,217,23,05,17,149,27,09,28,097,40,11,15,071,27,2*76
$GAGSV,2,2,06,30,39,290,23,36,57,036,46,2*73
$GAGSV,2,1,06,02,42,217,34,05,17,149,37,09,28,097,46,11,15,071,24,7*71
$GAGSV,2,2,06,34,49,293,20,36,57,036,47,7*74
$GAGSV,2,1,05,04,12,045,,15,05,267,,18,41,306,,25,10,176,,0*79
$GAGSV,2,2,05,25,10,176,,0*47
$GBGSV,3,1,10,01,43,152,36,03,44,206,42,04,35,132,36,07,69,220,35,1*78
$GBGSV,3,2,10,10,68,258,36,11,44,080,41,13,43,247,16,14,53,134,45,1*79
$GBGSV,3,3,10,21,17,041,36,34,25,095,45,1*7F
$GBGSV,2,1,08,01,43,152,36,03,44,206,32,04,35,132,39,07,69,220,34,3*7B
$GBGSV,2,2,08,10,68,258,40,11,44,080,41,14,53,134,39,28,39,305,08,3*74
$GBGSV,2,1,05,02,27,236,,05,08,256,,08,52,251,,23,16,229,,0*7B
$GBGSV,2,2,05,23,16,229,,0*4D
$GNRMC,041524.00,A,3727.0503845,N,12639.2706559,E,0.066,,220622,,,F,V*18
$GNVTG,,T,,M,0.066,N,0.121,K,D*3A
$GNGNS,041524.00,3727.0503845,N,12639.2706559,E,FFFF,28,0.67,29.672,17.838,,4095,V*21
$GNGGA,041524.00,3727.0503845,N,12639.2706559,E,5,12,0.67,29.672,M,17.838,M,,4095*7C
$GNGSA,A,3,04,17,03,19,14,01,06,09,,,,,1.28,0.67,1.09,1*01
$GNGSA,A,3,78,71,72,87,65,88,,,,,,,1.28,0.67,1.09,2*00
$GAGSV,2,2,05,36,57,036,48,7*48
$GAGSV,2,1,06,04,12,045,,15,05,267,,18,41,306,,25,10,176,,0*7A
$GAGSV,2,2,06,25,10,176,,27,02,330,,0*73
$GBGSV,3,1,10,01,43,152,37,03,44,206,42,04,35,132,36,07,69,220,35,1*79
$GBGSV,3,2,10,10,68,258,36,11,44,080,44,13,43,247,16,14,53,134,46,1*7F
$GBGSV,3,3,10,21,17,041,33,34,25,095,44,1*7B
$GBGSV,2,1,08,01,43,152,34,03,44,206,33,04,35,132,38,07,69,220,34,3*79
$GBGSV,2,2,08,10,68,258,40,11,44,080,39,14,53,134,41,28,39,305,08,3*74
$GBGSV,2,1,05,02,27,236,,05,08,256,,08,52,251,,23,16,229,,0*7B
$GBGSV,2,2,05,23,16,229,,0*4D
$GNRMC,041525.00,A,3727.0503875,N,12639.2706202,E,0.033,,220622,,,F,V*13
$GNVTG,,T,,M,0.033,N,0.060,K,D*3E
$GNGNS,041525.00,3727.0503875,N,12639.2706202,E,FFFF,28,0.67,29.540,17.838,,4095,V*28
$GNGSA,A,3,04,17,03,19,14,01,06,09,,,,,1.28,0.67,1.09,1*01
$GNGSA,A,3,78,71,72,87,65,88,,,,,,,1.28,0.67,1.09,2*00
$GNGSA,A,3,02,09,05,36,11,,,,,,,,1.28,0.67,1.09,3*0A
$GNGSA,A,3,14,03,34,04,10,21,11,07,01,,,,1.28,0.67,1.09,4*07
$GPGSV,3,1,09,01,13,065,38,03,41,049,48,04,20,102,36,06,47,283,15,1*6B
$GPGSV,3,2,09,09,17,135,27,14,35,190,35,17,77,042,46,19,62,330,39,1*68
$GPGSV,3,3,09,50,47,179,40,1*50
$GPGSV,2,1,07,01,13,065,34,03,41,049,37,04,20,102,35,06,47,283,13,6*62
$GPGSV,2,2,07,09,17,135,22,14,35,190,35,17,77,042,39,6*5B
$GPGSV,2,1,05,02,09,266,,11,12,260,,12,06,325,,40,06,259,,0*60
$GPGSV,2,2,05,40,06,259,,0*5C
$GLGSV,2,1,06,65,20,167,36,71,33,048,50,72,48,115,39,78,26,304,20,1*7E
$GLGSV,2,2,06,87,52,353,40,88,25,301,29,1*79
$GLGSV,2,1,06,65,20,167,29,71,33,048,40,72,48,115,36,77,27,240,08,3*79
$GLGSV,2,2,06,78,26,304,22,88,25,301,23,3*74
$GLGSV,1,1,03,76,03,199,,79,00,345,,86,25,072,,0*49
$GAGSV,2,1,06,$GAGSV,2,2,06,30,39,289,24,36,57,036,46,2*7C
$GAGSV,2,1,06,02,42,217,34,05,17,149,39,09,28,097,44,11,15,071,23,7*7A
$GAGSV,2,2,06,34,49,293,20,36,57,036,48,7*7B
$GAGSV,2,1,05,04,12,045,,15,05,267,,18,41,306,,25,10,176,,0*79
$GAGSV,2,2,05,25,10,176,,0*47
$GBGSV,3,1,10,01,43,152,37,03,44,206,43,04,35,132,35,07,69,220,36,1*78
$GBGSV,3,2,10,10,68,258,36,11,44,080,44,13,43,247,17,14,53,134,46,1*7E
$GBGSV,3,3,10,21,17,041,33,34,25,095,44,1*7B
$GBGSV,2,1,08,01,43,152,36,03,44,206,34,04,35,132,40,07,69,220,35,3*72
$GBGSV,2,2,08,10,68,258,42,11,44,080,39,14,53,134,42,28,39,305,09,3*74
$GBGSV,2,1,05,02,27,236,,05,08,256,,08,52,251,,23,16,229,,0*7B
$GBGSV,2,2,05,23,16,229,,0*4D
$GNRMC,041527.00,A,3727.0504308,N,12639.2705448,E,0.036,,220622,,,F,V*19
$GNVTG,,T,,M,0.036,N,0.066,K,D*3D
$GNGNS,041527.00,3727.0504308,N,12639.2705448,E,FFFF,28,0.67,29.367,17.838,,4095,V*24
$GNGGA,041527.00,3727.0504308,N,12639.2705448,E,5,12,0.67,29.367,M,17.838,M,,4095*79
$GNGSA,A,3,04,17,03,19,14,01,09,,,,,,1.28,0.67,1.09,1*07
$GNGSA,A,3,78,71,72,87,65,88,,,,,,,1.28,0.67,1.09,2*00
$GNGSA,A,3,02,09,05,36,11,,,,,,,,1.28,0.67,1.09,3*0A
$GNGSA,A,3,14,03,34,04,10,21,11,07,13,01,,,1.28,0.67,1.09,4*05
$GPGSV,2,1,08,01,13,065,37,03,41,049,48,04,20,102,36,09,17,135,27,1*61
$GPGSV,2,2,08,14,35,190,36,17,77,042,46,19,62,330,38,50,47,179,40,1*6A
$GPGSV,2,1,07,01,13,065,33,03,41,049,37,04,20,102,35,06,47,283,09,6*6E
$GPGSV,2,2,07,09,17,135,21,14,35,190,34,17,77,042,39,6*59
$GPGSV,2,1,05,02,09,266,,11,12,260,,12,06,325,,40,06,259,,0*60
$GPGSV,2,2,05,40,06,259,,0*5C
$GLGSV,2,1,06,65,20,167,35,71,33,048,50,72,48,115,38,78,26,304,18,1*77
$GLGSV,2,2,06,87,52,353,40,88,25,301,27,1*77
$GLGSV,2,1,06,65,20,167,30,71,33,048,40,72,48,115,35,77,27,240,09,3*73
$GLGSV,2,2,06,78,26,304,23,88,25,301,24,3*72
$GLGSV,1,1,03,76,03,199,,79,00,345,,86,25,073,,0*48
$GAGSV,2,1,06,02,42,217,26,05,17,149,28,09,28,097,41,11,15,071,28,2*72
$GAGSV,2,2,06,30,39,289,24,36,57,036,47,2*7D
$GAGSV,2,1,05,02,42,217,34,05,17,149,38,09,28,097,44,11,15,071,22,7*79
$GAGSV,2,2,05,36,57,036,48,7*48
$GAGSV,2,1,06,04,12,045,,15,05,267,,18,41,306,,25,10,176,,0*7A
$GAGSV,2,2,06,25,10,176,,27,02,330,,0*73
$GBGSV,3,1,10,01,43,152,37,03,44,206,43,04,35,132,36,07,69,220,35,1*78
$GBGSV,3,2,10,10,68,258,36,11,44,080,43,13,43,247,18,14,53,134,45,1*75
$GBGSV,3,3,10,21,17,041,35,34,25,095,44,1*7D
$GBGSV,2,1,08,01,43,152,37,03,44,206,33,04,35,132,39,07,69,220,35,3*7A
$GBGSV,2,2,08,10,68,258,41,11,44,080,37,14,53,134,42,28,39,305,08,3*78
$GBGSV,2,1,05,02,27,236,,05,08,256,,08,52,251,,23,16,229,,0*7B
$GBGSV,2,2,05,23,16,229,,0*4D
$GNRMC,041528.00,A,3727.0504478,N,12639.2705140,E,0.049,,220622,,,F,V*13
$GNVTG,,T,,M,0.049,N,0.092,K,D*3E
$GNGNS,041528.00,3727.0504478,N,12639.2705140,E,FFFF,28,0.67,29.307,17.838,,4095,V*20
$GAGSV,2,2,05,36,57,036,48,7*48
$GAGSV,2,1,06,04,12,045,,15,05,267,,18,41,306,,25,10,176,,0*7A
$GAGSV,2,2,06,25,10,176,,27,02,330,,0*73
$GBGSV,3,1,10,01,43,152,37,03,44,206,42,04,35,132,36,07,69,220,35,1*79
$GNRMC,041529.00,A,3727.0504538,N,12639.2704873,E,0.044,,220622,,,F,V*12
$GNVTG,,T,,M,0.044,N,0.082,K,D*32
$GNGNS,041529.00,3727.0504538,N,12639.2704873,E,FFFF,28,0.64,29.220,17.838,,4095,V*2B
$GNGGA,041529.00,3727.0504538,N,12639.2704873,E,5,12,0.64,29.220,M,17.838,M,,4095*76
$GNGSA,A,3,04,17,03,19,14,01,06,09,,,,,1.26,0.64,1.08,1*0D
$GNGSA,A,3,78,71,72,87,65,88,,,,,,,1.26,0.64,1.08,2*0C
$GNGSA,A,3,02,09,05,36,11,,,,,,,,1.26,0.64,1.08,3*06
$GNGSA,A,3,14,03,34,04,10,21,11,07,01,,,,1.26,0.64,1.08,4*0B
$GPGSV,2,1,08,01,13,065,36,03,41,049,48,04,20,102,37,09,17,135,28,1*6E
$GPGSV,2,2,08,14,35,190,35,17,77,042,46,19,62,330,39,50,47,179,40,1*68
$GPGSV,2,1,07,01,13,065,33,03,41,049,38,04,20,102,36,06,47,283,10,6*6A
$GPGSV,2,2,07,09,17,135,19,14,35,190,25,17,77,042,39,6*52
$GPGSV,2,1,05,02,09,266,,11,12,260,,12,06,325,,40,06,259,,0*60
$GPGSV,2,2,05,40,06,259,,0*5C
$GLGSV,2,1,06,65,20,167,36,71,33,048,50,72,48,115,38,78,26,304,20,1*7F
$GLGSV,2,2,06,87,53,355,39,88,26,302,26,1*7F
$GLGSV,2,1,06,65,20,167,30,71,33,048,39,72,48,115,35,77,27,240,09,3*7D
$GLGSV,2,2,06,78,26,304,23,88,26,302,23,3*75
$GLGSV,1,1,03,76,03,199,,79,00,345,,86,25,073,,0*48
$GAGSV,2,1,06,02,42,217,28,05,17,149,28,09,28,097,41,11,15,071,28,2*7C
$GAGSV,2,2,06,30,39,289,23,36,57,036,46,2*7B
$GAGSV,2,1,05,02,42,217,33,05,17,149,38,09,28,097,43,11,15,071,24,7*7F
$GAGSV,2,2,05,36,57,036,48,7*48
$GAGSV,2,1,06,04,12,045,,15,05,267,,18,41,306,,25,10,176,,0*7A
$GAGSV,2,2,06,25,10,176,,27,02,330,,0*73
$GBGSV,3,1,11,01,43,152,35,03,44,206,42,04,35,132,36,07,69,220,35,1*7A
$GBGSV,3,2,11,10,68,258,35,11,44,080,44,13,43,247,20,14,53,134,45,1*7B
$GBGSV,3,3,11,21,17,041,32,34,25,095,44,37,19,280,25,1*4A
$GBGSV,2,1,08,01,43,152,36,03,44,206,33,04,35,132,38,07,69,220,34,3*7B
$GBGSV,2,2,08,10,68,258,42,11,44,080,35,14,53,134,41,28,39,305,07,3*75
$GBGSV,1,1,04,02,27,236,,05,08,256,,08,52,251,,23,16,229,,0*79
$GNRMC,041530.00,A,3727.0504872,N,12639.2703816,E,0.072,,220622,,,F,V*18
$GNVTG,,T,,M,0.072,N,0.134,K,D*3B
$GNGNS,041530.00,3727.0504872,N,12639.2703816,E,FFFF,28,0.87,28.977,17.838,,4095,V*21
$GNGGA,041530.00,3727.0504872,N,12639.2703816,E,5,12,0.87,28.977,M,17.838,M,,4095*7C
$GNGSA,A,3,04,17,03,19,14,01,09,,,,,,1.56,0.87,1.30,1*0A
$GNGSA,A,3,78,71,72,87,65,88,,,,,,,1.56,0.87,1.30,2*0D
$GNGSA,A,3,02,09,05,36,11,,,,,,,,1.56,0.87,1.30,3*07
$GNGSA,A,3,14,03,34,04,10,21,11,07,13,01,,,1.56,0.87,1.30,4*08
$GPGSV,2,1,08,01,13,065,35,03,41,049,48,04,20,102,36,09,17,135,28,1*6C
$GPGSV,2,2,08,14,35,190,34,17,77,042,46,19,62,330,39,50,47,179,40,1*69
$GPGSV,2,1,06,01,13,065,33,03,41,049,38,04,20,102,36,09,17,135,18,6*67
$GPGSV,2,2,06,14,35,190,28,17,77,042,39,6*6E
$GPGSV,2,1,06,02,09,266,,06,47,283,,11,12,260,,12,06,325,,0*63
$GPGSV,2,2,06,12,06,325,,40,06,259,,0*6E
$GLGSV,2,1,06,65,20,167,37,71,33,048,50,72,48,115,39,78,26,304,21,1*7E
$GLGSV,2,2,06,87,53,355,39,88,26,302,23,1*7A
$GLGSV,2,1,06,65,20,167,31,71,33,048,39,72,48,115,34,77,27,240,09,3*7D
$GLGSV,2,2,06,78,26,304,22,88,26,302,24,3*73
$GLGSV,1,1,03,76,03,199,,79,00,345,,86,25,073,,0*48
$GAGSV,2,1,06,02,42,217,28,05,17,149,28,09,28,097,41,11,15,071,28,2*7C
$GAGSV,2,2,06,30,39,289,22,36,57,036,46,2*7A
$GAGSV,2,1,05,02,42,217,33,05,17,149,37,09,28,097,43,11,15,071,25,7*71
$GAGSV,2,2,05,36,57,036,48,7*48
$GAGSV,2,1,06,04,12,045,,15,05,267,,18,41,306,,25,10,176,,0*7A
$GAGSV,2,2,06,25,10,176,,27,02,330,,0*73
$GBGSV,3,1,11,01,43,152,35,03,44,206,42,04,35,132,36,07,69,220,36,1*79
$GBGSV,3,2,11,10,68,258,36,11,44,080,44,13,43,247,20,14,53,134,45,1*78
$GBGSV,3,3,11,21,17,041,32,34,25,095,43,37,19,280,23,1*4B
$GNRMC,041531.00,A,3727.0505230,N,12639.2702280,E,0.071,,220622,,,F,V*13
$GNVTG,,T,,M,0.071,N,0.131,K,D*3D
$GNGNS,041531.00,3727.0505230,N,12639.2702280,E,FFFF,28,0.87,28.647,17.838,,4095,V*25
$GNGSA,A,3,04,17,03,19,14,01,09,,,,,,1.56,0.87,1.30,1*0A
$GNGSA,A,3,78,71,72,87,65,88,,,,,,,1.56,0.87,1.30,2*0D
$GNGSA,A,3,02,09,05,36,11,,,,,,,,1.56,0.87,1.30,3*07
$GNGSA,A,3,14,03,34,04,10,21,11,07,13,01,,,1.56,0.87,1.30,4*08
$GPGSV,2,1,08,01,13,065,35,03,41,049,48,04,20,102,36,09,17,135,29,1*6D
$GPGSV,2,2,08,14,35,190,34,17,77,042,46,19,62,330,39,50,47,179,39,1*67
$GPGSV,2,1,06,01,13,065,33,03,41,049,38,04,20,102,38,09,17,135,18,6*69
$GPGSV,2,2,06,14,35,190,33,17,77,042,40,6*6A
$GPGSV,2,1,06,02,09,266,,06,47,283,,11,12,260,,12,06,325,,0*63
$GPGSV,2,2,06,12,06,325,,40,06,259,,0*6E
$GLGSV,2,1,06,65,20,167,37,71,33,048,49,72,48,115,39,78,26,304,22,1*75
$GLGSV,2,2,06,87,53,355,39,88,26,302,23,1*7A
$GLGSV,2,1,06,65,20,167,31,71,33,048,39,72,48,115,35,77,27,240,09,3*7C
$GLGSV,2,2,06,78,26,304,21,88,26,302,24,3*70
$GLGSV,1,1,03,76,03,199,,79,00,345,,86,25,073,,0*48
$GAGSV,2,1,06,02,42,217,28,05,17,149,28,09,28,097$GAGSV,2,2,06,30,39,289,23,36,57,036,46,2*7B
$GAGSV,2,1,05,02,42,217,34,05,17,149,37,09,28,097,44,11,15,071,26,7*72
$GAGSV,2,2,05,36,57,036,48,7*48
$GAGSV,2,1,06,04,12,045,,15,05,267,,18,41,306,,25,10,176,,0*7A
$GAGSV,2,2,06,25,10,176,,27,02,330,,0*73
$GBGSV,3,1,11,01,43,152,36,03,44,206,43,04,35,132,35,07,69,220,35,1*7B
$GBGSV,3,2,11,10,68,258,36,11,44,080,44,13,43,247,20,14,53,134,45,1*78
$GBGSV,3,3,11,21,17,041,34,34,25,095,44,37,19,280,23,1*4A
$GBGSV,2,1,07,01,43,152,35,03,44,206,34,04,35,132,39,07,69,220,34,3*71
$GBGSV,2,2,07,10,68,258,42,11,44,080,36,14,53,134,42,3*4B
$GBGSV,2,1,05,02,27,236,,05,08,256,,08,52,251,,23,16,229,,0*7B
$GBGSV,2,2,05,23,16,229,,0*4D
$GNRMC,041532.00,A,3727.0505693,N,12639.2700618,E,0.102,,220622,,,F,V*1F
$GNVTG,,T,,M,0.102,N,0.189,K,D*3B
$GNGNS,041532.00,3727.0505693,N,12639.2700618,E,FFFF,28,0.87,28.270,17.838,,4095,V*2C
$GNGGA,041532.00,3727.0505693,N,12639.2700618,E,5,12,0.87,28.270,M,17.838,M,,4095*71
$GNGSA,A,3,04,17,03,19,14,01,09,,,,,,1.56,0.87,1.30,1*0A
$GNGSA,A,3,78,71,72,87,65,88,,,,,,,1.56,0.87,1.30,2*0D
$GNGSA,A,3,02,09,05,36,11,,,,,,,,1.56,0.87,1.30,3*07
$GNGSA,A,3,14,03,34,04,10,21,11,07,13,01,,,1.56,0.87,1.30,4*08
$GPGSV,2,1,08,01,13,065,35,03,41,049,48,04,20,102,35,09,17,135,30,1*66
$GPGSV,2,2,08,14,35,190,36,17,77,042,46,19,62,330,39,50,47,179,39,1*65
$GPGSV,2,1,06,01,13,065,34,03,41,049,38,04,20,102,37,09,17,135,20,6*6A
$GPGSV,2,2,06,14,35,190,32,17,77,042,40,6*6B
$GPGSV,2,1,06,02,09,267,,06,47,283,,11,12,260,,12,06,325,,0*62
$GPGSV,2,2,06,12,06,325,,40,06,259,,0*6E
$GNRMC,041533.00,A,3727.0506328,N,12639.2698683,E,0.076,,220622,,,F,V*18
$GNVTG,,T,,M,0.076,N,0.141,K,D*3D
$GNGNS,041533.00,3727.0506328,N,12639.2698683,E,FFFF,28,0.87,27.787,17.838,,4095,V*2B
$GNGGA,041533.00,3727.0506328,N,12639.2698683,E,5,12,0.87,27.787,M,17.838,M,,4095*76
$GNGSA,A,3,04,17,03,19,14,01,09,,,,,,1.56,0.87,1.30,1*0A
$GNGSA,A,3,78,71,72,87,65,88,,,,,,,1.56,0.87,1.30,2*0D
$GNGSA,A,3,02,09,05,36,11,,,,,,,,1.56,0.87,1.30,3*07
$GNGSA,A,3,14,03,34,04,10,21,11,07,13,01,,,1.56,0.87,1.30,4*08
$GPGSV,2,1,08,01,13,065,30,03,40,049,48,04,20,102,35,09,17,135,33,1*61
$GPGSV,2,2,08,14,35,190,35,17,77,042,47,19,62,330,39,50,47,179,39,1*67
$GPGSV,2,1,06,01,13,065,32,03,40,049,40,04,20,102,38,09,17,135,22,6*6F
$GPGSV,2,2,06,14,35,190,32,17,77,042,41,6*6A
$GPGSV,2,1,06,02,09,267,,06,47,283,,11,12,260,,12,06,325,,0*62
$GPGSV,2,2,06,12,06,325,,40,06,259,,0*6E
$GLGSV,2,1,06,65,20,167,39,71,33,048,49,72,48,115,39,78,26,304,26,1*7F
$GLGSV,2,2,06,87,53,355,38,88,26,302,22,1*7A
$GLGSV,2,1,06,65,20,167,31,71,33,048,39,72,48,115,35,77,27,240,09,3*7C
$GLGSV,2,2,06,78,26,304,17,88,26,302,25,3*74
$GLGSV,1,1,03,76,03,199,,79,00,345,,86,25,073,,0*48
$GAGSV,2,1,06,02,42,217,29,05,17,149,29,09,28,097,42,11,15,071,28,2*7F
$GAGSV,2,2,06,30,39,289,22,36,57,036,46,2*7A
$GAGSV,2,1,06,02,42,217,34,05,17,149,37,09,28,097,43,11,15,071,26,7*76
$GAGSV,2,2,06,34,49,293,20,36,57,036,48,7*7B
$GAGSV,2,1,05,04,12,045,,15,05,267,,18,41,306,,25,10,176,,0*79
$GAGSV,2,2,05,25,10,176,,0*47
$GBGSV,3,1,11,01,43,152,35,03,44,206,42,04,35,132,35,07,69,220,36,1*7A
$GBGSV,3,2,11,10,68,258,35,11,44,080,45,13,43,247,21,14,53,134,45,1*7B
$GBGSV,3,3,11,21,17,041,36,34,25,095,44,37,19,280,23,1*48
$GBGSV,2,1,07,01,43,152,35,03,44,206,34,04,35,132,39,07,69,220,34,3*71
$GBGSV,2,2,07,10,68,258,43,11,44,080,35,14,53,134,43,3*48
$GBGSV,2,1,05,02,27,236,,05,08,256,,08,52,251,,23,16,229,,0*7B
$GBGSV,2,2,05,23,16,229,,0*4D
$GNRMC,041534.00,A,3727.0506746,N,12639.2697355,E,0.090,,220622,,,F,V*1A
$GNVTG,,T,,M,0.090,N,0.167,K,D*31
$GNGNS,041534.00,3727.0506746,N,12639.2697355,E,FFFF,28,0.88,27.512,17.838,,4095,V*20
$GNGGA,041534.00,3727.0506746,N,12639.2697355,E,5,12,0.88,27.512,M,17.838,M,,4095*7D
$GNGSA,A,3,04,17,03,19,14,01,09,,,,,,1.66,0.88,1.41,1*00
$GNGSA,A,3,78,71,72,87,65,88,,,,,,,1.66,0.88,1.41,2*07
$GNGSA,A,3,02,09,05,36,11,,,,,,,,1.66,0.88,1.41,3*0D
$GNGSA,A,3,14,03,34,04,10,21,11,07,13,01,,,1.66,0.88,1.41,4*02
$GPGSV,2,1,08,01,13,065,31,03,40,049,48,04,20,101,36,09,17,135,33,1*60
$GPGSV,2,2,08,14,35,190,35,17,77,042,47,19,62,330,39,50,47,179,39,1*67
$GPGSV,2,1,06,01,13,065,33,03,40,049,37,04,20,101,38,09,17,135,21,6*6E
$GPGSV,2,2,06,14,35,190,32,17,77,042,41,6*6A
$GPGSV,2,1,06,02,09,267,,06,47,283,,11,12,260,,12,06,325,,0*62
$GPGSV,2,2,06,12,06,325,,40,06,259,,0*6E
$GLGSV,2,1,06,65,20,167,39,71,33,048,49,72,48,115,39,78,26,304,27,1*7E
$GLGSV,2,2,06,87,53,355,38,88,26,302,23,1*7B
$GLGSV,2,1,06,65,20,167,32,71,33,048,39,72,48,115,35,77,27,240,09,3*7F
$GLGSV,2,2,06,78,26,304,18,88,26,302,26,3*78
$GLGSV,1,1,03,76,03,199,,79,00,345,,86,25,073,,0*48
$GAGSV,2,1,06,02,42,217,29,05,17,149,29,09,28,097,41,11,15,071,28,2*7C
$GAGSV,2,2,06,30,39,289,22,36,57,036,46,2*7A
$GAGSV,2,1,06,02,42,217,33,05,17,149,37,09,28,097,43,11,15,071,27,7*70
$GAGSV,2,2,06,34,49,293,20,36,57,036,48,7*7B
$GAGSV,2,1,05,04,12,045,,15,05,267,,18,41,306,,25,10,176,,0*79
$GAGSV,2,2,05,25,10,176,,0*47
$GNRMC,041535.00,A,3727.0506756,N,12639.2696685,E,0.085,,220622,,,F,V*17
$GNVTG,,T,,M,0.085,N,0.158,K,D*39
$GNGNS,041535.00,3727.0506756,N,12639.2696685,E,FFFF,28,0.67,27.396,17.838,,4095,V*22
$GNGGA,041535.00,3727.0506756,N,12639.2696685,E,5,12,0.67,27.396,M,17.838,M,,4095*7F
$GNGSA,A,3,04,17,03,19,14,01,09,,,,,,1.28,0.67,1.09,1*07
$GNGSA,A,3,78,71,72,87,65,88,,,,,,,1.28,0.67,1.09,2*00
$GNGSA,A,3,02,09,05,36,11,,,,,,,,1.28,0.67,1.09,3*0A
$GNGSA,A,3,14,03,34,04,10,21,11,07,13,01,,,1.28,0.67,1.09,4*05
$GPGSV,2,1,08,01,13,065,34,03,40,049,47,04,20,101,36,09,17,135,34,1*6D
$GPGSV,2,2,08,14,35,190,35,17,77,042,47,19,62,330,39,50,47,179,40,1*69
$GPGSV,2,1,06,01,13,065,32,03,40,049,37,04,20,101,37,09,17,135,20,6*61
$GPGSV,2,2,06,14,35,190,32,17,77,042,41,6*6A
$GPGSV,2,1,06,02,09,267,,06,47,283,,11,12,260,,12,06,325,,0*62
$GPGSV,2,2,06,12,06,325,,40,06,259,,0*6E
$GLGSV,2,1,06,65,20,167,39,71,33,048,49,72,48,115,38,78,26,304,28,1*70
$GLGSV,2,2,06,87,53,355,37,88,26,302,22,1*75
$GLGSV,2,1,06,65,20,167,32,71,33,048,39,72,48,115,35,77,27,240,10,3*77
$GLGSV,2,2,06,78,26,304,19,88,26,302,26,3*79
$GLGSV,1,1,03,76,03,199,,79,00,345,,86,25,073,,0*48
$GAGSV,2,1,06,02,42,217,28,05,17,149,29,09,28,097,42,11,15,071,28,2*7E
$GAGSV,2,2,06,30,39,289,21,36,57,036,47,2*78
$GAGSV,2,1,06,02,42,217,33,05,17,149,38,09,28,097,44,11,15,071,27,7*78
$GAGSV,2,2,06,34,49,293,20,36,57,036,48,7*7B
$GAGSV,2,1,05,04,12,045,,15,05,267,,18,41,306,,25,10,176,,0*79
$GAGSV,2,2,05,25,10,176,,0*47
$GBGSV,3,1,11,01,43,152,36,03,44,206,42,04,35,132,36,07,69,220,36,1*7A
$GBGSV,3,2,11,10,68,258,36,11,44,080,44,13,43,247,20,14,53,134,45,1*78
$GBGSV,3,3,11,21,17,041,34,34,25,095,45,37,19,280,23,1*4B
$GBGSV,2,1,07,01,43,152,35,03,44,206,34,04,35,132,39,07,69,220,33,3*76
$GBGSV,2,2,07,10,68,258,43,11,44,080,33,14,53,134,44,3*49
$GBGSV,2,1,05,02,27,236,,05,08,256,,08,52,251,,23,16,229,,0*7B
$GBGSV,2,2,05,23,16,229,,0*4D
$GNRMC,041536.00,A,3727.0506934,N,12639.2695475,E,0.076,,220622,,,F,V*1C
$GNVTG,,T,,M,0.076,N,0.140,K,D*3C
$GNGNS,041536.00,3727.0506934,N,12639.2695475,E,FFFF,28,0.67,27.185,17.838,,4095,V*25
$GNGGA,041536.00,3727.0506934,N,12639.2695475,E,5,12,0.67,27.185,M,17.838,M,,4095*78
$GNGSA,A,3,04,17,03,19,14,01,09,,,,,,1.28,0.67,1.09,1*07
$GNGSA,A,3,78,71,72,87,65,88,,,,,,,1.28,0.67,1.09,2*00
$GNGSA,A,3,02,09,05,36,11,,,,,,,,1.28,0.67,1.09,3*0A
$GNGSA,A,3,14,03,34,04,10,21,11,07,13,01,,,1.28,0.67,1.09,4*05
$GPGSV,2,1,08,01,13,065,29,03,40,049,48,04,20,101,37,09,17,135,34,1*6F
$GPGSV,2,2,08,14,35,190,33,17,77,042,47,19,62,330,39,50,47,179,39,1*61
$GLGSV,2,1,06,65,20,167,39,71,33,048,49,72,48,115,39,78,26,304,28,1*71
$GLGSV,2,2,06,87,53,355,36,88,26,302,22,1*74
$GLGSV,2,1,06,65,20,167,32,71,33,048,38,72,48,115,35,77,27,240,11,3*77
$GLGSV,2,2,06,78,26,304,18,88,26,302,26,3*78
$GLGSV,1,1,03,76,03,199,,79,00,345,,86,25,073,,0*48
$GAGSV,2,1,06,02,42,217,29,05,17,149,30,09,28,097,40,11,15,071,28,2*75
$GAGSV,2,2,06,30,39,289,20,36,57,036,47,2*79
$GAGSV,2,1,06,02,42,217,33,05,17,149,34,09,28,097,44,11,15,071,27,7*74
$GAGSV,2,2,06,34,49,293,19,36,57,036,48,7*71
$GAGSV,2,1,05,04,12,045,,15,05,267,,18,41,306,,25,10,176,,0*79
$GAGSV,2,2,05,25,10,176,,0*47
$GBGSV,3,1,11,01,43,152,35,03,44,206,43,04,35,132,35,07,69,220,36,1*7B
$GBGSV,3,2,11,10,68,258,36,11,44,080,45,13,43,247,19,14,53,134,45,1*73
$GBGSV,3,3,11,21,17,041,34,34,25,095,44,37,19,280,22,1*4B
$GNRMC,041537.00,A,3727.0507295,N,12639.2693968,E,0.064,,220622,,,F,V*18
$GNVTG,,T,,M,0.064,N,0.118,K,D*32
$GNGNS,041537.00,3727.0507295,N,12639.2693968,E,FFFF,28,0.87,26.891,17.838,,4095,V*21
$GNGGA,041537.00,3727.0507295,N,12639.2693968,E,5,12,0.87,26.891,M,17.838,M,,4095*7C
$GNGSA,A,3,04,17,03,19,14,01,09,,,,,,1.56,0.87,1.30,1*0A
$GNGSA,A,3,78,71,72,87,65,88,,,,,,,1.56,0.87,1.30,2*0D
$GNGSA,A,3,02,09,05,36,11,,,,,,,,1.56,0.87,1.30,3*07
$GNGSA,A,3,14,03,34,04,10,21,11,07,13,01,,,1.56,0.87,1.30,4*08
$GPGSV,2,1,08,01,13,065,29,03,40,049,47,04,20,101,38,09,17,135,29,1*63
$GPGSV,2,2,08,14,35,190,34,17,77,042,46,19,62,330,39,50,47,179,39,1*67
$GPGSV,1,1,01,06,48,284,15,5*51
$GPGSV,2,1,06,01,13,065,30,03,40,049,39,04,20,101,38,09,17,135,21,6*63
$GPGSV,2,2,06,14,35,190,32,17,77,042,41,6*6A
$GPGSV,2,1,05,02,09,267,,11,12,260,,12,06,325,,40,06,259,,0*61
$GPGSV,2,2,05,40,06,259,,0*5C
$GLGSV,2,1,06,65,20,167,37,71,33,048,49,72,48,115,39,78,26,304,29,1*7E
$GLGSV,2,2,06,87,53,355,37,88,26,302,20,1*77
$GLGSV,2,1,06,65,20,167,32,71,33,048,38,72,48,115,35,77,27,240,11,3*77
$GLGSV,2,2,06,78,26,304,18,88,26,302,27,3*79
$GLGSV,1,1,03,76,03,199,,79,00,345,,86,25,073,,0*48
$GAGSV,2,1,06,02,42,217,29,05,17,149,30,09,28,097,40,11,15,071,27,2*7A
$GAGSV,2,2,06,30,39,289,19,36,57,036,47,2*73
$GAGSV,2,1,05,02,42,217,32,05,17,149,37,09,28,097,44,11,15,071,27,7*75
$GAGSV,2,2,05,36,57,036,48,7*48
$GAGSV,2,1,06,04,12,045,,15,05,267,,18,41,306,,25,10,176,,0*7A
$GAGSV,2,2,06,25,10,176,,27,02,330,,0*73
$GBGSV,3,1,11,01,43,152,35,03,44,206,42,04,35,132,35,07,69,220,36,1*7A
$GBGSV,3,2,11,10,68,258,36,11,44,080,44,13,43,247,19,14,53,134,45,1*72
$GBGSV,3,3,11,21,17,041,33,34,25,095,45,37,19,280,22,1*4D
$GBGSV,2,1,07,01,43,152,37,03,44,206,35,04,35,132,39,07,69,220,34,3*72
$GBGSV,2,2,07,10,68,258,43,11,44,080,36,14,53,134,43,3*4B
$GBGSV,2,1,05,02,27,236,,05,08,256,,08,52,251,,23,16,229,,0*7B
$GBGSV,2,2,05,23,16,229,,0*4D
$GNRMC,041538.00,A,3727.0507578,N,12639.2692886,E,0.062,,220622,,,F,V*15
$GNVTG,,T,,M,0.062,N,0.115,K,D*39
$GNGNS,041538.00,3727.0507578,N,12639.2692886,E,FFFF,28,0.60,26.635,17.838,,4095,V*23
$GNGGA,041538.00,3727.0507578,N,12639.2692886,E,5,12,0.60,26.635,M,17.838,M,,4095*7E
$GNGSA,A,3,04,17,03,19,14,01,09,,,,,,1.19,0.60,1.02,1*09
$GNGSA,A,3,78,71,72,87,65,88,,,,,,,1.19,0.60,1.02,2*0E
$GNGSA,A,3,02,09,05,36,11,,,,,,,,1.19,0.60,1.02,3*04
$GPGSV,2,2,08,14,35,190,35,17,77,042,46,19,62,330,39,50,47,179,40,1*68
$GPGSV,2,1,07,01,13,065,30,03,40,049,37,04,20,101,38,06,48,284,16,6*64
$GPGSV,2,2,07,09,17,135,20,14,35,190,33,17,77,042,40,6*51
$GPGSV,2,1,05,02,09,267,,11,12,260,,12,06,325,,40,06,259,,0*61
$GPGSV,2,2,05,40,06,259,,0*5C
$GLGSV,2,1,06,65,20,167,39,71,33,048,49,72,48,115,39,78,26,304,29,1*70
$GLGSV,2,2,06,87,53,355,37,88,26,302,21,1*76
$GLGSV,2,1,06,65,20,167,33,71,33,048,38,72,48,115,35,77,27,240,07,3*71
$GLGSV,2,2,06,78,26,304,17,88,26,302,27,3*76
$GLGSV,1,1,03,76,03,199,,79,00,345,,86,25,073,,0*48
$GAGSV,2,1,06,02,42,217,28,05,17,149,21,09,28,097,41,11,15,071,27,2*7A
$GAGSV,2,2,06,30,39,289,20,36,57,036,46,2*78
$GAGSV,2,1,06,02,42,217,32,05,17,149,38,09,28,097,42,11,15,071,26,7*7E
$GAGSV,2,2,06,34,49,293,22,36,57,036,48,7*79
$GAGSV,2,1,05,04,12,045,,15,05,267,,18,41,306,,25,10,176,,0*79
$GAGSV,2,2,05,25,10,176,,0*47
$GBGSV,3,1,11,01,43,152,37,03,44,206,42,04,35,132,35,07,69,220,36,1*78
$GBGSV,3,2,11,10,68,258,37,11,44,080,45,13,43,247,19,14,53,134,46,1*71
$GBGSV,3,3,11,21,17,041,37,34,25,095,46,37,19,280,22,1*4A
$GBGSV,2,1,07,01,43,152,34,03,44,206,35,04,35,132,38,07,69,220,33,3*77
$GBGSV,2,2,07,10,68,258,43,11,44,080,29,14,53,134,41,3*47
$GBGSV,2,1,05,02,27,236,,05,08,256,,08,52,251,,23,16,229,,0*7B
$GBGSV,2,2,05,23,16,229,,0*4D
$GNRMC,041539.00,A,3727.0507780,N,12639.2692016,E,0.058,,220622,,,F,V*19
$GNVTG,,T,,M,0.058,N,0.108,K,D*3C
$GNGNS,041539.00,3727.0507780,N,12639.2692016,E,FFFF,28,0.67,26.434,17.838,,4095,V*22
$GNGGA,041539.00,3727.0507780,N,12639.2692016,E,5,12,0.67,26.434,M,17.838,M,,4095*7F
$GNGSA,A,3,04,17,03,19,14,01,09,,,,,,1.28,0.67,1.09,1*07
$GNGSA,A,3,78,71,72,87,65,88,,,,,,,1.28,0.67,1.09,2*00
$GNGSA,A,3,02,09,05,36,11,,,,,,,,1.28,0.67,1.09,3*0A
$GNGSA,A,3,14,03,34,04,10,21,11,07,13,01,,,1.28,0.67,1.09,4*05
$GPGSV,2,1,08,01,13,065,27,03,40,049,47,04,20,101,38,09,17,134,30,1*64
$GPGSV,2,2,08,14,35,190,37,17,77,042,46,19,62,330,39,50,47,179,40,1*6A
$GPGSV,2,1,07,01,13,065,31,03,40,049,38,04,20,101,37,06,48,284,16,6*65
$GPGSV,2,2,07,09,17,134,24,14,35,190,30,17,77,042,40,6*57
$GPGSV,2,1,05,02,09,267,,11,12,260,,12,06,325,,40,06,259,,0*61
$GPGSV,2,2,05,40,06,259,,0*5C
$GLGSV,2,1,06,65,20,167,38,71,33,048,48,72,48,115,40,78,26,304,29,1*7E
$GLGSV,2,2,06,87,53,355,37,88,26,302,21,1*76
$GLGSV,2,1,06,65,20,167,33,71,33,048,38,72,48,115,36,77,27,240,08,3*7D
$GLGSV,2,2,06,78,26,304,17,88,26,302,26,3*77
$GLGSV,1,1,03,76,03,199,,79,00,345,,86,25,073,,0*48
$GAGSV,2,1,06,02,42,217,28,05,17,149,31,09,28,097,38,11,15,071,27,2*75
$GAGSV,2,2,06,30,39,289,20,36,57,036,46,2*78
$GAGSV,2,1,06,02,42,217,32,05,17,149,38,09,28,097,45,11,15,071,26,7*79
$GAGSV,2,2,06,34,49,293,22,36,57,036,47,7*76
$GAGSV,2,1,05,04,12,045,,15,05,267,,18,41,306,,25,10,176,,0*79
$GAGSV,2,2,05,25,10,176,,0*47
$GBGSV,3,1,11,01,43,152,35,03,44,206,41,04,35,132,36,07,69,220,35,1*79
$GBGSV,3,2,11,10,68,258,37,11,44,080,43,13,43,247,20,14,53,134,46,1*7D
$GBGSV,3,3,11,21,17,041,37,34,25,095,45,37,19,280,22,1*49
$GBGSV,2,1,07,01,43,152,34,03,44,206,34,04,35,132,38,07,69,220,30,3*75
$GBGSV,2,2,07,10,68,258,41,11,44,080,32,14,53,134,37,3*4E
$GBGSV,2,1,05,02,27,236,,05,08,256,,08,52,251,,23,16,229,,0*7B
$GBGSV,2,2,05,23,16,229,,0*4D
$GNRMC,041540.00,A,3727.0507727,N,12639.2691400,E,0.047,,220622,,,F,V*14
$GNVTG,,T,,M,0.047,N,0.087,K,D*34
$GNGNS,041540.00,3727.0507727,N,12639.2691400,E,FFFF,28,0.67,26.290,17.838,,4095,V*29
$GNGGA,041540.00,3727.0507727,N,12639.2691400,E,5,12,0.67,26.290,M,17.838,M,,4095*74
$GNGSA,A,3,04,17,03,19,14,01,09,,,,,,1.28,0.67,1.09,1*07
$GNGSA,A,3,78,71,72,87,65,88,,,,,,,1.28,0.67,1.09,2*00
$GNGSA,A,3,02,09,05,36,11,,,,,,,,1.28,0.67,1.09,3*0A
$GNGSA,A,3,14,03,34,04,10,21,11,07,13,01,,,1.28,0.67,1.09,4*05
$GPGSV,2,1,08,01,13,065,26,03,40,049,47,04,20,101,40,09,17,134,35,1*6F
$GPGSV,2,2,08,14,35,190,37,17,77,042,46,19,62,330,38,50,47,179,40,1*6B
$GPGSV,2,1,07,01,13,065,30,03,40,049,36,04,20,101,34,06,48,284,17,6*68
$GPGSV,2,2,07,09,17,134,21,14,35,190,29,17,77,042,37,6*5A
$GPGSV,2,1,05,02,09,267,,11,13,261,,12,06,325,,40,06,259,,0*61
$GPGSV,2,2,05,40,06,259,,0*5C
$GLGSV,2,1,06,65,20,167,39,71,33,048,49,72,48,115,39,78,26,304,29,1*70
$GLGSV,2,2,06,87,53,355,38,88,26,302,21,1*79
$GLGSV,2,1,06,65,20,167,31,71,33,048,35,72,48,115,34,77,27,240,06,3*7E
$GLGSV,2,2,06,78,26,304,15,88,26,302,25,3*76
$GLGSV,1,1,03,76,03,199,,79,00,345,,86,25,073,,0*48
$GAGSV,2,1,06,02,42,217,27,05,17,149,31,09,28,097,38,11,15,071,27,2*7A
$GAGSV,2,2,06,30,39,289,21,36,57,036,44,2*7B
$GAGSV,2,1,06,02,42,217,32,05,17,149,38,09,28,097,45,11,15,071,26,7*79
$GAGSV,2,2,06,34,49,293,21,36,57,036,47,7*75
$GAGSV,2,1,05,04,12,045,,15,05,267,,18,41,306,,25,10,176,,0*79
$GAGSV,2,2,05,25,10,176,,0*47
$GBGSV,3,1,11,01,43,152,35,03,44,206,41,04,35,132,36,07,69,220,34,1*78
$GBGSV,3,2,11,10,68,258,37,11,44,080,42,13,43,247,19,14,53,134,46,1*76
$GBGSV,3,3,11,21,17,041,38,34,25,095,46,37,19,280,22,1*45
$GBGSV,2,1,07,01,43,152,33,03,44,206,33,04,35,132,35,07,69,220,30,3*78
$GBGSV,2,2,07,10,68,258,40,11,44,080,28,14,53,134,34,3*47
$GBGSV,2,1,05,02,27,236,,05,08,256,,08,52,251,,23,16,229,,0*7B
$GBGSV,2,2,05,23,16,229,,0*4D
$GNRMC,041541.00,A,3727.0507635,N,12639.2690562,E,0.053,,220622,,,F,V*16
$GNVTG,,T,,M,0.053,N,0.097,K,D*30
$GNGNS,041541.00,3727.0507635,N,12639.2690562,E,FFFF,28,0.59,26.035,17.838,,4095,V*2E
$GNGGA,041541.00,3727.0507635,N,12639.2690562,E,5,12,0.59,26.035,M,17.838,M,,4095*73
$GNGSA,A,3,04,17,03,19,14,01,06,09,,,,,1.18,0.59,1.02,1*04
$GNGSA,A,3,78,71,72,87,65,88,,,,,,,1.18,0.59,1.02,2*05
$GNGSA,A,3,02,09,05,36,11,,,,,,,,1.18,0.59,1.02,3*0F
$GNGSA,A,3,14,03,34,04,10,21,11,07,01,,,,1.18,0.59,1.02,4*02
$GPGSV,2,1,08,01,13,065,24,03,40,049,46,04,20,101,40,09,17,134,32,1*6B
$GPGSV,2,2,08,14,35,190,39,17,77,042,45,19,62,330,38,50,47,179,40,1*66
$GPGSV,2,1,07,01,13,065,30,03,40,049,38,04,20,101,37,06,48,284,19,6*6B
$GPGSV,2,2,07,09,17,134,24,14,35,190,28,17,77,042,37,6*5E
$GPGSV,2,1,05,02,09,267,,11,13,261,,12,07,325,,40,06,259,,0*60
$GPGSV,2,2,05,40,06,259,,0*5C
$GLGSV,2,1,06,65,20,167,39,71,33,048,49,72,48,115,39,78,26,304,29,1*70
$GLGSV,2,2,06,87,53,355,38,88,26,302,23,1*7B
$GLGSV,2,1,06,65,20,167,31,71,33,048,37,72,48,115,35,77,27,240,07,3*7C
$GLGSV,2,2,06,78,26,304,13,88,26,302,24,3*71
$GLGSV,1,1,03,76,03,199,,79,00,345,,86,25,073,,0*48
$GAGSV,2,1,06,02,42,217,26,05,17,149,29,09,28,097,39,11,15,071,27,2*73
$GAGSV,2,2,06,30,39,289,22,36,57,036,46,2*7A
$GAGSV,2,1,05,02,42,217,32,05,17,149,38,09,28,097,45,11,15,071,26,7*7A
$GAGSV,2,2,05,36,57,036,46,7*46
$GAGSV,2,1,06,04,12,045,,15,05,267,,18,41,306,,25,10,176,,0*7A
$GAGSV,2,2,06,25,10,176,,27,02,330,,0*73
$GBGSV,3,1,11,01,43,152,35,03,44,206,41,04,35,132,37,07,69,220,34,1*79
$GBGSV,3,2,11,10,68,258,37,11,44,080,39,13,43,247,20,14,53,134,45,1*73
$GBGSV,3,3,11,21,17,041,38,34,25,095,46,37,19,280,22,1*45
$GNRMC,041542.00,A,3727.0507553,N,12639.2690178,E,0.046,,220622,,,F,V*1D
$GNVTG,,T,,M,0.046,N,0.086,K,D*34
$GNGNS,041542.00,3727.0507553,N,12639.2690178,E,FFFF,28,0.60,25.889,17.838,,4095,V*27
$GNGGA,041542.00,3727.0507553,N,12639.2690178,E,5,12,0.60,25.889,M,17.838,M,,4095*7A
$GNGSA,A,3,04,17,03,19,14,01,06,09,,,,,1.24,0.60,1.08,1*0B
$GNGSA,A,3,78,71,72,87,65,88,,,,,,,1.24,0.60,1.08,2*0A
$GNGSA,A,3,02,09,05,36,11,,,,,,,,1.24,0.60,1.08,3*00
$GNGSA,A,3,14,03,34,04,10,21,11,07,01,,,,1.24,0.60,1.08,4*0D
$GPGSV,2,1,08,01,13,065,22,03,40,049,46,04,20,101,41,09,17,134,32,1*6C
$GPGSV,2,2,08,14,35,190,40,17,77,042,46,19,62,330,38,50,47,179,40,1*6B
$GPGSV,2,1,07,01,13,065,31,03,40,049,39,04,20,101,37,06,48,284,19,6*6B
$GPGSV,2,2,07,09,17,134,26,14,35,190,29,17,77,042,39,6*53
$GPGSV,2,1,05,02,09,267,,11,13,261,,12,07,325,,40,06,259,,0*60
$GPGSV,2,2,05,40,06,259,,0*5C
$GLGSV,2,1,06,65,20,167,38,71,33,048,49,72,48,115,39,78,26,304,28,1*70
$GLGSV,2,2,06,87,53,355,38,88,26,302,26,1*7E
$GLGSV,2,1,06,65,20,167,32,71,33,048,40,72,48,115,37,77,27,240,10,3*7B
$GLGSV,2,2,06,78,26,304,10,88,26,302,25,3*73
$GLGSV,1,1,03,76,03,199,,79,00,345,,86,25,073,,0*48
$GAGSV,2,1,06,02,42,217,25,05,17,149,31,09,28,097,39,11,15,071,27,2*79
$GAGSV,2,2,06,30,39,289,22,36,57,036,46,2*7A
$GAGSV,2,1,06,02,42,217,33,05,17,149,38,09,28,097,46,11,15,071,26,7*7B
$GAGSV,2,2,06,34,49,293,23,36,57,036,46,7*76
$GAGSV,2,1,05,04,12,045,,15,05,267,,18,41,306,,25,10,176,,0*79
$GAGSV,2,2,05,25,10,176,,0*47
$GBGSV,3,1,11,01,43,152,35,03,44,206,41,04,35,132,38,07,69,220,34,1*76
$GNRMC,041543.00,A,3727.0507469,N,12639.2690080,E,0.025,,220622,,,F,V*17
$GNVTG,,T,,M,0.025,N,0.046,K,D*3D
$GNGNS,041543.00,3727.0507469,N,12639.2690080,E,FFFF,28,0.64,25.849,17.838,,4095,V*20
$GNGGA,041543.00,3727.0507469,N,12639.2690080,E,5,12,0.64,25.849,M,17.838,M,,4095*7D
$GNGSA,A,3,04,17,03,19,14,01,06,09,,,,,1.26,0.64,1.08,1*0D
$GNGSA,A,3,78,71,72,87,65,88,,,,,,,1.26,0.64,1.08,2*0C
$GNGSA,A,3,02,09,05,36,11,,,,,,,,1.26,0.64,1.08,3*06
$GNGSA,A,3,14,03,34,04,10,21,11,07,01,,,,1.26,0.64,1.08,4*0B
$GPGSV,2,1,08,01,13,065,25,03,40,049,46,04,20,101,41,09,17,134,31,1*68
$GPGSV,2,2,08,14,35,189,39,17,77,042,46,19,62,330,38,50,47,179,40,1*6D
$GPGSV,2,1,07,01,13,065,30,03,40,049,37,04,20,101,37,06,48,284,19,6*64
$GPGSV,2,2,07,09,17,134,26,14,35,189,30,17,77,042,38,6*52
$GPGSV,2,1,05,02,09,267,,11,13,261,,12,07,325,,40,06,259,,0*60
$GPGSV,2,2,05,40,06,259,,0*5C
$GLGSV,2,1,06,65,20,167,37,71,33,048,49,72,48,115,38,78,26,304,30,1*77
$GLGSV,2,2,06,87,53,355,37,88,26,302,26,1*71
$GLGSV,2,1,06,65,20,167,33,71,33,048,40,72,48,115,37,77,27,240,12,3*78
$GLGSV,2,2,06,78,26,304,17,88,26,302,25,3*74
$GLGSV,1,1,03,76,03,199,,79,00,345,,86,25,073,,0*48
$GAGSV,2,1,06,02,42,217,25,05,17,149,32,09,28,097,40,11,15,071,27,2*74
$GAGSV,2,2,06,30,39,289,23,36,57,036,46,2*7B
$GAGSV,2,1,06,02,42,217,33,05,17,149,38,09,28,097,45,11,15,071,26,7*78
$GAGSV,2,2,06,34,49,293,23,36,57,036,46,7*76
$GAGSV,2,1,05,04,12,045,,15,05,267,,18,41,306,,25,10,176,,0*79
$GAGSV,2,2,05,25,10,176,,0*47
$GBGSV,3,1,11,01,43,152,35,03,44,206,42,04,35,132,38,07,69,220,34,1*75
$GBGSV,3,2,11,10,68,258,37,11,44,080,41,13,43,247,20,14,53,134,46,1*7F
$GBGSV,3,3,11,21,17,041,38,34,25,095,46,37,19,280,22,1*45
$GBGSV,2,1,07,01,43,152,35,03,44,206,33,04,35,132,38,07,69,220,31,3*72
$GBGSV,2,2,07,10,68,258,41,11,44,080,33,14,53,134,38,3*40
$GBGSV,2,1,05,02,27,236,,05,08,256,,08,52,251,,23,16,229,,0*7B
$GBGSV,2,2,05,23,16,229,,0*4D
$GNRMC,041544.00,A,3727.0507279,N,12639.2690325,E,0.031,,220622,,,F,V*1E
$GNVTG,,T,,M,0.031,N,0.058,K,D*37
$GNGNS,041544.00,3727.0507279,N,12639.2690325,E,FFFF,28,0.59,25.918,17.838,,4095,V*27
$GNGGA,041544.00,3727.0507279,N,12639.2690325,E,5,12,0.59,25.918,M,17.838,M,,4095*7A
$GNGSA,A,3,04,17,03,19,14,01,06,09,,,,,1.18,0.59,1.02,1*04
$GNGSA,A,3,78,71,72,87,65,88,,,,,,,1.18,0.59,1.02,2*05
$GNGSA,A,3,02,09,05,36,11,,,,,,,,1.18,0.59,1.02,3*0F
$GNGSA,A,3,14,03,34,04,10,21,11,07,01,,,,1.18,0.59,1.02,4*02
$GPGSV,3,1,10,01,13,065,27,03,40,049,46,04,20,101,41,06,48,284,25,1*6A
$GPGSV,3,2,10,09,17,134,32,12,07,325,26,14,35,189,40,17,77,042,46,1*6D
$GPGSV,3,3,10,19,62,330,38,50,47,179,40,1*6F
$GPGSV,2,1,07,01,13,065,30,03,40,049,37,04,20,101,38,06,48,284,19,6*6B
$GPGSV,2,2,07,09,17,134,27,14,35,189,29,17,77,042,38,6*5B
$GPGSV,1,1,04,02,09,267,,11,13,261,,40,06,259,,41,27,238,,0*6B
$GLGSV,2,1,06,65,20,167,39,71,33,048,49,72,48,115,38,78,26,304,29,1*71
$GLGSV,2,2,06,87,53,355,36,88,26,302,26,1*70
$GLGSV,2,1,06,65,20,167,33,71,33,048,40,72,48,115,37,77,27,240,12,3*78
$GLGSV,2,2,06,78,26,304,12,88,26,302,25,3*71
$GLGSV,1,1,03,76,03,199,,79,00,345,,86,25,073,,0*48
$GAGSV,2,1,06,02,42,217,25,05,17,149,32,09,28,097,40,11,15,071,27,2*74
$GAGSV,2,2,06,30,39,289,22,36,57,036,46,2*7A
$GAGSV,2,1,06,02,42,217,33,05,17,149,37,09,28,097,47,11,15,071,26,7*75
$GAGSV,2,2,06,34,49,293,21,36,57,036,46,7*74
$GAGSV,2,1,05,04,12,045,,15,05,267,,18,41,306,,25,10,176,,0*79
$GAGSV,2,2,05,25,10,176,,0*47
$GBGSV,3,1,11,01,43,152,35,03,44,206,41,04,35,132,37,07,69,220,34,1*79
$GBGSV,3,2,11,10,68,258,37,11,44,080,41,13,43,247,20,14,53,134,46,1*7F
$GBGSV,3,3,11,21,17,041,38,34,25,095,46,37,19,280,23,1*44
$GBGSV,2,1,07,01,43,152,36,03,44,206,34,04,35,132,37,07,69,220,30,3*78
$GNRMC,041545.00,A,3727.0506250,N,12639.2692349,E,0.036,,220622,,,F,V*1A
$GNVTG,,T,,M,0.036,N,0.068,K,D*33
$GNGNS,041545.00,3727.0506250,N,12639.2692349,E,FFFF,28,0.59,26.426,17.838,,4095,V*27
$GNGGA,041545.00,3727.0506250,N,12639.2692349,E,5,12,0.59,26.426,M,17.838,M,,4095*7A
$GNGSA,A,3,04,17,03,19,14,01,06,09,,,,,1.18,0.59,1.02,1*04
$GNGSA,A,3,78,71,72,87,65,88,,,,,,,1.18,0.59,1.02,2*05
$GNGSA,A,3,02,09,05,36,11,,,,,,,,1.18,0.59,1.02,3*0F
$GNGSA,A,3,14,03,34,04,10,21,11,07,01,,,,1.18,0.59,1.02,4*02
$GPGSV,3,1,10,01,13,065,30,02,09,267,26,03,40,049,46,04,20,101,41,1*63
$GPGSV,3,2,10,06,48,284,23,09,17,134,32,14,35,189,41,17,77,042,46,1*6D
$GPGSV,3,3,10,19,62,330,38,50,47,179,40,1*6F
$GPGSV,2,1,07,01,13,065,29,03,40,049,36,04,20,101,38,06,48,284,19,6*62
$GPGSV,2,2,07,09,17,134,27,14,35,189,30,17,77,042,37,6*5C
$GPGSV,1,1,04,11,13,261,,12,07,325,,40,06,259,,41,27,238,,0*63
$GLGSV,2,1,06,65,20,167,39,71,33,048,49,72,48,115,38,78,26,304,29,1*71
$GLGSV,2,2,06,87,53,355,36,88,26,302,23,1*75
$GLGSV,2,1,06,65,20,167,33,71,33,048,40,72,48,115,37,77,27,240,10,3*7A
$GLGSV,2,2,06,78,26,304,15,88,26,302,24,3*77
$GLGSV,1,1,03,76,03,199,,79,00,345,,86,25,073,,0*48
$GAGSV,2,1,06,02,42,217,25,05,17,149,32,09,28,097,40,11,15,071,27,2*74
$GAGSV,2,2,06,30,39,289,22,36,57,036,46,2*7A
$GAGSV,2,1,06,02,42,217,33,05,17,149,37,09,28,097,46,11,15,071,26,7*74
$GAGSV,2,2,06,34,49,293,20,36,57,036,46,7*75
$GAGSV,2,1,05,04,12,045,,15,05,267,,18,41,306,,25,10,176,,0*79
$GAGSV,2,2,05,25,10,176,,0*47
$GBGSV,3,1,11,01,43,152,35,03,44,206,42,04,35,132,37,07,69,220,34,1*7A
$GBGSV,3,2,11,10,68,258,37,11,44,080,39,13,43,247,21,14,53,134,45,1*72
$GBGSV,3,3,11,21,17,041,39,34,25,095,45,37,19,280,24,1*41
$GBGSV,2,1,07,01,43,152,35,03,44,206,34,04,35,132,38,07,69,220,30,3*74
$GBGSV,2,2,07,10,68,258,42,11,44,080,33,14,53,134,38,3*43
$GBGSV,2,1,05,02,27,236,,05,08,256,,08,52,251,,23,16,229,,0*7B
$GBGSV,2,2,05,23,16,229,,0*4D
$GNRMC,041546.00,A,3727.0512503,N,12639.2684422,E,0.036,,220622,,,F,V*10
$GNVTG,,T,,M,0.036,N,0.067,K,D*3C
$GNGNS,041546.00,3727.0512503,N,12639.2684422,E,FFFF,28,0.59,24.526,17.838,,4095,V*2E
$GPGSV,3,1,09,01,13,065,30,03,40,049,45,04,20,101,43,06,48,284,22,1*62
$GPGSV,3,2,09,09,17,134,36,14,35,189,41,17,77,046,44,19,62,330,37,1*6A
$GPGSV,3,3,09,50,47,179,40,1*50
$GPGSV,2,1,07,01,13,065,30,03,40,049,35,04,20,101,38,06,48,284,20,6*63
$GPGSV,2,2,07,09,17,134,27,14,35,189,30,17,77,046,34,6*5B
$GPGSV,2,1,05,02,09,267,,11,13,261,,12,07,325,,40,06,259,,0*60
$GPGSV,2,2,05,40,06,259,,0*5C
$GLGSV,2,1,06,65,20,167,39,71,33,048,49,72,48,115,38,78,26,304,29,1*71
$GLGSV,2,2,06,87,53,355,36,88,26,302,21,1*77
$GLGSV,2,1,06,65,20,167,32,71,33,048,39,72,48,115,36,77,27,240,14,3*70
$GLGSV,2,2,06,78,26,304,15,88,26,302,24,3*77
$GLGSV,1,1,03,76,03,199,,79,00,345,,86,25,073,,0*48
$GAGSV,2,1,06,02,42,217,24,05,17,149,32,09,28,097,37,11,15,071,27,2*75
$GAGSV,2,2,06,30,39,289,22,36,57,036,45,2*79
$GAGSV,2,1,05,02,42,217,32,05,17,149,36,09,28,097,46,11,15,071,25,7*74
$GAGSV,2,2,05,36,57,036,45,7*45
$GAGSV,2,1,06,04,12,045,,15,05,267,,18,41,306,,25,10,176,,0*7A
$GAGSV,2,2,06,25,10,176,,27,02,330,,0*73
$GBGSV,3,1,11,01,43,152,35,03,44,206,42,04,35,132,38,07,69,220,35,1*74
$GBGSV,3,2,11,10,68,258,37,11,44,080,36,13,43,247,20,14,53,134,44,1*7D
$GBGSV,3,3,11,21,17,041,38,34,25,095,44,37,19,280,25,1*40
$GBGSV,2,1,07,01,43,152,36,03,44,206,32,04,35,132,38,07,69,220,29,3*79
$GBGSV,2,2,07,10,68,258,39,11,44,080,35,14,53,134,38,3*49
$GBGSV,2,1,05,02,27,236,,05,08,256,,08,52,251,,23,16,229,,0*7B
$GBGSV,2,2,05,23,16,229,,0*4D
$GNRMC,041547.00,A,3727.0508896,N,12639.2690119,E,0.041,,220622,,,F,V*13
$GNVTG,,T,,M,0.041,N,0.076,K,D*3C
$GNGNS,041547.00,3727.0508896,N,12639.2690119,E,FFFF,28,0.64,25.980,17.838,,4095,V*22
$GNGGA,041547.00,3727.0508896,N,12639.2690119,E,5,12,0.64,25.980,M,17.838,M,,4095*7F
$GNGSA,A,3,04,17,03,19,14,01,06,09,,,,,1.26,0.64,1.09,1*0C
$GNGSA,A,3,78,71,72,87,65,88,,,,,,,1.26,0.64,1.09,2*0D
$GNGSA,A,3,02,09,05,36,11,,,,,,,,1.26,0.64,1.09,3*07
$GNGSA,A,3,14,03,34,04,10,21,11,07,01,,,,1.26,0.64,1.09,4*0A
$GPGSV,3,1,09,01,13,065,31,03,40,049,45,04,20,101,43,06,48,284,20,1*61
$GPGSV,3,2,09,09,17,134,36,14,35,189,41,17,77,046,43,19,62,330,37,1*6D
$GPGSV,3,3,09,50,47,179,39,1*5E
$GPGSV,2,1,07,01,13,065,30,03,40,049,36,04,20,101,38,06,48,284,20,6*60
$GPGSV,2,2,07,09,17,134,32,14,35,189,31,17,77,046,35,6*5F
$GPGSV,2,1,05,02,09,267,,11,13,261,,12,07,325,,40,06,259,,0*60
$GPGSV,2,2,05,40,06,259,,0*5C
$GLGSV,2,1,06,65,20,167,40,71,33,048,49,72,48,115,36,78,26,304,27,1*7F
$GLGSV,2,2,06,87,53,355,36,88,26,302,20,1*76
$GLGSV,2,1,06,65,20,167,30,71,33,048,39,72,48,115,36,77,27,240,08,3*7F
