$GNRMC,045052.00,A,3726.9698484,N,12639.3714303,E,0.027,,220622,,,R,V*0A
$GNVTG,,T,,M,0.027,N,0.051,K,D*39
$GNGNS,045052.00,3726.9698484,N,12639.3714303,E,RRRR,28,0.64,21.761,17.842,2.0,4095,V*0B
$GNGGA,045052.00,3726.9698484,N,12639.3714303,E,4,12,0.64,21.761,M,17.842,M,2.0,4095*57
$GNGSA,A,3,06,19,11,17,14,12,02,,,,,,1.27,0.64,1.09,1*03
$GNGSA,A,3,78,88,72,87,65,,,,,,,,1.27,0.64,1.09,2*0A
$GNGSA,A,3,02,34,05,36,30,,,,,,,,1.27,0.64,1.09,3*0B
$GNGSA,A,3,07,02,04,01,10,28,08,11,14,13,03,,1.27,0.64,1.09,4*0D
$GPGSV,3,1,11,02,19,279,36,06,57,307,47,11,23,273,36,12,18,316,38,1*61
$GPGSV,3,2,11,14,20,185,28,17,71,105,47,19,78,354,45,20,13,225,38,1*69
$GPGSV,3,3,11,28,,,44,41,27,238,35,50,47,179,42,1*6E
$GPGSV,1,1,01,19,78,354,14,5*51
$GPGSV,2,1,06,06,57,307,43,09,29,122,22,11,23,273,35,12,18,316,31,6*6F
$GPGSV,2,2,06,14,20,185,28,17,71,105,39,6*6A
$GLGSV,2,1,06,65,39,163,41,71,22,033,31,72,56,083,47,78,24,284,41,1*7D
$GLGSV,2,2,06,87,55,028,46,88,37,319,48,1*7A
$GLGSV,2,1,05,65,39,163,34,71,22,033,23,72,56,083,41,78,24,284,35,3*78
$GLGSV,2,2,05,88,37,319,33,3*40
$GLGSV,1,1,03,77,12,228,,79,08,333,,86,15,090,,0*47
$GAGSV,2,1,06,02,29,209,30,05,29,143,26,18,62,308,45,30,38,273,43,2*70
$GAGSV,2,2,06,34,56,312,48,36,50,054,37,2*7D
$GAGSV,2,1,07,02,29,209,34,05,29,143,26,15,12,278,37,18,62,308,46,7*74
$GAGSV,2,2,07,30,38,273,39,34,56,312,46,36,50,054,44,7*47
$GAGSV,1,1,04,04,07,035,,09,33,082,,11,07,081,,27,10,323,,0*7E
$GBGSV,3,1,11,01,43,152,38,02,28,236,29,03,44,206,39,04,35,132,35,1*72
$GBGSV,3,2,11,07,62,216,39,08,53,266,41,10,63,245,41,11,35,096,26,1*7D
$GBGSV,3,3,11,13,44,259,45,14,62,109,40,28,51,316,42,1*4A
$GBGSV,3,1,09,01,43,152,40,03,44,206,36,04,35,132,36,07,62,216,41,3*7D
$GBGSV,3,2,09,08,53,266,44,10,63,245,40,11,35,096,30,13,44,259,41,3*70
$GBGSV,3,3,09,14,62,109,45,3*45
$GBGSV,1,1,04,05,08,256,,21,06,036,,23,06,220,,27,04,297,,0*75
$GNRMC,045053.00,A,3726.9698522,N,12639.3714326,E,0.014,,220622,,,R,V*01
$GNVTG,,T,,M,0.014,N,0.026,K,D*39
$GNGNS,045053.00,3726.9698522,N,12639.3714326,E,RRRR,28,0.64,21.755,17.842,1.0,4095,V*04
$GNGGA,045053.00,3726.9698522,N,12639.3714326,E,4,12,0.64,21.755,M,17.842,M,1.0,4095*58
$GNGSA,A,3,06,19,11,17,14,12,02,,,,,,1.27,0.64,1.09,1*03
$GNGSA,A,3,78,88,72,87,65,,,,,,,,1.27,0.64,1.09,2*0A
$GNGSA,A,3,02,34,05,36,30,,,,,,,,1.27,0.64,1.09,3*0B
$GNGSA,A,3,07,02,04,01,10,28,08,11,14,13,03,,1.27,0.64,1.09,4*0D
$GPGSV,3,1,11,02,19,279,38,06,57,307,48,11,23,273,36,12,18,316,35,1*6D
$GPGSV,3,2,11,14,19,185,27,17,71,105,47,19,78,354,43,20,13,225,28,1*6B
$GPGSV,3,3,11,28,,,40,41,27,238,36,50,47,179,40,1*6B
$GPGSV,2,1,07,06,57,307,42,09,29,122,22,11,23,273,31,12,18,316,31,6*6B
$GPGSV,2,2,07,14,19,185,25,17,71,105,38,19,78,354,11,6*58
$GLGSV,2,1,06,65,39,163,42,71,22,033,30,72,56,083,46,78,24,284,41,1*7E
$GLGSV,2,2,06,87,55,028,43,88,37,319,48,1*7F
$GLGSV,2,1,05,65,39,163,31,71,22,033,23,72,56,083,37,78,24,284,32,3*7B
$GLGSV,2,2,05,88,37,319,38,3*4B
$GLGSV,1,1,03,77,12,228,,79,08,333,,86,15,090,,0*47
$GAGSV,2,1,06,02,29,209,36,05,29,143,27,18,62,308,43,30,38,273,42,2*70
$GAGSV,2,2,06,34,56,312,45,36,50,054,38,2*7F
$GAGSV,2,1,07,02,29,209,37,05,29,143,32,15,12,278,36,18,62,308,46,7*73
$GAGSV,2,2,07,30,38,273,40,34,56,312,47,36,50,054,44,7*48
$GAGSV,1,1,04,04,07,035,,09,33,082,,11,07,081,,27,10,323,,0*7E
$GBGSV,3,1,11,01,43,152,38,02,28,236,32,03,44,206,42,04,35,132,35,1*74
$GBGSV,3,2,11,07,62,216,42,08,53,266,40,10,63,245,41,11,35,096,28,1*7E
$GBGSV,3,3,11,13,44,259,44,14,62,109,42,28,51,316,44,1*4F
$GBGSV,3,1,09,01,43,152,40,03,44,206,36,04,35,132,38,07,62,216,35,3*70
$GBGSV,3,2,09,08,53,266,42,10,63,245,40,11,35,096,30,13,44,259,39,3*79
$GBGSV,3,3,09,14,62,109,44,3*44
$GBGSV,1,1,04,05,08,256,,21,06,036,,23,06,220,,27,04,297,,0*75
$GNRMC,045054.00,A,3726.9698559,N,12639.3714248,E,0.024,,220622,,,R,V*00
$GNVTG,,T,,M,0.024,N,0.044,K,D*3E
$GNGNS,045054.00,3726.9698559,N,12639.3714248,E,RRRR,28,0.64,21.794,17.842,2.0,4095,V*08
$GNGGA,045054.00,3726.9698559,N,12639.3714248,E,4,12,0.64,21.794,M,17.842,M,2.0,4095*54
$GNGSA,A,3,06,19,11,17,14,12,02,,,,,,1.27,0.64,1.09,1*03
$GNGSA,A,3,78,88,72,87,65,,,,,,,,1.27,0.64,1.09,2*0A
$GNGSA,A,3,02,34,05,36,30,,,,,,,,1.27,0.64,1.09,3*0B
$GNGSA,A,3,07,02,04,01,10,28,08,11,14,13,03,,1.27,0.64,1.09,4*0D
$GPGSV,3,1,10,02,19,279,36,06,57,307,48,11,23,273,37,12,18,316,36,1*60
$GPGSV,3,2,10,14,19,185,26,17,71,105,48,19,78,354,44,28,,,42,1*50
$GPGSV,3,3,10,41,27,238,36,50,47,179,42,1*66
$GPGSV,2,1,07,06,57,307,43,09,29,122,21,11,23,273,25,12,18,316,31,6*6C
$GPGSV,2,2,07,14,19,185,23,17,71,105,37,19,78,354,08,6*59
$GPGSV,1,1,01,20,13,225,,0*51
$GLGSV,2,1,06,65,39,163,43,71,22,033,30,72,56,083,46,78,24,284,39,1*70
$GLGSV,2,2,06,87,55,028,45,88,37,319,47,1*76
$GLGSV,2,1,05,65,39,163,30,71,22,033,22,72,56,083,39,78,24,284,24,3*72
$GLGSV,2,2,05,88,37,319,36,3*45
$GNRMC,045055.00,A,3726.9698538,N,12639.3714242,E,0.016,,220622,,,R,V*0D
$GNVTG,,T,,M,0.016,N,0.030,K,D*3C
$GNGNS,045055.00,3726.9698538,N,12639.3714242,E,RRRR,28,0.64,21.795,17.842,2.0,4095,V*05
$GNGGA,045055.00,3726.9698538,N,12639.3714242,E,4,12,0.64,21.795,M,17.842,M,2.0,4095*59
$GNGSA,A,3,06,19,11,17,14,12,02,,,,,,1.27,0.64,1.09,1*03
$GNGSA,A,3,78,88,72,87,65,,,,,,,,1.27,0.64,1.09,2*0A
$GNGSA,A,3,02,34,05,36,30,,,,,,,,1.27,0.64,1.09,3*0B
$GNGSA,A,3,07,02,04,01,10,28,08,11,14,13,03,,1.27,0.64,1.09,4*0D
$GPGSV,3,1,10,02,19,279,35,06,57,307,47,11,23,273,37,12,18,316,37,1*6D
$GPGSV,3,2,10,14,19,185,26,17,71,105,47,19,78,354,43,28,,,41,1*5B
$GPGSV,3,3,10,41,27,238,34,50,47,179,42,1*64
$GPGSV,2,1,07,06,57,307,43,09,29,122,21,11,23,273,35,12,18,316,30,6*6C
$GPGSV,2,2,07,14,19,185,21,17,71,105,37,19,78,354,07,6*54
$GPGSV,1,1,01,20,13,225,,0*51
$GLGSV,2,1,06,65,39,163,42,71,22,033,31,72,56,083,48,78,24,284,39,1*7E
$GLGSV,2,2,06,87,55,028,46,88,37,319,48,1*7A
$GLGSV,2,1,05,65,39,163,31,71,22,033,20,72,56,083,38,78,24,284,33,3*76
$GLGSV,2,2,05,88,37,319,34,3*47
$GLGSV,1,1,03,77,12,228,,79,08,333,,86,15,090,,0*47
$GAGSV,2,1,06,02,29,209,36,05,29,143,31,18,62,308,48,30,38,273,43,2*7D
$GAGSV,2,2,06,34,56,312,48,36,50,054,40,2*7D
$GAGSV,2,1,07,02,29,209,31,05,29,143,30,15,12,278,36,18,62,308,48,7*79
$GAGSV,2,2,07,30,38,273,41,34,56,312,48,36,50,054,41,7*43
$GAGSV,1,1,04,04,07,035,,09,33,082,,11,07,081,,27,10,323,,0*7E
$GBGSV,3,1,11,01,43,152,41,02,28,236,31,03,44,206,40,04,35,132,36,1*78
$GBGSV,3,2,11,07,62,216,42,08,53,266,41,10,63,245,43,11,35,096,31,1*75
$GBGSV,3,3,11,13,44,259,45,14,62,109,43,28,51,316,44,1*4F
$GBGSV,3,1,09,01,43,152,42,03,44,206,39,04,35,132,38,07,62,216,35,3*7D
$GBGSV,3,2,09,08,53,266,43,10,63,245,41,11,35,096,32,13,44,259,38,3*7A
$GBGSV,3,3,09,14,62,109,46,3*46
$GBGSV,1,1,04,05,08,256,,21,06,036,,23,06,220,,27,04,297,,0*75
$GNRMC,045056.00,A,3726.9698555,N,12639.3714227,E,0.004,,220622,,,R,V*05
$GNVTG,,T,,M,0.004,N,0.008,K,D*34
$GNGNS,045056.00,3726.9698555,N,12639.3714227,E,RRRR,28,0.64,21.820,17.842,2.0,4095,V*0F
$GNGGA,045056.00,3726.9698555,N,12639.3714227,E,4,12,0.64,21.820,M,17.842,M,2.0,4095*53
$GNGSA,A,3,06,19,11,17,14,12,02,,,,,,1.27,0.64,1.09,1*03
$GNGSA,A,3,78,88,72,87,65,,,,,,,,1.27,0.64,1.09,2*0A
$GNGSA,A,3,02,34,05,36,30,,,,,,,,1.27,0.64,1.09,3*0B
$GNGSA,A,3,07,02,04,01,10,28,08,11,14,13,03,,1.27,0.64,1.09,4*0D
$GPGSV,3,1,10,02,19,279,36,06,57,307,47,11,23,273,39,12,18,316,37,1*60
$GPGSV,3,2,10,14,19,185,27,17,70,107,46,19,78,354,43,28,,,41,1*58
$GPGSV,3,3,10,41,27,238,36,50,47,179,42,1*66
$GPGSV,2,1,06,06,57,307,44,09,29,122,20,11,23,273,30,12,18,316,28,6*67
$GPGSV,2,2,06,14,19,185,20,17,70,107,37,6*65
$GPGSV,1,1,01,20,13,225,,0*51
$GLGSV,2,1,06,65,39,163,41,71,22,033,30,72,56,083,45,78,24,284,39,1*71
$GLGSV,2,2,06,87,55,028,44,88,37,319,47,1*77
$GLGSV,2,1,05,65,39,163,30,71,22,033,21,72,56,083,38,78,24,284,33,3*76
$GLGSV,2,2,05,88,37,319,36,3*45
$GLGSV,1,1,03,77,12,228,,79,08,333,,86,15,090,,0*47
$GAGSV,2,1,06,02,29,209,33,05,29,143,30,18,62,308,49,30,38,273,43,2*78
$GAGSV,2,2,06,34,56,312,48,36,50,054,41,2*7C
$GAGSV,2,1,07,02,29,209,34,05,29,143,30,15,12,278,35,18,62,308,46,7*71
$GAGSV,2,2,07,30,38,273,39,34,56,312,47,36,50,054,42,7*40
$GAGSV,1,1,04,04,07,035,,09,33,082,,11,07,081,,27,10,323,,0*7E
$GBGSV,3,1,11,01,43,152,41,02,28,236,30,03,44,206,40,04,35,132,38,1*77
$GBGSV,3,2,11,07,62,216,42,08,53,266,41,10,63,245,42,11,35,096,31,1*74
$GBGSV,3,3,11,13,44,259,46,14,62,109,43,28,51,316,44,1*4C
$GBGSV,3,1,09,01,43,152,41,03,44,206,39,04,35,132,39,07,62,216,36,3*7C
$GBGSV,3,2,09,08,53,266,42,10,63,245,40,11,35,096,32,13,44,259,40,3*75
$GBGSV,3,3,09,14,62,109,46,3*46
$GBGSV,1,1,04,05,08,256,,21,06,036,,23,06,220,,27,04,297,,0*75
$GNRMC,045057.00,A,3726.9698567,N,12639.3714268,E,0.006,,220622,,,R,V*0C
$GNVTG,,T,,M,0.006,N,0.010,K,D*3F
$GNGNS,045057.00,3726.9698567,N,12639.3714268,E,RRRR,28,0.64,21.795,17.842,2.0,4095,V*05
$GNGGA,045057.00,3726.9698567,N,12639.3714268,E,4,12,0.64,21.795,M,17.842,M,2.0,4095*59
$GNGSA,A,3,06,19,11,17,14,12,02,,,,,,1.27,0.64,1.09,1*03
$GNGSA,A,3,78,88,72,87,65,,,,,,,,1.27,0.64,1.09,2*0A
$GNGSA,A,3,02,34,05,36,30,,,,,,,,1.27,0.64,1.09,3*0B
$GNGSA,A,3,07,02,04,01,10,28,08,11,14,13,03,,1.27,0.64,1.09,4*0D
$GPGSV,3,1,10,02,19,279,36,06,57,307,47,11,23,273,40,12,18,316,39,1*60
$GPGSV,3,2,10,14,19,185,26,17,70,107,45,19,78,354,44,28,,,43,1*5F
$GPGSV,3,3,10,41,27,238,33,50,47,179,43,1*62
$GPGSV,2,1,06,06,57,307,45,09,29,122,21,11,23,273,31,12,18,316,29,6*67
$GPGSV,2,2,06,14,19,185,20,17,70,107,38,6*6A
$GPGSV,1,1,01,20,13,225,,0*51
$GLGSV,2,1,06,65,39,163,42,71,22,033,30,72,56,083,46,78,24,284,37,1*7F
$GLGSV,2,2,06,87,55,028,45,88,37,319,46,1*77
$GLGSV,2,1,05,65,39,163,33,71,22,033,21,72,56,083,39,78,24,284,33,3*74
$GLGSV,2,2,05,88,37,319,37,3*44
$GLGSV,1,1,03,77,12,228,,79,08,333,,86,15,090,,0*47
$GAGSV,2,1,06,02,29,209,35,05,29,143,29,18,62,308,49,30,38,273,42,2*77
$GAGSV,2,2,06,34,56,312,48,36,50,054,42,2*7F
$GAGSV,2,1,07,02,29,209,35,05,29,143,31,15,12,278,37,18,62,308,47,7*72
$GAGSV,2,2,07,30,38,273,41,34,56,312,47,36,50,054,42,7*4F
$GAGSV,1,1,04,04,07,035,,09,33,082,,11,07,081,,27,10,323,,0*7E
$GBGSV,3,1,11,01,43,152,43,02,28,236,27,03,44,206,42,04,35,132,38,1*71
$GBGSV,3,2,11,07,62,216,42,08,53,266,40,10,63,245,43,11,35,096,30,1*75
$GBGSV,3,3,11,13,44,259,45,14,62,109,43,28,51,316,43,1*48
$GBGSV,3,1,09,01,43,152,42,03,44,206,37,04,35,132,39,07,62,216,35,3*72
$GBGSV,3,2,09,08,53,266,41,10,63,245,41,11,35,096,30,13,44,259,39,3*7B
$GBGSV,3,3,09,14,62,109,45,3*45
$GBGSV,1,1,04,05,08,256,,21,06,036,,23,06,220,,27,04,297,,0*75
$GNRMC,045058.00,A,3726.9698517,N,12639.3714231,E,0.003,,220622,,,R,V*0D
$GNVTG,,T,,M,0.003,N,0.005,K,D*3E
$GNGNS,045058.00,3726.9698517,N,12639.3714231,E,RRRR,28,0.64,21.802,17.842,2.0,4095,V*00
$GNGGA,045058.00,3726.9698517,N,12639.3714231,E,4,12,0.64,21.802,M,17.842,M,2.0,4095*5C
$GNGSA,A,3,06,19,11,17,14,12,02,,,,,,1.27,0.64,1.09,1*03
$GNGSA,A,3,78,88,72,87,65,,,,,,,,1.27,0.64,1.09,2*0A
$GNGSA,A,3,02,34,05,36,30,,,,,,,,1.27,0.64,1.09,3*0B
$GNGSA,A,3,07,02,04,01,10,28,08,11,14,13,03,,1.27,0.64,1.09,4*0D
$GPGSV,3,1,10,02,19,279,34,06,57,307,48,11,23,273,37,12,18,316,36,1*62
$GPGSV,3,2,10,14,19,185,25,17,70,107,46,19,78,357,42,28,,,44,1*5D
$GPGSV,3,3,10,41,27,238,37,50,47,179,42,1*67
$GPGSV,2,1,06,06,57,307,43,09,29,122,21,11,23,273,30,12,18,316,29,6*60
$GPGSV,2,2,06,14,19,185,20,17,70,107,38,6*6A
$GPGSV,1,1,01,20,13,225,,0*51
$GLGSV,2,1,06,65,39,163,42,71,22,033,31,72,56,083,46,78,24,284,39,1*70
$GLGSV,2,2,06,87,55,028,46,88,37,319,48,1*7A
$GLGSV,2,1,05,65,39,163,33,71,22,033,21,72,56,083,39,78,24,284,34,3*73
$GLGSV,2,2,05,88,37,319,37,3*44
$GLGSV,1,1,03,77,12,228,,79,08,333,,86,15,090,,0*47
$GAGSV,2,1,06,02,29,209,35,05,29,143,30,18,62,308,47,30,38,273,41,2*72
$GAGSV,2,2,06,34,56,312,48,36,50,054,41,2*7C
$GAGSV,2,1,07,02,29,209,41,05,29,143,30,15,12,278,38,18,62,308,46,7*7E
$GAGSV,2,2,07,30,38,273,39,34,56,312,47,36,50,054,43,7*41
$GAGSV,1,1,04,04,07,035,,09,33,082,,11,07,081,,27,10,323,,0*7E
$GBGSV,3,1,11,01,43,152,43,02,28,236,32,03,44,206,42,04,35,132,37,1*7A
$GBGSV,3,2,11,07,62,216,42,08,53,266,40,10,63,245,43,11,35,096,31,1*74
$GBGSV,3,3,11,13,44,259,45,14,62,109,43,28,51,316,44,1*4F
$GBGSV,3,1,09,01,43,152,43,03,44,206,41,04,35,132,39,07,62,216,36,3*71
$GBGSV,3,2,09,08,53,266,41,10,63,245,40,11,35,096,31,13,44,259,38,3*7A
$GBGSV,3,3,09,14,62,109,46,3*46
$GBGSV,1,1,04,05,08,256,,21,06,036,,23,06,220,,27,04,297,,0*75
$GNRMC,045059.00,A,3726.9698533,N,12639.3714214,E,0.034,,220622,,,R,V*09
$GNVTG,,T,,M,0.034,N,0.064,K,D*3D
$GNGNS,045059.00,3726.9698533,N,12639.3714214,E,RRRR,28,0.57,21.808,17.842,2.0,4095,V*0A
$GNGGA,045059.00,3726.9698533,N,12639.3714214,E,4,12,0.57,21.808,M,17.842,M,2.0,4095*56
$GNGSA,A,3,06,19,11,17,14,12,02,,,,,,1.14,0.57,0.99,1*0B
$GNGSA,A,3,71,78,88,72,87,65,,,,,,,1.14,0.57,0.99,2*04
$GNGSA,A,3,02,34,05,36,30,,,,,,,,1.14,0.57,0.99,3*03
$GPGSV,3,1,10,02,19,279,35,06,57,307,45,11,23,273,34,12,18,316,34,1*6F
$GPGSV,3,2,10,14,19,185,24,17,70,107,45,19,78,357,38,28,,,43,1*55
$GPGSV,3,3,10,41,27,238,38,50,47,179,41,1*6B
$GPGSV,2,1,06,06,57,307,44,09,29,122,21,11,23,273,28,12,18,316,28,6*6F
$GPGSV,2,2,06,14,19,185,19,17,70,107,38,6*60
$GPGSV,1,1,01,20,13,225,,0*51
$GLGSV,2,1,06,65,39,163,41,71,22,033,31,72,56,083,44,78,24,284,38,1*70
$GLGSV,2,2,06,87,55,028,44,88,37,319,44,1*74
$GLGSV,2,1,05,65,39,163,32,71,22,033,20,72,56,083,39,78,24,284,32,3*75
$GLGSV,2,2,05,88,37,319,37,3*44
$GLGSV,1,1,03,77,12,228,,79,08,333,,86,15,090,,0*47
$GAGSV,2,1,06,02,29,209,41,05,29,143,30,18,62,308,48,30,38,273,41,2*7E
$GAGSV,2,2,06,34,56,312,48,36,50,054,40,2*7D
$GAGSV,2,1,07,02,29,209,42,05,29,143,30,15,12,278,35,18,62,308,45,7*73
$GAGSV,2,2,07,30,38,273,38,34,56,312,45,36,50,054,41,7*40
$GAGSV,1,1,04,04,07,035,,09,33,082,,11,07,081,,27,10,323,,0*7E
$GBGSV,3,1,11,01,43,152,42,02,28,236,$GBGSV,3,2,11,07,62,216,39,08,53,266,38,10,63,245,41,11,35,096,31,1*75
$GBGSV,3,3,11,13,44,259,44,14,62,109,40,28,51,316,42,1*4B
$GBGSV,3,1,09,01,43,152,43,03,44,206,42,04,35,132,39,07,62,216,29,3*7C
$GBGSV,3,2,09,08,53,266,43,10,63,245,40,11,35,096,32,13,44,259,37,3*74
$GBGSV,3,3,09,14,62,109,45,3*45
$GBGSV,1,1,04,05,08,256,,21,06,036,,23,06,220,,27,04,297,,0*75
$GNRMC,045100.00,A,3726.9698505,N,12639.3714197,E,0.005,,220622,,,R,V*0B
$GNVTG,,T,,M,0.005,N,0.009,K,D*34
$GNGNS,045100.00,3726.9698505,N,12639.3714197,E,RRRR,28,0.58,21.803,17.842,2.0,4095,V*0E
$GNGGA,045100.00,3726.9698505,N,12639.3714197,E,4,12,0.58,21.803,M,17.842,M,2.0,4095*52
$GNGSA,A,3,06,19,11,17,12,02,,,,,,,1.19,0.58,1.03,1*0E
$GNGSA,A,3,71,78,88,72,87,65,,,,,,,1.19,0.58,1.03,2*04
$GNGSA,A,3,02,34,05,36,30,,,,,,,,1.19,0.58,1.03,3*03
$GAGSV,2,1,06,02,29,209,39,05,29,143,30,18,62,308,48,30,38,273,41,2*71
$GAGSV,2,2,06,34,56,312,47,36,50,054,40,2*72
$GAGSV,2,1,07,02,29,209,43,05,29,143,31,15,12,278,37,18,62,308,45,7*71
$GAGSV,2,2,07,30,38,273,40,34,56,312,46,36,50,054,43,7*4E
$GAGSV,1,1,04,04,07,035,,09,33,082,,11,07,081,,27,10,323,,0*7E
$GBGSV,3,1,11,01,43,152,43,02,28,236,34,03,44,206,43,04,35,132,37,1*7D
$GBGSV,3,2,11,07,62,216,42,08,53,266,40,10,63,245,43,11,35,096,31,1*74
$GBGSV,3,3,11,13,44,259,45,14,62,109,44,28,51,316,44,1*48
$GBGSV,3,1,09,01,43,152,42,03,44,206,40,04,35,132,36,07,62,216,28,3*71
$GBGSV,3,2,09,08,53,266,39,10,63,245,39,11,35,096,31,13,44,259,37,3*74
$GBGSV,3,3,09,14,62,109,45,3*45
$GBGSV,1,1,04,05,08,256,,21,06,036,,23,06,220,,27,04,297,,0*75
$GNRMC,045101.00,A,3726.9698520,N,12639.3714213,E,0.004,,220622,,,R,V*03
$GNVTG,,T,,M,0.004,N,0.008,K,D*34
$GNGNS,045101.00,3726.9698520,N,12639.3714213,E,RRRR,28,0.58,21.805,17.842,2.0,4095,V*01
$GNGGA,045101.00,3726.9698520,N,12639.3714213,E,4,12,0.58,21.805,M,17.842,M,2.0,4095*5D
$GNGSA,A,3,06,19,11,17,12,02,,,,,,,1.19,0.58,1.03,1*0E
$GNGSA,A,3,71,78,88,72,87,65,,,,,,,1.19,0.58,1.03,2*04
$GNGSA,A,3,02,34,05,36,30,,,,,,,,1.19,0.58,1.03,3*03
$GNGSA,A,3,07,04,01,10,28,02,08,11,14,13,03,,1.19,0.58,1.03,4*05
$GPGSV,3,1,10,02,19,279,36,06,57,307,47,11,23,273,34,12,18,316,37,1*6D
$GPGSV,3,2,10,14,19,185,26,17,70,107,46,19,78,357,41,28,,,44,1*5D
$GPGSV,3,3,10,41,27,238,41,50,47,179,41,1*65
$GPGSV,2,1,06,06,57,307,43,09,29,122,20,11,23,273,26,12,18,316,28,6*67
$GPGSV,2,2,06,14,19,185,14,17,70,107,38,6*6D
$GPGSV,1,1,01,20,13,225,,0*51
$GLGSV,2,1,06,65,39,163,43,71,22,033,32,72,56,083,46,78,24,284,39,1*72
$GLGSV,2,2,06,87,55,028,45,88,37,319,47,1*76
$GLGSV,2,1,05,65,39,163,33,71,22,033,17,72,56,083,39,78,24,284,29,3*7A
$GLGSV,2,2,05,88,37,319,36,3*45
$GLGSV,1,1,03,77,12,228,,79,08,333,,86,15,090,,0*47
$GAGSV,2,1,06,02,29,209,38,05,29,143,30,18,62,308,48,30,38,273,41,2*70
$GAGSV,2,2,06,34,56,312,47,36,50,054,40,2*72
$GAGSV,2,1,07,02,29,209,43,05,29,143,30,15,12,278,34,18,62,308,46,7*70
$GAGSV,2,2,07,30,38,273,40,34,56,312,46,36,50,054,42,7*4F
$GAGSV,1,1,04,04,07,035,,09,33,082,,11,07,081,,27,10,323,,0*7E
$GBGSV,3,1,11,01,43,152,44,02,28,236,36,03,44,206,43,04,35,132,37,1*78
$GBGSV,3,2,11,07,62,216,42,08,53,266,41,10,63,245,43,11,35,096,31,1*75
$GBGSV,3,3,11,13,44,259,45,14,62,109,43,28,51,316,44,1*4F
$GBGSV,3,1,09,01,43,152,42,03,44,206,41,04,35,132,38,07,62,216,32,3*75
$GBGSV,3,2,09,08,53,266,40,10,63,245,39,11,35,096,31,13,44,259,37,3*7A
$GBGSV,3,3,09,14,62,109,45,3*45
$GBGSV,1,1,04,05,08,256,,21,06,036,,23,06,220,,27,04,297,,0*75
$GNRMC,045102.00,A,3726.9698510,N,12639.3714233,E,0.009,,220622,,,R,V*0C
$GNVTG,,T,,M,0.009,N,0.016,K,D*36
$GNGNS,045102.00,3726.9698510,N,12639.3714233,E,RRRR,28,0.58,21.813,17.842,2.0,4095,V*04
$GNGGA,045102.00,3726.9698510,N,12639.3714233,E,4,12,0.58,21.813,M,17.842,M,2.0,4095*58
$GNGSA,A,3,06,19,11,17,12,02,,,,,,,1.19,0.58,1.03,1*0E
$GNGSA,A,3,71,78,88,72,87,65,,,,,,,1.19,0.58,1.03,2*04
$GNGSA,A,3,02,34,05,36,30,,,,,,,,1.19,0.58,1.03,3*03
$GNGSA,A,3,07,04,01,10,28,02,08,11,14,13,03,,1.19,0.58,1.03,4*05
$GPGSV,3,1,11,02,19,279,37,06,57,307,49,11,23,273,34,12,18,316,39,1*6D
$GPGSV,3,2,11,14,19,185,28,17,70,107,48,19,78,357,43,20,13,225,41,1*64
$GPGSV,3,3,11,28,,,46,41,27,238,42,50,47,179,42,1*6C
$GPGSV,2,1,06,06,57,307,43,09,29,122,19,11,23,273,23,12,18,316,29,6*69
$GPGSV,2,2,06,14,19,185,14,17,70,107,38,6*6D
$GLGSV,2,1,07,65,39,163,43,71,22,033,33,72,56,083,46,77,12,228,22,1*74
$GLGSV,2,2,07,78,24,284,37,87,55,028,45,88,37,319,47,1*44
$GLGSV,2,1,05,65,39,163,34,71,22,033,17,72,56,083,40,78,24,284,27,3*7D
$GLGSV,2,2,05,88,37,319,38,3*4B
$GLGSV,1,1,02,79,08,333,,86,15,090,,0*7D
$GAGSV,2,1,06,02,29,209,38,05,29,143,29,18,62,308,48,30,38,273,39,2*77
$GAGSV,2,2,06,34,56,312,48,36,50,054,41,2*7C
$GAGSV,2,1,07,02,29,209,44,05,29,143,29,15,12,278,36,18,62,308,47,7*7C
$GAGSV,2,2,07,30,38,273,41,34,56,312,48,36,50,054,43,7*41
$GAGSV,1,1,04,04,07,035,,09,33,082,,11,07,081,,27,10,323,,0*7E
$GBGSV,3,1,11,01,43,152,43,02,28,236,36,03,44,206,43,04,35,132,37,1*7F
$GBGSV,3,2,11,07,62,216,42,08,53,266,40,10,63,245,43,11,35,096,31,1*74
$GBGSV,3,3,11,13,44,259,45,14,62,109,43,28,51,316,45,1*4E
$GNRMC,045103.00,A,3726.9698504,N,12639.3714212,E,0.015,,220622,,,R,V*06
$GNVTG,,T,,M,0.015,N,0.028,K,D*36
$GNGNS,045103.00,3726.9698504,N,12639.3714212,E,RRRR,28,0.58,21.812,17.842,1.0,4095,V*01
$GNGGA,045103.00,3726.9698504,N,12639.3714212,E,4,12,0.58,21.812,M,17.842,M,1.0,4095*5D
$GNGSA,A,3,06,19,11,17,12,02,,,,,,,1.19,0.58,1.03,1*0E
$GNGSA,A,3,71,78,88,72,87,65,,,,,,,1.19,0.58,1.03,2*04
$GNGSA,A,3,02,34,05,36,30,,,,,,,,1.19,0.58,1.03,3*03
$GNGSA,A,3,07,04,01,10,28,02,08,11,14,13,03,,1.19,0.58,1.03,4*05
$GPGSV,3,1,11,02,19,279,39,06,57,307,47,11,23,273,34,12,18,316,38,1*6C
$GPGSV,3,2,11,14,19,185,28,17,70,107,47,19,78,357,42,20,13,225,39,1*65
$GPGSV,3,3,11,28,,,45,41,27,238,42,50,47,179,42,1*6F
$GPGSV,2,1,06,06,57,307,43,09,29,122,19,11,23,273,21,12,18,316,28,6*6A
$GPGSV,2,2,06,14,19,185,15,17,70,107,38,6*6C
$GLGSV,2,1,07,65,39,163,43,71,22,033,32,72,56,083,46,77,12,228,21,1*76
$GLGSV,2,2,07,78,24,284,40,87,55,028,45,88,37,319,46,1*45
$GLGSV,2,1,05,65,39,163,33,71,22,033,15,72,56,083,39,78,24,284,25,3*74
$GLGSV,2,2,05,88,37,319,35,3*46
$GLGSV,1,1,02,79,08,333,,86,15,090,,0*7D
$GAGSV,2,1,06,02,29,209,39,05,29,143,29,18,62,308,48,30,38,273,41,2*79
$GAGSV,2,2,06,34,56,312,48,36,50,054,40,2*7D
$GAGSV,2,1,07,02,29,209,44,05,29,143,29,15,12,278,35,18,62,308,47,7*7F
$GAGSV,2,2,07,30,38,273,41,34,56,312,47,36,50,054,42,7*4F
$GAGSV,1,1,04,04,07,035,,09,33,082,,11,07,081,,27,10,323,,0*7E
$GBGSV,3,1,11,01,43,152,43,02,28,236,36,03,44,206,43,04,35,132,37,1*7F
$GBGSV,3,2,11,07,62,216,42,08,53,266,40,10,63,245,43,11,35,096,31,1*74
$GBGSV,3,3,11,13,44,259,46,14,62,109,43,28,51,316,44,1*4C
$GBGSV,3,1,09,01,43,152,41,03,44,206,41,04,35,132,38,07,62,216,31,3*75
$GBGSV,3,2,09,08,53,266,40,10,63,245,39,11,35,096,30,13,44,259,38,3*74
$GBGSV,3,3,09,14,62,109,45,3*45
$GBGSV,1,1,04,05,08,256,,21,06,036,,23,06,220,,27,04,297,,0*75
$GNRMC,045104.00,A,3726.9698519,N,12639.3714229,E,0.004,,220622,,,R,V*05
$GNVTG,,T,,M,0.004,N,0.008,K,D*34
$GNGNS,045104.00,3726.9698519,N,12639.3714229,E,RRRR,28,0.58,21.798,17.842,2.0,4095,V*0C
$GNGGA,045104.00,3726.9698519,N,12639.3714229,E,4,12,0.58,21.798,M,17.842,M,2.0,4095*50
$GNGSA,A,3,06,19,11,17,12,02,,,,,,,1.19,0.58,1.03,1*0E
$GNGSA,A,3,71,78,88,72,87,65,,,,,,,1.19,0.58,1.03,2*04
$GNGSA,A,3,02,34,05,36,30,,,,,,,,1.19,0.58,1.03,3*03
$GNGSA,A,3,07,04,01,10,28,02,08,11,14,13,03,,1.19,0.58,1.03,4*05
$GPGSV,3,1,11,02,19,279,38,06,57,307,47,11,23,273,33,12,18,316,36,1*64
$GPGSV,3,3,11,28,,,45,41,27,238,40,50,47,179,42,1*6D
$GPGSV,2,1,06,06,57,307,43,09,29,122,19,11,23,273,20,12,18,316,27,6*64
$GPGSV,2,2,06,14,19,185,15,17,70,107,38,6*6C
$GLGSV,2,1,07,65,39,163,43,71,22,033,32,72,56,083,48,77,12,228,22,1*7B
$GLGSV,2,2,07,78,24,284,40,87,55,028,46,88,37,319,46,1*46
$GLGSV,2,1,06,65,39,163,33,71,22,033,14,72,56,083,39,77,12,228,23,3*7C
$GLGSV,2,2,06,78,24,284,24,88,37,319,35,3*74
$GLGSV,1,1,02,79,08,333,,86,15,090,,0*7D
$GAGSV,2,1,06,02,29,209,39,05,29,143,29,18,62,308,47,30,38,273,41,2*76
$GAGSV,2,2,06,34,56,312,48,36,50,054,39,2*73
$GAGSV,2,1,07,02,29,209,43,05,29,143,30,15,12,278,34,18,62,308,47,7*71
$GAGSV,2,2,07,30,38,273,41,34,56,312,47,36,50,054,42,7*4F
$GAGSV,1,1,04,04,07,035,,09,33,082,,11,07,081,,27,10,323,,0*7E
$GBGSV,3,1,11,01,43,152,43,02,28,236,34,03,44,206,42,04,35,132,37,1*7C
$GBGSV,3,2,11,07,62,216,41,08,53,266,40,10,63,245,43,11,35,096,31,1*77
$GBGSV,3,3,11,13,44,259,46,14,62$GBGSV,3,1,09,01,43,152,41,03,44,206,40,04,35,132,38,07,62,216,30,3*75
$GBGSV,3,2,09,08,53,266,41,10,63,245,39,11,35,096,31,13,44,259,37,3*7B
$GBGSV,3,3,09,14,62,109,45,3*45
$GBGSV,1,1,04,05,08,256,,21,06,036,,23,06,220,,27,04,297,,0*75
$GNRMC,045105.00,A,3726.9698516,N,12639.3714239,E,0.006,,220622,,,R,V*08
$GNVTG,,T,,M,0.006,N,0.011,K,D*3E
$GNGNS,045105.00,3726.9698516,N,12639.3714239,E,RRRR,28,0.58,21.800,17.842,2.0,4095,V*0D
$GNGGA,045105.00,3726.9698516,N,12639.3714239,E,4,12,0.58,21.800,M,17.842,M,2.0,4095*51
$GNGSA,A,3,06,19,11,17,12,02,,,,,,,1.19,0.58,1.03,1*0E
$GNGSA,A,3,71,78,88,72,87,65,,,,,,,1.19,0.58,1.03,2*04
$GNGSA,A,3,02,34,05,36,30,,,,,,,,1.19,0.58,1.03,3*03
$GNGSA,A,3,07,04,01,10,28,02,08,11,14,13,03,,1.19,0.58,1.03,4*05
$GPGSV,3,1,11,02,19,279,37,06,57,307,47,11,23,273,33,12,18,316,36,1*6B
$GPGSV,3,2,11,14,19,185,26,17,70,107,47,19,78,357,42,20,13,225,37,1*65
$GPGSV,3,3,11,28,,,45,41,27,238,40,50,47,179,42,1*6D
$GPGSV,2,1,06,06,57,307,43,09,29,122,19,11,23,273,23,12,18,316,27,6*67
$GPGSV,2,2,06,14,19,185,13,17,70,107,38,6*6A
$GLGSV,2,1,07,65,39,163,44,71,22,033,28,72,56,083,47,77,12,228,22,1*78
$GLGSV,2,2,07,78,24,284,38,87,55,028,46,88,37,319,46,1*49
$GLGSV,2,1,06,65,39,163,34,71,22,033,11,72,56,083,39,77,12,228,23,3*7E
$GLGSV,2,2,06,78,24,284,24,88,37,319,36,3*77
$GLGSV,1,1,02,79,08,333,,86,15,090,,0*7D
$GAGSV,2,1,06,02,29,209,39,05,29,143,29,18,62,308,47,30,38,273,41,2*76
$GAGSV,2,2,06,34,56,312,47,36,50,054,40,2*72
$GAGSV,2,1,07,02,29,209,43,05,29,143,30,15,12,278,35,18,62,308,47,7*70
$GAGSV,2,2,07,30,38,273,41,34,56,312,47,36,50,054,42,7*4F
$GAGSV,1,1,04,04,07,035,,09,33,082,,11,07,081,,27,10,323,,0*7E
$GBGSV,3,1,11,01,43,152,43,02,28,236,35,03,44,206,41,04,35,132,37,1*7E
$GBGSV,3,2,11,07,62,216,41,08,53,266,40,10,63,245,43,11,35,096,32,1*74
$GBGSV,3,3,11,13,44,259,46,14,62,109,43,28,51,316,44,1*4C
$GBGSV,3,1,09,01,43,152,41,03,44,206,40,04,35,132,38,07,62,216,30,3*75
$GBGSV,3,2,09,08,53,266,41,10,63,245,40,11,35,096,30,13,44,259,36,3*75
$GBGSV,3,3,09,14,62,109,45,3*45
$GBGSV,1,1,04,05,08,256,,21,06,036,,23,06,220,,27,04,297,,0*75
$GNRMC,045106.00,A,3726.9698501,N,12639.3714187,E,0.012,,220622,,,R,V*0E
$GNVTG,,T,,M,0.012,N,0.022,K,D*3B
$GNGNS,045106.00,3726.9698501,N,12639.3714187,E,RRRR,28,0.58,21.820,17.842,2.0,4095,V*0C
$GNGGA,045106.00,3726.9698501,N,12639.3714187,E,4,12,0.58,21.820,M,17.842,M,2.0,4095*50
$GNGSA,A,3,06,19,11,17,12,02,,,,,,,1.19,0.58,1.03,1*0E
$GNGSA,A,3,71,78,88,72,87,65,,,,,,,1.19,0.58,1.03,2*04
$GNGSA,A,3,02,34,05,36,30,,,,,,,,1.19,0.58,1.03,3*03
$GNGSA,A,3,07,04,01,10,28,02,08,11,14,13,03,,1.19,0.58,1.03,4*05
$GPGSV,3,1,11,02,19,279,37,06,57,307,47,11,23,273,32,12,18,316,36,1*6A
$GPGSV,3,2,11,14,19,185,25,17,70,107,47,19,78,357,43,20,13,225,37,1*67
$GPGSV,3,3,11,28,,,45,41,27,238,39,50,47,179,43,1*62
$GNRMC,045107.00,A,3726.9698530,N,12639.3714213,E,0.007,,220622,,,R,V*07
$GNVTG,,T,,M,0.007,N,0.012,K,D*3C
$GNGNS,045107.00,3726.9698530,N,12639.3714213,E,RRRR,28,0.58,21.802,17.842,3.0,4095,V*00
$GNGGA,045107.00,3726.9698530,N,12639.3714213,E,4,12,0.58,21.802,M,17.842,M,3.0,4095*5C
$GNGSA,A,3,06,19,11,17,12,02,,,,,,,1.19,0.58,1.04,1*09
$GNGSA,A,3,71,78,88,72,87,65,,,,,,,1.19,0.58,1.04,2*03
$GNGSA,A,3,02,34,05,36,30,,,,,,,,1.19,0.58,1.04,3*04
$GNGSA,A,3,07,04,01,10,28,02,08,11,14,13,03,,1.19,0.58,1.04,4*02
$GPGSV,3,1,11,02,19,279,36,06,57,307,47,11,23,273,32,12,18,316,37,1*6A
$GPGSV,3,2,11,14,19,185,24,17,70,107,47,19,78,357,43,20,13,225,38,1*69
$GPGSV,3,3,11,28,,,45,41,27,238,40,50,47,179,43,1*6C
$GPGSV,2,1,06,06,57,307,43,09,29,122,19,11,23,273,22,12,18,316,26,6*67
$GPGSV,2,2,06,14,19,185,09,17,70,107,38,6*61
$GLGSV,2,1,07,65,39,163,43,71,22,033,31,72,56,083,47,77,12,228,22,1*77
$GLGSV,2,2,07,78,24,284,41,87,55,028,46,88,37,319,45,1*44
$GLGSV,2,1,06,65,39,163,34,71,22,033,12,72,56,083,39,77,12,228,25,3*7B
$GLGSV,2,2,06,78,24,284,21,88,37,319,36,3*72
$GLGSV,1,1,02,79,08,333,,86,15,090,,0*7D
$GAGSV,2,1,07,02,29,209,39,05,29,143,29,09,33,082,27,18,62,308,47,2*7A
$GAGSV,2,2,07,30,38,273,41,34,56,312,48,36,50,054,40,2*47
$GAGSV,2,1,07,02,29,209,43,05,29,143,30,15,12,278,33,18,62,308,48,7*79
$GAGSV,2,2,07,30,38,273,41,34,56,312,47,36,50,054,43,7*4E
$GAGSV,1,1,03,04,07,035,,11,07,081,,27,10,323,,0*4A
$GBGSV,3,1,11,01,43,152,42,02,28,236,36,03,44,206,41,04,35,132,37,1*7C
$GBGSV,3,2,11,07,62,216,41,08,53,266,39,10,63,245,43,11,35,096,31,1*79
$GBGSV,3,3,11,13,44,259,46,14,62,109,43,28,51,316,44,1*4C
$GBGSV,3,1,09,01,43,152,40,03,44,206,41,04,35,132,38,07,62,216,29,3*7D
$GBGSV,3,2,09,08,53,266,41,10,63,245,40,11,35,096,30,13,44,259,37,3*74
$GBGSV,3,3,09,14,62,109,45,3*45
$GBGSV,1,1,04,05,08,256,,21,06,036,,23,06,220,,27,04,297,,0*75
$GNRMC,045108.00,A,3726.9698521,N,12639.3714201,E,0.009,,220622,,,R,V*05
$GNVTG,,T,,M,0.009,N,0.016,K,D*36
$GNGNS,045108.00,3726.9698521,N,12639.3714201,E,RRRR,28,0.58,21.812,17.842,4.0,4095,V*0A
$GNGGA,045108.00,3726.9698521,N,12639.3714201,E,4,12,0.58,21.812,M,17.842,M,4.0,4095*56
$GNGSA,A,3,06,19,11,17,12,02,,,,,,,1.19,0.58,1.04,1*09
$GNGSA,A,3,71,78,88,72,87,65,,,,,,,1.19,0.58,1.04,2*03
$GNGSA,A,3,02,34,05,36,30,,,,,,,,1.19,0.58,1.04,3*04
$GNGSA,A,3,07,04,01,10,28,02,08,11,14,13,03,,1.19,0.58,1.04,4*02
$GPGSV,3,1,11,02,19,279,36,06,57,307,47,11,23,273,32,12,18,316,37,1*6A
$GPGSV,3,2,11,14,19,185,24,17,70,107,47,19,78,357,43,20,13,225,37,1*66
$GPGSV,3,3,11,28,,,45,41,27,238,38,50,47,179,43,1*63
$GPGSV,2,1,06,06,57,307,43,09,29,122,18,11,23,273,21,12,18,316,25,6*66
$GPGSV,2,2,06,14,19,185,08,17,70,107,38,6*60
$GLGSV,2,1,07,65,39,163,43,71,22,033,32,72,56,083,47,77,12,228,23,1*75
$GLGSV,2,2,07,78,24,284,40,87,55,028,46,88,37,319,47,1*47
$GLGSV,2,1,06,65,39,163,34,71,22,033,06,72,56,083,39,77,12,228,25,3*7E
$GLGSV,2,2,06,78,24,284,20,88,37,319,36,3*73
$GLGSV,1,1,02,79,08,333,,86,15,090,,0*7D
$GAGSV,2,1,07,02,29,209,39,05,29,143,29,09,33,082,27,18,62,308,47,2*7A
$GAGSV,2,2,07,30,38,273,41,34,56,312,48,36,50,054,40,2*47
$GAGSV,2,1,07,02,29,209,43,05,29,143,29,15,12,278,33,18,62,308,47,7*7E
$GAGSV,2,2,07,30,38,273,41,34,56,312,47,36,50,054,43,7*4E
$GAGSV,1,1,03,04,07,035,,11,07,081,,27,10,323,,0*4A
$GBGSV,3,1,11,01,43,152,42,02,28,236,36,03,44,206,41,04,35,132,37,1*7C
$GBGSV,3,2,11,07,62,216,41,08,53,266,39,10,63,245,43,11,35,096,30,1*78
$GBGSV,3,3,11,13,44,259,45,14,62,109,44,28,51,316,44,1*48
$GBGSV,3,1,09,01,43,152,40,03,44,206,41,04,35,132,38,07,62,216,29,3*7D
$GBGSV,3,2,09,08,53,266,41,10,63,245,40,11,35,096,30,13,44,259,37,3*74
$GBGSV,3,3,09,14,62,109,45,3*45
$GBGSV,1,1,04,05,08,256,,21,06,036,,23,06,220,,27,04,297,,0*75
$GNRMC,045109.00,A,3726.9698528,N,12639.3714207,E,0.008,,220622,,,R,V*0A
$GNVTG,,T,,M,0.008,N,0.015,K,D*34
$GNGNS,045109.00,3726.9698528,N,12639.3714207,E,RRRR,28,0.58,21.809,17.842,5.0,4095,V*0F
$GNGGA,045109.00,3726.9698528,N,12639.3714207,E,4,12,0.58,21.809,M,17.842,M,5.0,4095*53
$GNGSA,A,3,06,19,11,17,12,02,,,,,,,1.19,0.58,1.04,1*09
$GNGSA,A,3,71,78,88,72,87,65,,,,,,,1.19,0.58,1.04,2*03
$GNGSA,A,3,02,34,05,36,30,,,,,,,,1.19,0.58,1.04,3*04
$GNGSA,A,3,07,04,01,10,28,02,08,11,14,13,03,,1.19,0.58,1.04,4*02
$GPGSV,3,1,11,02,19,279,35,06,57,307,47,11,23,273,30,12,18,316,37,1*6B
$GPGSV,3,2,11,14,19,185,23,17,70,107,47,19,78,357,43,20,13,225,37,1*61
$GPGSV,3,3,11,28,,,45,41,27,238,39,50,47,179,43,1*62
$GPGSV,2,1,05,06,57,307,43,09,29,122,19,11,23,273,20,12,18,316,25,6*65
$GPGSV,2,2,05,17,70,107,38,6*5A
$GLGSV,2,1,07,65,39,163,43,71,22,033,32,72,56,083,47,77,12,228,23,1*75
$GLGSV,2,2,07,78,24,284,40,87,55,028,46,88,37,319,46,1*46
$GLGSV,2,1,06,65,39,163,34,71,22,033,13,72,56,083,39,77,12,228,26,3*79
$GLGSV,2,2,06,78,24,284,20,88,37,319,35,3*70
$GLGSV,1,1,02,79,08,333,,86,15,090,,0*7D
$GAGSV,2,1,07,02,29,209,39,05,29,143,29,09,33,082,27,18,62,308,48,2*75
$GAGSV,2,2,07,30,38,273,41,34,56,312,48,36,50,054,40,2*47
$GAGSV,2,1,07,02,29,209,43,05,29,143,29,15,12,278,33,18,62,308,47,7*7E
$GAGSV,2,2,07,30,38,273,41,34,56,312,47,36,50,054,42,7*4F
$GAGSV,1,1,03,04,07,035,,11,07,081,,27,10,323,,0*4A
$GBGSV,3,1,11,01,43,152,42,02,28,236,36,03,44,206,41,04,35,132,37,1*7C
$GBGSV,3,2,11,07,62,216,41,08,53,266,39,10,63,245,43,11,35,096,30,1*78
$GBGSV,3,3,11,13,44,259,45,14,62,109,43,28,51,316,44,1*4F
$GBGSV,3,1,09,01,43,152,40,03,44,206,41,04,35,132,38,07,62,216,30,3*75
$GBGSV,3,2,09,08,53,266,41,10,63,245,39,11,35,096,30,13,44,259,37,3*7A
$GBGSV,3,3,09,14,62,109,45,3*45
$GBGSV,1,1,04,05,08,256,,21,06,036,,23,06,220,,27,04,297,,0*75
$GNRMC,045110.00,A,3726.9698525,N,12639.3714209,E,0.016,,220622,,,R,V*0E
$GNVTG,,T,,M,0.016,N,0.030,K,D*3C
$GNGNS,045110.00,3726.9698525,N,12639.3714209,E,RRRR,28,0.58,21.807,17.842,6.0,4095,V*09
$GNGGA,045110.00,3726.9698525,N,12639.3714209,E,4,12,0.58,21.807,M,17.842,M,6.0,4095*55
$GNGSA,A,3,06,19,11,17,12,02,,,,,,,1.19,0.58,1.04,1*09
$GNGSA,A,3,71,78,88,72,87,65,,,,,,,1.19,0.58,1.04,2*03
$GNGSA,A,3,02,34,05,36,30,,,,,,,,1.19,0.58,1.04,3*04
$GNGSA,A,3,07,04,01,10,28,02,08,11,14,13,03,,1.19,0.58,1.04,4*02
$GPGSV,3,1,11,02,19,279,35,06,57,307,47,11,23,273,30,12,18,316,37,1*6B
$GPGSV,3,2,11,14,19,185,23,17,70,107,47,19,78,357,43,20,13,225,37,1*61
$GPGSV,3,3,11,28,,,45,41,27,238,40,50,47,179,43,1*6C
$GPGSV,2,1,05,06,57,307,43,09,29,122,19,11,23,273,19,12,18,316,25,6*6F
$GPGSV,2,2,05,17,70,107,38,6*5A
$GLGSV,2,1,07,65,39,163,43,71,22,033,33,72,56,083,47,77,12,228,23,1*74
$GLGSV,2,2,07,78,24,284,41,87,55,028,45,88,37,319,46,1*44
$GLGSV,2,1,06,65,39,163,33,71,22,033,17,72,56,083,39,77,12,228,25,3*79
$GLGSV,2,2,06,78,24,284,20,88,37,319,35,3*70
$GLGSV,1,1,02,79,08,333,,86,15,090,,0*7D
$GAGSV,2,1,07,02,29,209,39,05,29,143,29,09,33,082,27,18,62,308,48,2*75
$GAGSV,2,2,07,30,38,273,41,34,56,312,48,36,50,054,40,2*47
$GAGSV,2,1,07,02,29,209,43,05,29,143,29,15,12,278,33,18,62,308,47,7*7E
$GAGSV,2,2,07,30,38,273,41,34,56,312,46,36,50,054,42,7*4E
$GAGSV,1,1,03,04,07,035,,11,07,081,,27,10,323,,0*4A
$GBGSV,3,1,11,01,43,152,42,02,28,236,36,03,44,206,42,04,35,132,37,1*7F
$GBGSV,3,2,11,07,62,216,41,08,53,266,39,10,63,245,43,11,35,096,31,1*79
$GBGSV,3,3,11,13,44,259,46,14,62,109,43,28,51,316,44,1*4C
$GBGSV,3,1,09,01,43,152,40,03,44,206,41,04,35,132,38,07,62,216,29,3*7D
$GBGSV,3,2,09,08,53,266,41,10,63,245,40,11,35,096,30,13,44,259,37,3*74
$GBGSV,3,3,09,14,62,109,45,3*45
$GBGSV,1,1,04,05,08,256,,21,06,036,,23,06,220,,27,04,297,,0*75
$GNRMC,045111.00,A,3726.9698512,N,12639.3714224,E,0.019,,220622,,,R,V*0B
$GNVTG,,T,,M,0.019,N,0.035,K,D*36
$GNGNS,045111.00,3726.9698512,N,12639.3714224,E,RRRR,28,0.58,21.811,17.842,7.0,4095,V*05
$GNGGA,045111.00,3726.9698512,N,12639.3714224,E,4,12,0.58,21.811,M,17.842,M,7.0,4095*59
$GNGSA,A,3,06,19,11,17,12,02,,,,,,,1.19,0.58,1.04,1*09
$GNGSA,A,3,71,78,88,72,87,65,,,,,,,1.19,0.58,1.04,2*03
$GNGSA,A,3,02,34,05,36,30,,,,,,,,1.19,0.58,1.04,3*04
$GNGSA,A,3,07,04,01,10,28,02,08,11,14,13,03,,1.19,0.58,1.04,4*02
$GPGSV,3,1,11,02,19,279,34,06,57,307,47,11,23,273,31,12,18,316,37,1*6B
$GPGSV,3,2,11,14,19,185,23,17,70,107,47,19,78,357,43,20,13,225,36,1*60
$GPGSV,3,3,11,28,,,45,41,27,238,40,50,47,179,42,1*6D
$GPGSV,2,1,05,06,57,307,43,09,29,122,19,11,23,273,20,12,18,316,26,6*66
$GPGSV,2,2,05,17,70,107,38,6*5A
$GLGSV,2,1,07,65,39,163,42,71,22,033,34,72,56,083,47,77,12,228,23,1*72
$GLGSV,2,2,07,78,24,284,41,87,55,028,45,88,37,319,46,1*44
$GLGSV,2,1,06,65,39,163,33,71,22,033,18,72,56,083,39,77,12,228,25,3*76
$GLGSV,2,2,06,78,24,284,18,88,37,319,36,3*78
$GLGSV,1,1,02,79,08,333,,86,15,090,,0*7D
$GAGSV,2,1,07,02,29,209,38,05,29,142,29,09,33,082,26,18,62,308,48,2*74
$GAGSV,2,2,07,30,38,273,41,34,56,312,48,36,50,054,40,2*47
$GAGSV,2,1,07,02,29,209,42,05,29,142,29,15,12,278,33,18,62,308,47,7*7E
$GAGSV,2,2,07,30,38,273,41,34,56,312,46,36,50,054,42,7*4E
$GAGSV,1,1,03,04,07,035,,11,07,081,,27,10,323,,0*4A
$GBGSV,3,1,11,01,43,152,42,02,28,236,37,03,44,206,42,04,35,132,37,1*7E
$GBGSV,3,2,11,07,62,216,41,08,53,266,39,10,63,245,43,11,35,096,31,1*79
$GBGSV,3,3,11,13,44,259,46,14,62,109,43,28,51,316,44,1*4C
$GBGSV,3,1,09,01,43,152,41,03,44,206,40,04,35,132,38,07,62,216,29,3*7D
$GBGSV,3,2,09,08,53,266,41,10,63,245,39,11,35,096,30,13,44,259,37,3*7A
$GBGSV,3,3,09,14,62,109,45,3*45
$GBGSV,1,1,04,05,08,256,,21,06,036,,23,06,220,,27,04,297,,0*75
$GNRMC,045112.00,A,3726.9698503,N,12639.3714208,E,0.010,,220622,,,R,V*0F
$GNVTG,,T,,M,0.010,N,0.018,K,D*30
$GNGNS,045112.00,3726.9698503,N,12639.3714208,E,RRRR,28,0.58,21.817,17.842,8.0,4095,V*01
$GNGGA,045112.00,3726.9698503,N,12639.3714208,E,4,12,0.58,21.817,M,17.842,M,8.0,4095*5D
$GNGSA,A,3,06,19,11,17,12,02,,,,,,,1.19,0.58,1.04,1*09
$GNGSA,A,3,71,78,88,72,87,65,,,,,,,1.19,0.58,1.04,2*03
$GPGSV,1,1,01,14,19,185,,0*55
$GLGSV,2,1,07,65,39,163,43,71,22,033,34,72,56,083,47,77,12,228,23,1*73
$GLGSV,2,2,07,78,24,284,39,87,55,028,45,88,37,319,46,1*4B
$GLGSV,2,1,06,65,39,163,33,71,22,033,19,72,56,083,39,77,12,228,25,3*77
$GLGSV,2,2,06,78,24,284,15,88,37,319,36,3*75
$GLGSV,1,1,02,79,08,333,,86,15,090,,0*7D
$GAGSV,2,1,07,02,29,209,38,05,29,142,29,09,33,082,26,18,62,308,48,2*74
$GAGSV,2,2,07,30,38,273,41,34,56,312,48,36,50,054,40,2*47
$GAGSV,2,1,07,02,29,209,42,05,29,142,30,15,12,278,33,18,62,308,47,7*76
$GAGSV,2,2,07,30,38,273,41,34,56,312,46,36,50,054,42,7*4E
$GAGSV,1,1,03,04,07,035,,11,07,081,,27,10,323,,0*4A
$GBGSV,3,1,11,01,43,152,43,02,28,236,37,03,44,206,42,04,35,132,37,1*7F
$GNRMC,045113.00,A,3726.9698503,N,12639.3714184,E,0.001,,220622,,,R,V*09
$GNVTG,,T,,M,0.001,N,0.002,K,D*3B
$GNGNS,045113.00,3726.9698503,N,12639.3714184,E,RRRR,28,0.58,21.823,17.842,9.0,4095,V*01
$GNGGA,045113.00,3726.9698503,N,12639.3714184,E,4,12,0.58,21.823,M,17.842,M,9.0,4095*5D
$GNGSA,A,3,06,19,11,17,12,02,,,,,,,1.19,0.58,1.04,1*09
$GNGSA,A,3,71,78,88,72,87,65,,,,,,,1.19,0.58,1.04,2*03
$GNGSA,A,3,02,34,05,36,30,,,,,,,,1.19,0.58,1.04,3*04
$GNGSA,A,3,07,04,01,10,28,02,08,11,14,13,03,,1.19,0.58,1.04,4*02
$GPGSV,3,1,10,02,19,279,33,06,57,307,46,11,23,273,33,12,18,316,37,1*6E
$GPGSV,3,2,10,17,70,107,47,19,78,357,44,20,13,225,33,28,,,44,1*59
$GPGSV,3,3,10,41,27,238,40,50,47,179,43,1*66
$GPGSV,2,1,05,06,57,307,43,09,29,122,16,11,23,273,18,12,18,316,27,6*63
$GPGSV,2,2,05,17,70,107,38,6*5A
$GPGSV,1,1,01,14,19,185,,0*55
$GLGSV,2,1,07,65,39,163,43,71,22,033,33,72,56,083,47,77,12,228,24,1*73
$GLGSV,2,2,07,78,24,284,39,87,55,028,45,88,37,319,46,1*4B
$GLGSV,2,1,06,65,39,163,33,71,22,033,20,72,56,083,40,77,12,228,23,3*75
$GLGSV,2,2,06,78,24,284,13,88,37,319,36,3*73
$GLGSV,1,1,02,79,08,333,,86,15,090,,0*7D
$GAGSV,2,1,07,02,29,209,38,05,29,142,29,09,33,082,25,18,62,308,48,2*77
$GAGSV,2,2,07,30,38,273,41,34,56,312,48,36,50,054,40,2*47
$GAGSV,2,1,07,02,29,209,40,05,29,142,30,15,12,278,33,18,62,308,47,7*74
$GAGSV,2,2,07,30,38,273,41,34,56,312,47,36,50,054,42,7*4F
$GAGSV,1,1,03,04,07,035,,11,07,081,,27,10,323,,0*4A
$GBGSV,3,1,11,01,43,152,43,02,28,236,37,03,44,206,42,04,35,132,37,1*7F
$GBGSV,3,2,11,07,62,216,41,08,53,266,39,10,63,245,43,11,35,096,32,1*7A
$GBGSV,3,3,11,13,44,259,45,14,62,109,43,28,51,316,44,1*4F
$GBGSV,3,1,09,01,43,152,41,03,44,206,39,04,35,132,38,07,62,216,32,3*79
$GBGSV,3,2,09,08,53,266,41,10,63,245,39,11,35,096,31,13,44,259,37,3*7B
$GBGSV,3,3,09,14,62,109,45,3*45
$GBGSV,1,1,04,05,08,256,,21,06,036,,23,06,220,,27,04,297,,0*75
$GNRMC,045114.00,A,3726.9698506,N,12639.3714215,E,0.009,,220622,,,R,V*08
$GNVTG,,T,,M,0.009,N,0.017,K,D*37
$GNGNS,045114.00,3726.9698506,N,12639.3714215,E,RRRR,28,0.66,21.818,17.842,10.0,4095,V*35
$GNGGA,045114.00,3726.9698506,N,12639.3714215,E,4,12,0.66,21.818,M,17.842,M,10.0,4095*69
$GNGSA,A,3,06,19,11,17,12,02,,,,,,,1.32,0.66,1.14,1*0C
$GNGSA,A,3,71,78,88,72,87,65,,,,,,,1.32,0.66,1.14,2*06
$GNGSA,A,3,02,34,05,36,30,,,,,,,,1.32,0.66,1.14,3*01
$GNGSA,A,3,07,04,01,10,28,02,08,11,14,13,03,,1.32,0.66,1.14,4*07
$GPGSV,3,1,10,02,19,279,34,06,57,307,46,11,23,273,33,12,18,316,35,1*6B
$GPGSV,3,2,10,17,70,107,47,19,78,357,44,20,13,225,29,28,,,45,1*53
$GPGSV,3,3,10,41,27,238,39,50,47,179,43,1*68
$GPGSV,2,1,05,06,57,307,43,09,29,122,17,11,23,273,17,12,18,316,27,6*6D
$GPGSV,2,2,05,17,70,107,38,6*5A
$GPGSV,1,1,01,14,19,185,,0*55
$GLGSV,2,1,07,65,39,163,42,71,22,033,36,72,56,083,46,77,12,228,21,1*73
$GLGSV,2,2,07,78,24,284,38,87,55,028,45,88,37,319,46,1*4A
$GLGSV,2,1,06,65,39,163,34,71,22,033,20,72,56,083,41,77,12,228,22,3*72
$GLGSV,2,2,06,78,24,284,14,88,37,319,39,3*7B
$GLGSV,1,1,02,79,08,333,,86,15,090,,0*7D
$GAGSV,2,1,07,02,29,209,37,05,29,142,29,09,33,082,26,18,62,308,48,2*7B
$GAGSV,2,2,07,30,38,273,41,34,56,312,48,36,50,054,40,2*47
$GAGSV,2,1,07,02,29,209,43,05,29,142,30,15,12,278,34,18,62,308,47,7*70
$GAGSV,2,2,07,30,38,273,41,34,56,312,46,36,50,054,42,7*4E
$GAGSV,1,1,03,04,07,035,,11,07,081,,27,10,323,,0*4A
$GBGSV,3,1,11,01,43,152,43,02,28,236,36,03,44,206,43,04,35,132,37,1*7F
$GBGSV,3,2,11,07,62,216,41,08,53,266,39,10,63,245,43,11,35,096,32,1*7A
$GBGSV,3,3,11,13,44,259,46,14,62,109,43,28,51,316,44,1*4C
$GBGSV,3,1,09,01,43,152,40,03,44,206,42,04,35,132,38,07,62,216,32,3*74
$GBGSV,3,2,09,08,53,266,40,10,63,245,38,11,35,096,30,13,44,259,37,3*7A
$GBGSV,3,3,09,14,62,109,45,3*45
$GNRMC,045115.00,A,3726.9698499,N,12639.3714209,E,0.010,,220622,,,R,V*0B
$GNVTG,,T,,M,0.010,N,0.018,K,D*30
$GNGNS,045115.00,3726.9698499,N,12639.3714209,E,RRRR,28,0.58,21.826,17.842,11.0,4095,V*3F
$GNGGA,045115.00,3726.9698499,N,12639.3714209,E,4,12,0.58,21.826,M,17.842,M,11.0,4095*63
$GNGSA,A,3,06,19,11,17,12,02,,,,,,,1.19,0.58,1.04,1*09
$GNGSA,A,3,71,78,88,72,87,65,,,,,,,1.19,0.58,1.04,2*03
$GNGSA,A,3,02,34,05,36,30,,,,,,,,1.19,0.58,1.04,3*04
$GNGSA,A,3,07,04,01,10,28,02,08,11,14,13,03,,1.19,0.58,1.04,4*02
$GPGSV,3,1,10,02,19,279,34,06,57,307,46,11,23,273,34,12,18,316,35,1*6C
$GPGSV,3,2,10,17,70,107,47,19,78,357,44,20,13,225,32,28,,,42,1*5E
$GPGSV,3,3,10,41,27,238,39,50,47,179,43,1*68
$GPGSV,2,1,05,06,57,307,43,09,29,122,18,11,23,273,17,12,18,316,27,6*62
$GPGSV,2,2,05,17,70,107,38,6*5A
$GPGSV,1,1,01,14,19,185,,0*55
$GLGSV,2,1,07,65,39,163,42,71,22,033,35,72,56,083,46,77,12,228,20,1*71
$GLGSV,2,2,07,78,24,284,38,87,55,028,45,88,37,319,46,1*4A
$GLGSV,2,1,06,65,39,163,34,71,22,033,21,72,56,083,40,77,12,228,21,3*71
$GLGSV,2,2,06,78,24,284,18,88,37,319,38,3*76
$GLGSV,1,1,02,79,08,333,,86,15,090,,0*7D
$GAGSV,2,1,07,02,29,209,38,05,29,142,29,09,33,082,26,18,62,308,48,2*74
$GAGSV,2,2,07,30,38,273,41,34,56,312,48,36,50,054,40,2*47
$GAGSV,2,1,07,02,29,209,43,05,29,142,30,15,12,278,33,18,62,308,47,7*77
$GAGSV,2,2,07,30,38,273,41,34,56,312,46,36,50,054,43,7*4F
$GAGSV,1,1,03,04,07,035,,11,07,081,,27,10,323,,0*4A
$GBGSV,3,1,11,01,43,152,43,02,28,236,36,03,44,206,43,04,35,132,37,1*7F
$GBGSV,3,2,11,07,62,216,41,08,53,266,39,10,63,245,43,11,35,096,32,1*7A
$GBGSV,3,3,11,13,44,259,46,14,62,109,43,28,51,316,44,1*4C
$GBGSV,3,1,09,01,43,152,41,03,44,206,40,04,35,132,38,07,62,216,30,3*75
$GBGSV,3,2,09,08,53,266,41,10,63,245,39,11,35,096,29,13,44,259,37,3*72
$GBGSV,3,3,09,14,62,109,44,3*44
$GBGSV,1,1,04,05,08,256,,21,06,036,,23,06,220,,27,04,297,,0*75
$GNRMC,045116.00,A,3726.9698491,N,12639.3714210,E,0.018,,220622,,,R,V*00
$GNVTG,,T,,M,0.018,N,0.034,K,D*36
$GNGNS,045116.00,3726.9698491,N,12639.3714210,E,RRRR,28,0.58,21.834,17.842,12.0,4095,V*3C
$GNGGA,045116.00,3726.9698491,N,12639.3714210,E,4,12,0.58,21.834,M,17.842,M,12.0,4095*60
$GNGSA,A,3,06,19,11,17,12,02,,,,,,,1.19,0.58,1.04,1*09
$GNGSA,A,3,71,78,88,72,87,65,,,,,,,1.19,0.58,1.04,2*03
$GNGSA,A,3,02,34,05,36,30,,,,,,,,1.19,0.58,1.04,3*04
$GNGSA,A,3,07,04,01,10,28,02,08,11,14,13,03,,1.19,0.58,1.04,4*02
$GPGSV,3,1,10,02,19,279,35,06,57,307,46,11,23,273,33,12,18,316,35,1*6A
$GPGSV,3,2,10,17,70,107,47,19,78,357,44,20,13,225,36,28,,,44,1*5C
$GPGSV,3,3,10,41,27,238,39,50,47,179,43,1*68
$GPGSV,2,1,05,06,57,307,43,09,29,122,19,11,23,273,17,12,18,316,27,6*63
$GPGSV,2,2,05,17,70,107,38,6*5A
$GPGSV,1,1,01,14,19,185,,0*55
$GLGSV,2,1,07,65,39,163,43,71,22,033,33,72,56,083,45,77,12,228,19,1*7F
$GLGSV,2,2,07,78,24,284,37,87,55,028,46,88,37,319,45,1*45
$GLGSV,2,1,06,65,39,163,33,71,22,033,22,72,56,083,40,77,12,228,20,3*74
$GLGSV,2,2,06,78,24,284,19,88,37,319,38,3*77
$GLGSV,1,1,02,79,08,333,,86,15,090,,0*7D
$GAGSV,2,1,07,02,29,209,38,05,29,142,29,09,33,082,26,18,62,308,48,2*74
$GAGSV,2,2,07,30,38,273,41,34,56,312,48,36,50,054,40,2*47
$GAGSV,2,1,07,02,29,209,42,05,29,142,30,15,12,278,33,18,62,308,47,7*76
$GAGSV,2,2,07,30,38,273,40,34,56,312,46,36,50,054,42,7*4F
$GAGSV,1,1,03,04,07,035,,11,07,081,,27,10,323,,0*4A
$GBGSV,3,1,11,01,43,152,43,02,28,236,36,03,44,206,43,04,35,132,37,1*7F
$GBGSV,3,2,11,07,62,216,41,08,53,266,39,10,63,245,43,11,35,096,32,1*7A
$GBGSV,3,3,11,13,44,259,45,14,62,109,43,28,51,316,44,1*4F
$GBGSV,3,1,09,01,43,152,41,03,44,206,40,04,35,132,38,07,62,216,30,3*75
$GBGSV,3,2,09,08,53,266,41,10,63,245,39,11,35,096,29,13,44,259,38,3*7D
$GBGSV,3,3,09,14,62,109,45,3*45
$GBGSV,1,1,04,05,08,256,,21,06,036,,23,06,220,,27,04,297,,0*75
$GNRMC,045117.00,A,3726.9698473,N,12639.3714220,E,0.021,,220622,,,R,V*04
$GNVTG,,T,,M,0.021,N,0.038,K,D*30
$GNGNS,045117.00,3726.9698473,N,12639.3714220,E,RRRR,28,0.58,21.834,17.842,13.0,4095,V*33
$GNGGA,045117.00,3726.9698473,N,12639.3714220,E,4,12,0.58,21.834,M,17.842,M,13.0,4095*6F
$GNGSA,A,3,06,19,11,17,12,02,,,,,,,1.19,0.58,1.04,1*09
$GNGSA,A,3,71,78,88,72,87,65,,,,,,,1.19,0.58,1.04,2*03
$GNGSA,A,3,02,34,05,36,30,,,,,,,,1.19,0.58,1.04,3*04
$GNGSA,A,3,07,04,01,10,28,02,08,11,14,13,03,,1.19,0.58,1.04,4*02
$GPGSV,3,1,10,02,19,279,35,06,57,307,46,11,23,273,36,12,18,316,38,1*62
$GPGSV,3,2,10,17,70,107,47,19,78,357,44,20,13,225,33,28,,,43,1*5E
$GPGSV,3,3,10,41,27,238,39,50,47,179,43,1*68
$GPGSV,2,1,05,06,57,307,43,09,29,122,20,11,23,273,20,12,18,316,28,6*62
$GPGSV,2,2,05,17,70,107,38,6*5A
$GPGSV,1,1,01,14,19,185,,0*55
$GLGSV,2,1,07,65,39,163,43,71,22,033,34,72,56,083,46,77,12,228,19,1*7B
$GLGSV,2,2,07,78,24,284,38,87,55,028,46,88,37,319,45,1*4A
$GLGSV,2,1,06,65,39,163,33,71,22,033,22,72,56,083,41,77,12,228,19,3*7F
$GLGSV,2,2,06,78,24,284,22,88,37,319,38,3*7F
$GLGSV,1,1,02,79,08,333,,86,15,090,,0*7D
$GAGSV,2,1,07,02,29,209,39,05,29,142,29,09,33,082,26,18,62,308,48,2*75
$GAGSV,2,2,07,30,38,273,41,34,56,312,48,36,50,054,40,2*47
$GAGSV,2,1,07,02,29,209,42,05,29,142,30,15,12,278,34,18,62,308,48,7*7E
$GAGSV,2,2,07,30,38,273,40,34,56,312,46,36,50,054,42,7*4F
$GAGSV,1,1,03,04,07,035,,11,07,081,,27,10,323,,0*4A
$GBGSV,3,1,11,01,43,152,43,02,28,236,36,03,44,206,43,04,35,132,37,1*7F
$GBGSV,3,2,11,07,62,216,41,08,53,266,39,10,63,245,43,11,35,096,32,1*7A
$GBGSV,3,3,11,13,44,259,45,14,62,109,43,28,51,316,44,1*4F
$GBGSV,3,1,09,01,43,152,41,03,44,206,40,04,35,132,38,07,62,216,29,3*7D
$GBGSV,3,2,09,08,53,266,41,10,63,245,39,11,35,096,30,13,44,259,38,3*75
$GBGSV,3,3,09,14,62,109,45,3*45
$GBGSV,1,1,04,05,08,256,,21,06,036,,23,06,220,,27,04,297,,0*75
$GNRMC,045118.00,A,3726.9698459,N,12639.3714214,E,0.019,,220622,,,R,V*0F
$GNVTG,,T,,M,0.019,N,0.036,K,D*35
$GNGNS,045118.00,3726.9698459,N,12639.3714214,E,RRRR,28,0.58,21.845,17.842,14.0,4095,V*32
$GNGGA,045118.00,3726.9698459,N,12639.3714214,E,4,12,0.58,21.845,M,17.842,M,14.0,4095*6E
$GNGSA,A,3,06,19,11,17,12,02,,,,,,,1.19,0.58,1.04,1*09
$GNGSA,A,3,71,78,88,72,87,65,,,,,,,1.19,0.58,1.04,2*03
$GNGSA,A,3,02,34,05,36,30,,,,,,,,1.19,0.58,1.04,3*04
$GNGSA,A,3,07,04,01,10,28,02,08,11,14,13,03,,1.19,0.58,1.04,4*02
$GPGSV,3,1,10,02,19,279,37,06,57,307,46,11,23,273,36,12,18,316,37,1*6F
$GPGSV,3,2,10,17,70,107,47,19,78,357,44,20,13,225,33,28,,,43,1*5E
$GPGSV,3,3,10,41,27,238,39,50,47,179,43,1*68
$GPGSV,2,1,05,06,57,307,43,09,29,122,20,11,23,273,21,12,18,316,28,6*63
$GPGSV,2,2,05,17,70,107,38,6*5A
$GPGSV,1,1,01,14,19,185,,0*55
$GLGSV,2,1,07,65,39,163,43,71,22,033,34,72,56,083,46,77,12,228,18,1*7A
$GLGSV,2,2,07,78,24,284,35,87,55,028,45,88,37,319,45,1*44
$GLGSV,2,1,06,65,39,163,33,71,22,033,22,72,56,083,40,77,12,228,18,3*7F
$GLGSV,2,2,06,78,24,284,23,88,37,319,35,3*73
$GLGSV,1,1,02,79,08,333,,86,15,090,,0*7D
$GAGSV,2,1,07,02,29,209,39,05,29,142,29,09,33,082,26,18,62,308,48,2*75
$GAGSV,2,2,07,30,38,273,41,34,56,312,48,36,50,054,40,2*47
$GAGSV,2,1,07,02,29,209,43,05,29,142,30,15,12,278,34,18,62,308,48,7*7F
$GAGSV,2,2,07,30,38,273,39,34,56,312,46,36,50,054,42,7*41
$GAGSV,1,1,03,04,07,035,,11,07,081,,27,10,323,,0*4A
$GBGSV,3,1,11,01,43,152,43,02,28,236,36,03,44,206,43,04,35,132,37,1*7F
$GBGSV,3,2,11,07,62,216,41,08,53,266,40,10,63,245,43,11,35,096,32,1*74
$GBGSV,3,3,11,13,44,259,45,14,62,109,43,28,51,316,44,1*4F
$GBGSV,3,1,09,01,43,152,40,03,44,206,40,04,35,132,38,07,62,216,29,3*7C
$GBGSV,3,2,09,08,53,266,41,10,63,245,39,11,35,096,31,13,44,259,38,3*74
$GBGSV,3,3,09,14,62,109,45,3*45
$GBGSV,1,1,04,05,08,256,,21,06,036,,23,06,220,,27,04,297,,0*75
$GNRMC,045119.00,A,3726.9698482,N,12639.3714220,E,0.021,,220622,,,R,V*04
$GNVTG,,T,,M,0.021,N,0.038,K,D*30
$GNGNS,045119.00,3726.9698482,N,12639.3714220,E,RRRR,28,0.58,21.844,17.842,15.0,4095,V*32
$GNGGA,045119.00,3726.9698482,N,12639.3714220,E,4,12,0.58,21.844,M,17.842,M,15.0,4095*6E
$GNGSA,A,3,06,19,11,17,12,02,,,,,,,1.19,0.58,1.04,1*09
$GNGSA,A,3,71,78,88,72,87,65,,,,,,,1.19,0.58,1.04,2*03
$GNGSA,A,3,02,34,05,36,30,,,,,,,,1.19,0.58,1.04,3*04
$GNGSA,A,3,07,04,01,10,28,02,08,11,14,13,03,,1.19,0.58,1.04,4*02
$GPGSV,3,1,11,02,19,279,31,06,57,307,46,09,29,122,27,11,23,273,37,1*65
$GPGSV,3,2,11,12,18,316,36,17,70,107,47,19,78,357,44,20,13,225,33,1*69
$GPGSV,3,3,11,28,,,42,41,27,238,37,50,47,179,43,1*6B
$GPGSV,2,1,05,06,57,307,43,09,29,122,20,11,23,273,25,12,18,316,28,6*67
$GPGSV,2,2,05,17,70,107,38,6*5A
$GPGSV,1,1,01,14,19,185,,0*55
$GLGSV,2,1,07,65,39,163,43,71,22,033,34,72,56,083,46,77,12,228,16,1*74
$GLGSV,2,2,07,78,24,284,37,87,55,028,46,88,37,319,45,1*45
$GLGSV,2,1,06,65,39,163,32,71,22,033,21,72,56,083,39,77,12,228,17,3*7C
$GLGSV,2,2,06,78,24,284,30,88,37,319,36,3*72
$GLGSV,1,1,02,79,08,333,,86,15,090,,0*7D
$GAGSV,2,1,07,02,29,209,40,05,29,142,29,09,33,082,26,18,62,308,48,2*7B
$GAGSV,2,2,07,30,38,273,40,34,56,312,48,36,50,054,40,2*46
$GAGSV,2,1,07,02,29,209,43,05,29,142,30,15,13,278,38,18,62,308,48,7*72
$GAGSV,2,2,07,30,38,273,41,34,56,312,46,36,50,054,42,7*4E
$GAGSV,1,1,03,04,07,035,,11,07,081,,27,10,323,,0*4A
$GBGSV,3,1,11,01,43,152,42,02,28,236,33,03,44,206,43,04,35,132,37,1*7B
$GBGSV,3,2,11,07,62,216,40,08,53,266,41,10,63,245,43,11,35,096,32,1*74
$GBGSV,3,3,11,13,44,259,44,14,62,109,43,28,51,316,44,1*4E
$GBGSV,3,1,09,01,43,152,41,03,44,206,40,04,35,132,38,07,62,216,30,3*75
$GBGSV,3,2,09,08,53,266,40,10,63,245,38,11,35,096,30,13,44,259,37,3*7A
$GBGSV,3,3,09,14,62,109,45,3*45
$GNRMC,045120.00,A,3726.9698483,N,12639.3714243,E,0.015,,220622,,,R,V*0D
$GNVTG,,T,,M,0.015,N,0.027,K,D*39
$GNGNS,045120.00,3726.9698483,N,12639.3714243,E,RRRR,28,0.58,21.837,17.842,16.0,4095,V*3B
$GNGGA,045120.00,3726.9698483,N,12639.3714243,E,4,12,0.58,21.837,M,17.842,M,16.0,4095*67
$GNGSA,A,3,06,19,11,17,12,02,,,,,,,1.19,0.58,1.04,1*09
$GNGSA,A,3,71,78,88,72,87,65,,,,,,,1.19,0.58,1.04,2*03
$GNGSA,A,3,02,34,05,36,30,,,,,,,,1.19,0.58,1.04,3*04
$GNGSA,A,3,07,04,01,10,28,02,08,11,14,13,03,,1.19,0.58,1.04,4*02
$GPGSV,3,1,11,02,19,279,32,06,57,307,46,09,29,122,27,11,23,273,37,1*66
$GPGSV,3,2,11,12,18,316,36,17,70,107,46,19,78,357,44,20,13,225,34,1*6F
$GPGSV,3,3,11,28,,,42,41,27,238,38,50,47,179,43,1*64
$GPGSV,2,1,05,06,57,307,44,09,29,122,20,11,23,273,29,12,18,316,28,6*6C
$GPGSV,2,2,05,17,70,107,38,6*5A
$GPGSV,1,1,01,14,19,185,,0*55
$GLGSV,2,1,07,65,39,163,43,71,22,033,33,72,56,083,46,77,12,228,15,1*70
$GLGSV,2,2,07,78,24,284,38,87,55,028,46,88,37,319,45,1*4A
$GLGSV,2,1,06,65,39,163,32,71,22,033,22,72,56,083,40,77,12,228,16,3*70
$GLGSV,2,2,06,78,24,284,31,88,37,319,36,3*73
$GLGSV,1,1,02,79,08,333,,86,15,090,,0*7D
$GAGSV,2,1,08,02,29,209,38,05,29,142,29,09,33,082,25,15,13,278,35,2*7F
$GAGSV,2,2,08,18,62,308,48,30,38,273,42,34,56,312,48,36,50,054,40,2*71
$GAGSV,2,1,07,02,29,209,40,05,29,142,30,15,13,278,37,18,62,308,48,7*7E
$GAGSV,2,2,07,30,38,273,40,34,56,312,46,36,50,054,42,7*4F
$GAGSV,1,1,03,04,07,035,,11,07,081,,27,10,323,,0*4A
$GBGSV,3,1,11,01,43,152,42,02,28,236,36,03,44,206,43,04,35,132,37,1*7E
$GBGSV,3,2,11,07,62,216,42,08,53,266,40,10,63,245,43,11,35,096,32,1*77
$GBGSV,3,3,11,13,44,259,45,14,62,109,43,28,51,316,44,1*4F
$GBGSV,3,1,09,01,43,152,40,03,44,206,38,04,35,132,38,07,62,216,33,3*78
$GBGSV,3,2,09,08,53,266,41,10,63,245,37,11,35,096,30,13,44,259,39,3*7A
$GBGSV,3,3,09,14,62,109,45,3*45
$GBGSV,1,1,04,05,08,256,,21,06,036,,23,06,220,,27,04,297,,0*75
$GNRMC,045121.00,A,3726.9698490,N,12639.3714262,E,0.029,,220622,,,R,V*02
$GNVTG,,T,,M,0.029,N,0.055,K,D*33
$GNGNS,045121.00,3726.9698490,N,12639.3714262,E,RRRR,28,0.58,21.843,17.842,17.0,4095,V*39
$GNGGA,045121.00,3726.9698490,N,12639.3714262,E,4,12,0.58,21.843,M,17.842,M,17.0,4095*65
$GNGSA,A,3,06,19,11,17,12,02,,,,,,,1.19,0.58,1.04,1*09
$GNGSA,A,3,71,78,88,72,87,65,,,,,,,1.19,0.58,1.04,2*03
$GNGSA,A,3,02,34,05,36,30,,,,,,,,1.19,0.58,1.04,3*04
$GNGSA,A,3,07,04,01,10,28,02,08,11,14,13,03,,1.19,0.58,1.04,4*02
$GPGSV,3,1,11,02,19,279,33,06,57,307,46,09,29,122,26,11,23,273,39,1*68
$GPGSV,3,2,11,12,18,316,36,17,70,107,46,19,78,357,44,20,13,225,37,1*6C
$GPGSV,3,3,11,28,,,44,41,27,238,37,50,47,179,44,1*6A
$GPGSV,2,1,05,06,57,307,43,09,29,122,21,11,23,273,29,12,18,316,28,6*6A
$GPGSV,2,2,05,17,70,107,38,6*5A
$GPGSV,1,1,01,14,19,185,,0*55
$GLGSV,2,1,07,65,39,163,43,71,22,033,34,72,56,083,45,77,12,228,16,1*77
$GLGSV,2,2,07,78,24,284,38,87,55,028,46,88,37,319,45,1*4A
$GLGSV,2,1,06,65,39,163,32,71,22,033,22,72,56,083,39,77,12,228,15,3*7D
$GLGSV,2,2,06,78,24,284,31,88,37,319,36,3*73
$GLGSV,1,1,02,79,08,333,,86,15,090,,0*7D
$GAGSV,2,1,08,02,29,209,39,05,29,142,29,09,33,082,25,15,13,278,35,2*7E
$GAGSV,2,2,08,18,62,308,48,30,38,273,41,34,56,312,48,36,50,054,40,2*72
$GAGSV,2,1,07,02,29,209,44,05,29,142,30,15,13,278,37,18,62,308,48,7*7A
$GAGSV,2,2,07,30,38,273,40,34,56,312,46,36,50,054,43,7*4E
$GAGSV,1,1,03,04,07,035,,11,07,081,,27,10,323,,0*4A
$GBGSV,3,1,11,01,43,152,42,02,28,236,34,03,44,206,42,04,35,132,37,1*7D
$GBGSV,3,2,11,07,62,216,41,08,53,266,40,10,63,245,43,11,35,096,32,1*74
$GBGSV,3,3,11,13,44,259,45,14,62,109,43,28,51,316,44,1*4F
$GBGSV,3,1,09,01,43,152,41,03,44,206,40,04,35,132,38,07,62,216,29,3*7D
$GBGSV,3,2,09,08,53,266,40,10,63,245,38,11,35,096,29,13,44,259,38,3*7D
$GBGSV,3,3,09,14,62,109,45,3*45
$GBGSV,1,1,04,05,08,256,,21,06,036,,23,06,220,,27,04,297,,0*75
$GNRMC,045122.00,A,3726.9698459,N,12639.3714263,E,0.020,,220622,,,R,V*0C
$GNVTG,,T,,M,0.020,N,0.036,K,D*3F
$GNGNS,045122.00,3726.9698459,N,12639.3714263,E,RRRR,28,0.58,21.827,17.842,18.0,4095,V*33
$GNGGA,045122.00,3726.9698459,N,12639.3714263,E,4,12,0.58,21.827,M,17.842,M,18.0,4095*6F
$GNGSA,A,3,06,19,11,17,12,02,,,,,,,1.19,0.58,1.04,1*09
$GNGSA,A,3,71,78,88,72,87,65,,,,,,,1.19,0.58,1.04,2*03
$GNGSA,A,3,02,34,05,36,30,,,,,,,,1.19,0.58,1.04,3*04
$GNGSA,A,3,07,04,01,10,28,02,08,11,14,13,03,,1.19,0.58,1.04,4*02
$GPGSV,3,1,10,02,19,279,32,06,57,307,46,09,29,122,28,11,23,273,37,1*68
$GPGSV,3,2,10,12,18,316,38,17,70,107,46,19,78,357,44,28,,,43,1*5F
$GPGSV,3,3,10,41,27,238,38,50,47,179,43,1*69
$GPGSV,2,1,05,06,57,307,44,09,29,122,21,11,23,273,29,12,18,316,28,6*6D
$GPGSV,2,2,05,17,70,107,38,6*5A
$GPGSV,1,1,02,14,19,185,,20,13,225,,0*63
$GLGSV,2,1,07,65,39,163,42,71,22,033,33,72,56,083,46,77,12,228,16,1*72
$GLGSV,2,2,07,78,24,284,36,87,55,028,46,88,37,319,46,1*47
$GLGSV,2,1,06,65,39,163,32,71,22,033,22,72,56,083,39,77,12,228,16,3*7E
$GLGSV,2,2,06,78,24,284,31,88,37,319,36,3*73
$GLGSV,1,1,02,79,08,333,,86,15,090,,0*7D
$GAGSV,2,1,08,02,29,209,34,05,29,142,29,09,34,081,25,15,13,278,34,2*76
$GAGSV,2,2,08,18,62,308,48,30,38,273,42,34,56,312,48,36,50,054,40,2*71
$GAGSV,2,1,07,02,29,209,44,05,29,142,30,15,13,278,37,18,62,308,48,7*7A
$GAGSV,2,2,07,30,38,273,41,34,56,312,46,36,50,054,42,7*4E
$GAGSV,1,1,03,04,07,035,,11,07,082,,27,10,323,,0*49
$GBGSV,3,1,11,01,43,152,43,02,28,236,34,03,44,206,42,04,35,132,37,1*7C
$GBGSV,3,2,11,07,62,216,41,08,53,266,40,10,63,245,43,11,35,096,32,1*74
$GBGSV,3,3,11,13,44,259,46,14,62,109,43,28,51,316,44,1*4C
$GBGSV,3,1,09,01,43,152,41,03,44,206,40,04,35,132,38,07,62,216,34,3*71
$GBGSV,3,2,09,08,53,266,41,10,63,245,38,11,35,096,30,13,44,259,38,3*74
$GBGSV,3,3,09,14,62,109,45,3*45
$GBGSV,1,1,04,05,08,256,,21,06,036,,23,06,220,,27,04,297,,0*75
$GNRMC,045123.00,A,3726.9698469,N,12639.3714263,E,0.036,,220622,,,R,V*09
$GNVTG,,T,,M,0.036,N,0.066,K,D*3D
$GNGNS,045123.00,3726.9698469,N,12639.3714263,E,RRRR,28,0.58,21.842,17.842,19.0,4095,V*33
$GNGGA,045123.00,3726.9698469,N,12639.3714263,E,4,12,0.58,21.842,M,17.842,M,19.0,4095*6F
$GNGSA,A,3,06,19,11,17,12,02,,,,,,,1.19,0.58,1.04,1*09
$GNGSA,A,3,71,78,88,72,87,65,,,,,,,1.19,0.58,1.04,2*03
$GNGSA,A,3,02,34,05,36,30,,,,,,,,1.19,0.58,1.04,3*04
$GNGSA,A,3,07,04,01,10,28,02,08,11,14,13,03,,1.19,0.58,1.04,4*02
$GPGSV,3,1,11,02,19,279,32,06,57,307,47,09,29,122,27,11,23,273,35,1*65
$GPGSV,3,2,11,12,18,316,33,17,70,107,47,19,78,357,44,20,13,225,40,1*68
$GPGSV,3,3,11,28,,,38,41,27,238,40,50,47,179,41,1*64
$GPGSV,2,1,05,06,57,307,44,09,29,122,21,11,23,273,29,12,18,316,29,6*6C
$GPGSV,2,2,05,17,70,107,38,6*5A
$GPGSV,1,1,01,14,19,185,,0*55
$GLGSV,2,1,07,65,39,163,43,71,22,033,32,72,56,083,46,77,12,228,16,1*72
$GLGSV,2,2,07,78,24,284,36,87,55,028,46,88,37,319,45,1*44
$GLGSV,2,1,06,65,39,163,32,71,22,033,23,72,56,083,39,77,12,228,19,3*70
$GLGSV,2,2,06,78,24,284,30,88,37,319,36,3*72
$GLGSV,1,1,02,79,08,333,,86,15,090,,0*7D
$GAGSV,2,1,08,02,29,209,33,05,29,142,29,09,34,081,25,15,13,278,34,2*71
$GAGSV,2,2,08,18,62,308,48,30,38,273,41,34,56,312,48,36,50,054,42,2*70
$GAGSV,2,1,07,02,29,209,41,05,29,142,30,15,13,278,37,18,62,308,48,7*7F
$GAGSV,2,2,07,30,38,273,41,34,56,312,47,36,50,054,43,7*4E
$GAGSV,1,1,03,04,07,035,,11,07,082,,27,10,323,,0*49
$GBGSV,3,1,11,01,43,152,43,02,28,236,36,03,44,206,40,04,35,132,37,1*7C
$GBGSV,3,2,11,07,62,216,42,08,53,266,40,10,63,245,44,11,35,096,33,1*71
$GBGSV,3,3,11,13,44,259,45,14,62,109,43,28,51,316,45,1*4E
$GBGSV,3,1,09,01,43,152,41,03,44,206,38,04,35,132,38,07,62,216,36,3*7C
$GBGSV,3,2,09,08,53,266,41,10,63,245,39,11,35,096,29,13,44,259,36,3*73
$GBGSV,3,3,09,14,62,109,45,3*45
$GBGSV,1,1,04,05,08,256,,21,06,036,,23,06,220,,27,04,297,,0*75
$GNRMC,045124.00,A,3726.9698465,N,12639.3714237,E,0.010,,220622,,,R,V*07
$GNVTG,,T,,M,0.010,N,0.019,K,D*31
$GNGNS,045124.00,3726.9698465,N,12639.3714237,E,RRRR,28,0.58,21.844,17.842,20.0,4095,V*35
$GNGGA,045124.00,3726.9698465,N,12639.3714237,E,4,12,0.58,21.844,M,17.842,M,20.0,4095*69
$GNGSA,A,3,06,19,11,17,12,02,,,,,,,1.19,0.58,1.04,1*09
$GNGSA,A,3,71,78,88,72,87,65,,,,,,,1.19,0.58,1.04,2*03
$GNGSA,A,3,02,34,05,36,30,,,,,,,,1.19,0.58,1.04,3*04
$GNGSA,A,3,07,04,01,10,28,02,08,11,14,13,03,,1.19,0.58,1.04,4*02
$GPGSV,3,1,11,02,19,279,36,06,57,307,47,09,29,122,27,11,23,273,37,1*63
$GPGSV,3,2,11,12,18,316,36,17,70,107,47,19,78,357,44,20,13,225,35,1*6F
$GPGSV,3,3,11,28,,,43,41,27,238,40,50,47,179,44,1*6D
$GPGSV,1,1,01,14,19,185,16,5*57
$GPGSV,2,1,05,06,57,307,44,09,29,122,21,11,23,273,30,12,18,316,29,6*64
$GPGSV,2,2,05,17,70,107,38,6*5A
$GLGSV,2,1,07,65,39,163,41,71,22,033,32,72,56,083,46,77,12,228,20,1*75
$GLGSV,2,2,07,78,24,284,38,87,55,028,46,88,37,319,46,1*49
$GLGSV,2,1,06,65,39,163,33,71,22,033,23,72,56,083,41,77,12,228,22,3*76
$GLGSV,2,2,06,78,24,284,34,88,37,319,38,3*78
$GLGSV,1,1,02,79,08,333,,86,15,090,,0*7D
$GAGSV,2,1,08,02,29,209,38,05,29,142,29,09,34,081,25,15,13,278,33,2*7D
$GAGSV,2,2,08,18,62,308,49,30,38,273,42,34,56,312,48,36,50,054,41,2*71
$GAGSV,2,2,07,30,38,273,41,34,56,312,46,36,50,054,42,7*4E
$GAGSV,1,1,03,04,07,035,,11,07,082,,27,10,323,,0*49
$GBGSV,3,1,11,01,43,152,42,02,28,236,36,03,44,206,43,04,35,132,38,1*71
$GBGSV,3,2,11,07,62,216,41,08,53,266,39,10,63,245,43,11,35,096,33,1*7B
$GBGSV,3,3,11,13,44,259,45,14,62,109,43,28,51,316,44,1*4F
$GBGSV,3,1,09,01,43,152,41,03,44,206,41,04,35,132,38,07,62,216,29,3*7C
$GBGSV,3,2,09,08,53,266,42,10,63,245,40,11,35,096,30,13,44,259,37,3*77
$GBGSV,3,3,09,14,62,109,45,3*45
$GNRMC,045125.00,A,3726.9698486,N,12639.3714259,E,0.007,,220622,,,R,V*05
$GNVTG,,T,,M,0.007,N,0.013,K,D*3D
$GNGNS,045125.00,3726.9698486,N,12639.3714259,E,RRRR,28,0.58,21.831,17.842,21.0,4095,V*32
$GNGGA,045125.00,3726.9698486,N,12639.3714259,E,4,12,0.58,21.831,M,17.842,M,21.0,4095*6E
$GNGSA,A,3,06,19,11,17,12,02,,,,,,,1.19,0.58,1.04,1*09
$GNGSA,A,3,71,78,88,72,87,65,,,,,,,1.19,0.58,1.04,2*03
$GNGSA,A,3,02,34,05,36,30,,,,,,,,1.19,0.58,1.04,3*04
$GNGSA,A,3,07,04,01,10,28,02,08,11,14,13,03,,1.19,0.58,1.04,4*02
$GPGSV,3,1,11,02,19,279,35,06,57,307,46,09,29,122,27,11,23,273,35,1*63
$GPGSV,3,2,11,12,18,316,36,17,70,107,46,19,78,357,44,20,13,225,35,1*6E
$GPGSV,3,3,11,28,,,43,41,27,238,40,50,47,179,44,1*6D
$GPGSV,2,1,06,06,57,307,44,09,29,122,21,11,23,273,31,12,18,316,29,6*66
$GPGSV,2,2,06,14,19,185,17,17,70,107,38,6*6E
$GLGSV,2,1,07,65,39,163,43,71,22,033,33,72,56,083,46,77,12,228,20,1*76
$GLGSV,2,2,07,78,24,284,37,87,55,028,46,88,37,319,46,1*46
$GLGSV,2,1,06,65,39,163,34,71,22,033,23,72,56,083,41,77,12,228,23,3*70
$GLGSV,2,2,06,78,24,284,35,88,37,319,38,3*79
$GLGSV,1,1,02,79,08,333,,86,15,090,,0*7D
$GAGSV,2,1,08,02,29,209,40,05,29,142,29,09,34,081,25,15,13,278,35,2*74
$GAGSV,2,2,08,18,62,308,49,30,38,272,43,34,56,312,48,36,50,054,41,2*71
$GAGSV,2,1,07,02,29,209,43,05,29,142,30,15,13,278,36,18,62,308,48,7*7C
$GAGSV,2,2,07,30,38,272,41,34,56,312,47,36,50,054,42,7*4E
$GAGSV,1,1,03,04,07,035,,11,07,082,,27,10,323,,0*49
$GBGSV,3,1,11,01,43,152,43,02,28,236,36,03,44,206,43,04,35,132,38,1*70
$GBGSV,3,2,11,07,62,216,41,08,53,266,39,10,63,245,42,11,35,096,32,1*7B
$GBGSV,3,3,11,13,44,259,45,14,62,109,43,28,51,316,44,1*4F
$GBGSV,3,1,09,01,43,152,41,03,44,206,41,04,35,132,38,07,62,216,30,3*74
$GBGSV,3,2,09,08,53,266,41,10,63,245,40,11,35,096,31,13,44,259,37,3*75
$GBGSV,3,3,09,14,62,109,45,3*45
$GBGSV,1,1,04,05,08,256,,21,06,036,,23,06,220,,27,04,297,,0*75
$GNRMC,045126.00,A,3726.9698521,N,12639.3714254,E,0.018,,220622,,,R,V*09
$GNVTG,,T,,M,0.018,N,0.034,K,D*36
$GNGNS,045126.00,3726.9698521,N,12639.3714254,E,RRRR,28,0.58,21.825,17.842,22.0,4095,V*36
$GNGGA,045126.00,3726.9698521,N,12639.3714254,E,4,12,0.58,21.825,M,17.842,M,22.0,4095*6A
$GNGSA,A,3,06,19,11,17,12,02,,,,,,,1.19,0.58,1.04,1*09
$GNGSA,A,3,71,78,88,72,87,65,,,,,,,1.19,0.58,1.04,2*03
$GNGSA,A,3,02,34,05,36,30,,,,,,,,1.19,0.58,1.04,3*04
$GNGSA,A,3,07,04,01,10,28,02,08,11,14,13,03,,1.19,0.58,1.04,4*02
$GPGSV,3,1,11,02,19,279,36,06,57,307,47,09,29,122,26,11,23,273,37,1*62
$GPGSV,3,2,11,12,18,316,37,17,70,107,46,19,78,357,44,20,13,225,34,1*6E
$GPGSV,3,3,11,28,,,43,41,27,238,41,50,47,179,43,1*6B
