$GNRMC,045321.00,A,3726.9698536,N,12639.3714330,E,0.018,,220622,,,R,V*09
$GNVTG,,T,,M,0.018,N,0.033,K,D*31
$GNGNS,045321.00,3726.9698536,N,12639.3714330,E,RRRR,27,0.72,21.803,17.842,2.0,4095,V*07
$GNGGA,045321.00,3726.9698536,N,12639.3714330,E,4,12,0.72,21.803,M,17.842,M,2.0,4095*54
$GNGSA,A,3,06,20,19,11,17,02,12,,,,,,1.42,0.72,1.23,1*08
$GNGSA,A,3,78,88,72,87,65,,,,,,,,1.42,0.72,1.23,2*06
$GNGSA,A,3,02,34,05,36,30,15,,,,,,,1.42,0.72,1.23,3*03
$GNGSA,A,3,07,04,01,10,28,08,14,13,03,,,,1.42,0.72,1.23,4*03
$GPGSV,4,1,13,02,20,280,30,06,57,308,46,09,29,121,27,11,24,274,37,1*61
$GPGSV,4,2,13,12,18,316,39,14,18,185,17,17,70,109,43,19,79,000,40,1*6E
$GPGSV,4,3,13,20,14,226,33,28,,,44,41,27,238,40,42,43,151,28,1*59
$GPGSV,4,4,13,50,47,179,44,1*5F
$GPGSV,2,1,05,06,57,308,42,09,29,121,15,11,24,274,35,12,18,316,31,6*65
$GPGSV,2,2,05,17,70,109,35,6*59
$GPGSV,1,1,02,01,03,077,,40,06,259,,0*69
$GLGSV,2,1,06,65,40,163,43,71,21,032,21,72,56,081,40,78,23,283,36,1*77
$GLGSV,2,2,06,87,55,030,44,88,37,320,45,1*76
$GLGSV,2,1,06,65,40,163,33,71,21,032,09,72,56,081,33,77,12,227,25,3*7D
$GLGSV,2,2,06,78,23,283,32,88,37,320,36,3*7A
$GLGSV,1,1,02,79,09,332,,86,15,091,,0*7C
$GAGSV,2,1,07,02,28,209,28,05,30,142,30,15,13,279,33,18,63,308,48,2*78
$GAGSV,2,2,07,30,38,272,35,34,56,314,47,36,50,055,34,2*4E
$GAGSV,2,1,07,02,28,209,47,05,30,142,28,15,13,279,37,18,63,308,48,7*79
$GAGSV,2,2,07,30,38,272,43,34,56,314,45,36,50,055,38,7*44
$GAGSV,1,1,04,04,06,035,,09,34,080,,11,06,082,,27,11,323,,0*79
$GBGSV,3,1,11,01,43,152,44,02,28,236,35,03,44,206,41,04,35,132,39,1*77
$GBGSV,3,2,11,07,61,216,40,08,53,267,39,10,62,245,42,11,34,097,22,1*78
$GBGSV,3,3,11,13,44,260,45,14,62,107,41,28,51,317,43,1*4F
$GBGSV,3,1,09,01,43,152,41,03,44,206,39,04,35,132,38,07,61,216,34,3*7C
$GBGSV,3,2,09,08,53,267,41,10,62,245,40,11,34,097,31,13,44,260,34,3*7C
$GBGSV,3,3,09,14,62,107,42,3*4C
$GBGSV,1,1,04,05,08,256,,21,06,035,,23,06,219,,27,05,297,,0*7D
$GNRMC,045322.00,A,3726.9698459,N,12639.3714281,E,0.015,,220622,,,R,V*04
$GNVTG,,T,,M,0.015,N,0.027,K,D*39
$GNGNS,045322.00,3726.9698459,N,12639.3714281,E,RRRR,27,0.70,21.811,17.842,2.0,4095,V*06
$GNGGA,045322.00,3726.9698459,N,12639.3714281,E,4,12,0.70,21.811,M,17.842,M,2.0,4095*55
$GNGSA,A,3,06,20,19,11,17,09,12,,,,,,1.38,0.70,1.20,1*0F
$GNGSA,A,3,78,88,72,87,65,,,,,,,,1.38,0.70,1.20,2*0A
$GNGSA,A,3,02,34,05,36,30,15,,,,,,,1.38,0.70,1.20,3*0F
$GNGSA,A,3,07,04,01,10,28,08,14,13,03,,,,1.38,0.70,1.20,4*0F
$GPGSV,4,1,13,02,20,280,34,06,57,308,46,09,29,121,27,11,24,274,37,1*65
$GPGSV,4,2,13,12,18,316,39,14,18,185,17,17,70,109,43,19,79,000,40,1*6E
$GPGSV,4,3,13,20,14,226,33,28,,,43,41,27,238,40,42,43,151,27,1*51
$GPGSV,4,4,13,50,47,179,45,1*5E
$GPGSV,2,1,05,06,57,308,43,09,29,121,17,11,24,274,38,12,18,316,31,6*6B
$GPGSV,2,2,05,17,70,109,36,6*5A
$GPGSV,1,1,02,01,03,077,,40,06,259,,0*69
$GLGSV,2,1,06,65,40,163,44,71,21,032,21,72,56,081,40,78,23,283,36,1*70
$GLGSV,2,2,06,87,55,030,44,88,37,320,46,1*75
$GLGSV,2,1,06,65,40,163,34,71,21,032,14,72,56,081,35,77,12,227,25,3*70
$GLGSV,2,2,06,78,23,283,31,88,37,320,37,3*78
$GLGSV,1,1,02,79,09,332,,86,15,091,,0*7C
$GAGSV,2,1,08,02,28,209,28,05,30,142,29,09,34,080,22,15,13,279,36,2*77
$GAGSV,2,1,07,02,28,209,44,05,30,142,29,15,13,279,39,18,63,308,47,7*7A
$GAGSV,2,2,07,30,38,272,43,34,56,314,45,36,50,055,38,7*44
$GAGSV,1,1,03,04,06,035,,11,06,082,,27,11,323,,0*48
$GBGSV,3,1,11,01,43,152,44,02,28,236,35,03,44,206,41,04,35,132,39,1*77
$GNRMC,045323.00,A,3726.9698513,N,12639.3714349,E,0.024,,220622,,,R,V*0D
$GNVTG,,T,,M,0.024,N,0.045,K,D*3F
$GNGNS,045323.00,3726.9698513,N,12639.3714349,E,RRRR,27,0.70,21.791,17.842,2.0,4095,V*0A
$GNGGA,045323.00,3726.9698513,N,12639.3714349,E,4,12,0.70,21.791,M,17.842,M,2.0,4095*59
$GNGSA,A,3,06,20,19,11,17,09,12,,,,,,1.38,0.70,1.20,1*0F
$GNGSA,A,3,78,88,72,87,65,,,,,,,,1.38,0.70,1.20,2*0A
$GNGSA,A,3,02,34,05,36,30,15,,,,,,,1.38,0.70,1.20,3*0F
$GNGSA,A,3,07,04,01,10,28,08,14,13,03,,,,1.38,0.70,1.20,4*0F
$GPGSV,3,1,12,02,20,280,29,06,57,308,47,09,29,121,27,11,24,274,37,1*6E
$GPGSV,3,2,12,12,18,316,37,14,18,185,16,17,70,109,42,19,79,000,41,1*67
$GPGSV,3,3,12,20,14,226,32,28,,,45,41,27,238,40,50,47,179,45,1*59
$GPGSV,2,1,05,06,57,308,43,09,29,121,15,11,24,274,36,12,18,316,29,6*6E
$GPGSV,2,2,05,17,70,109,36,6*5A
$GPGSV,1,1,02,01,03,077,,40,06,259,,0*69
$GLGSV,2,1,06,65,40,163,43,71,21,032,22,72,56,081,40,78,23,283,37,1*75
$GLGSV,2,2,06,87,55,030,43,88,37,320,46,1*72
$GLGSV,2,1,06,65,40,163,34,71,21,032,16,72,56,081,35,77,12,227,26,3*71
$GLGSV,2,2,06,78,23,283,30,88,37,320,39,3*77
$GLGSV,1,1,02,79,09,332,,86,15,091,,0*7C
$GAGSV,2,1,08,02,28,209,35,05,30,142,30,09,34,080,22,15,13,279,34,2*71
$GAGSV,2,2,08,18,64,308,48,30,38,272,37,34,56,314,47,36,50,055,34,2*7F
$GAGSV,2,1,07,02,28,209,47,05,30,142,28,15,13,279,36,18,64,308,48,7*7F
$GAGSV,2,2,07,30,38,272,43,34,56,314,46,36,50,055,38,7*47
$GAGSV,1,1,03,04,06,035,,11,06,082,,27,11,323,,0*48
$GBGSV,3,1,11,01,43,152,44,02,28,236,35,03,44,206,41,04,35,132,39,1*77
$GBGSV,3,2,11,07,61,216,41,08,53,267,38,10,62,245,41,11,34,097,21,1*78
$GBGSV,3,3,11,13,44,260,45,14,62,107,40,28,51,317,44,1*49
$GBGSV,3,1,09,01,43,152,43,03,44,206,41,04,35,132,40,07,61,216,34,3*7E
$GBGSV,3,2,09,08,53,267,41,10,62,245,41,11,34,097,31,13,44,260,37,3*7E
$GBGSV,3,3,09,14,62,107,44,3*4A
$GBGSV,1,1,04,05,08,256,,21,06,035,,23,06,219,,27,05,297,,0*7D
$GNRMC,045324.00,A,3726.9698462,N,12639.3714341,E,0.011,,220622,,,R,V*03
$GNVTG,,T,,M,0.011,N,0.021,K,D*3B
$GNGNS,045324.00,3726.9698462,N,12639.3714341,E,RRRR,27,0.70,21.803,17.842,2.0,4095,V*06
$GNGGA,045324.00,3726.9698462,N,12639.3714341,E,4,12,0.70,21.803,M,17.842,M,2.0,4095*55
$GNGSA,A,3,06,20,19,11,17,09,12,,,,,,1.38,0.70,1.20,1*0F
$GNGSA,A,3,78,88,72,87,65,,,,,,,,1.38,0.70,1.20,2*0A
$GNGSA,A,3,02,34,05,36,30,15,,,,,,,1.38,0.70,1.20,3*0F
$GNGSA,A,3,07,04,01,10,28,08,14,13,03,,,,1.38,0.70,1.20,4*0F
$GPGSV,3,2,12,12,18,316,36,14,18,185,16,17,70,109,40,19,79,000,40,1*65
$GPGSV,3,3,12,20,14,226,33,28,,,44,41,27,238,38,50,47,179,44,1*57
$GPGSV,1,1,01,14,18,185,15,5*55
$GPGSV,2,1,05,06,57,308,44,09,29,121,16,11,24,274,36,12,18,316,29,6*6A
$GPGSV,2,2,05,17,70,109,37,6*5B
$GPGSV,1,1,02,01,03,077,,40,06,259,,0*69
$GLGSV,2,1,06,65,40,163,43,71,21,032,22,72,56,081,41,78,23,283,37,1*74
$GLGSV,2,2,06,87,55,030,44,88,37,320,47,1*74
$GLGSV,2,1,06,65,40,163,35,71,21,032,18,72,56,081,35,77,12,227,26,3*7E
$GLGSV,2,2,06,78,23,283,31,88,37,320,39,3*76
$GLGSV,1,1,02,79,09,332,,86,15,091,,0*7C
$GAGSV,2,1,08,02,28,209,26,05,30,142,31,09,34,080,23,15,13,279,33,2*74
$GAGSV,2,2,08,18,64,308,49,30,38,272,39,34,56,314,48,36,50,055,33,2*78
$GAGSV,2,1,07,02,28,209,45,05,30,142,28,15,13,279,35,18,64,308,48,7*7E
$GAGSV,2,2,07,30,38,272,41,34,56,314,46,36,50,055,38,7*45
$GNRMC,045325.00,A,3726.9698516,N,12639.3714293,E,0.036,,220622,,,R,V*0B
$GNVTG,,T,,M,0.036,N,0.067,K,D*3C
$GNGNS,045325.00,3726.9698516,N,12639.3714293,E,RRRR,27,0.70,21.804,17.842,2.0,4095,V*0C
$GNGGA,045325.00,3726.9698516,N,12639.3714293,E,4,12,0.70,21.804,M,17.842,M,2.0,4095*5F
$GNGSA,A,3,06,20,19,11,17,09,12,,,,,,1.38,0.70,1.20,1*0F
$GNGSA,A,3,78,88,72,87,65,,,,,,,,1.38,0.70,1.20,2*0A
$GNGSA,A,3,02,34,05,36,30,15,,,,,,,1.38,0.70,1.20,3*0F
$GNGSA,A,3,07,04,01,10,28,08,14,13,03,,,,1.38,0.70,1.20,4*0F
$GPGSV,3,1,11,06,57,308,47,09,29,121,27,11,24,274,36,12,18,316,37,1*67
$GPGSV,3,2,11,14,18,185,17,17,70,109,41,19,79,000,42,20,14,226,32,1*6F
$GPGSV,3,3,11,28,,,45,41,27,238,38,50,47,179,44,1*64
$GPGSV,2,1,06,06,57,308,44,09,29,121,18,11,24,274,33,12,18,316,28,6*63
$GPGSV,2,2,06,14,18,185,16,17,70,109,38,6*60
$GPGSV,1,1,03,01,03,077,,02,20,280,,40,06,259,,0*52
$GLGSV,2,1,06,65,40,163,42,71,21,032,23,72,56,081,41,78,23,283,39,1*7A
$GLGSV,2,2,06,87,55,030,43,88,37,320,47,1*73
$GLGSV,2,1,06,65,40,163,36,71,21,032,19,72,56,081,35,77,12,227,25,3*7F
$GLGSV,2,2,06,78,23,283,31,88,37,320,39,3*76
$GLGSV,1,1,02,79,09,332,,86,15,091,,0*7C
$GAGSV,2,1,08,02,28,209,32,05,30,142,31,09,34,080,22,15,13,279,34,2*77
$GAGSV,2,2,08,18,64,308,48,30,38,272,39,34,56,314,48,36,49,055,32,2*70
$GAGSV,2,1,07,02,28,209,45,05,30,142,29,15,13,279,35,18,64,308,48,7*7F
$GAGSV,2,2,07,30,38,272,41,34,56,314,45,36,49,055,38,7*4E
$GAGSV,1,1,03,04,06,035,,11,06,082,,27,11,323,,0*48
$GBGSV,3,1,11,01,43,152,43,02,28,236,35,03,44,206,40,04,35,132,37,1*7F
$GBGSV,3,2,11,07,61,216,41,08,53,267,35,10,62,245,41,11,34,097,21,1*75
$GBGSV,3,3,11,13,44,260,44,14,62,107,40,28,51,317,42,1*4E
$GBGSV,3,1,09,01,43,152,43,03,44,206,39,04,35,132,39,07,61,216,35,3*7E
$GBGSV,3,2,09,08,53,267,39,10,62,245,39,11,34,097,30,13,44,260,35,3*7D
$GBGSV,3,3,09,14,62,107,43,3*4D
$GBGSV,1,1,04,05,08,256,,21,06,035,,23,06,219,,27,05,297,,0*7D
$GNRMC,045326.00,A,3726.9698488,N,12639.3714246,E,0.009,,220622,,,R,V*0A
$GNVTG,,T,,M,0.009,N,0.016,K,D*36
$GNGNS,045326.00,3726.9698488,N,12639.3714246,E,RRRR,27,0.70,21.801,17.842,2.0,4095,V*04
$GNGSA,A,3,06,20,19,11,17,09,12,,,,,,1.38,0.70,1.20,1*0F
$GNGSA,A,3,78,88,72,87,65,,,,,,,,1.38,0.70,1.20,2*0A
$GNGSA,A,3,02,34,05,36,30,15,,,,,,,1.38,0.70,1.20,3*0F
$GNGSA,A,3,07,04,01,10,28,08,14,13,03,,,,1.38,0.70,1.20,4*0F
$GPGSV,3,1,11,02,20,280,30,06,57,308,48,09,29,121,26,11,24,274,35,1*69
$GPGSV,3,2,11,12,18,316,39,17,70,109,41,19,79,000,41,20,14,226,33,1*6F
$GPGSV,3,3,11,28,,,43,41,27,238,41,50,47,179,44,1*6C
$GPGSV,2,1,06,06,57,308,44,09,29,121,19,11,24,274,36,12,18,316,28,6*67
$GPGSV,2,2,06,14,18,185,16,17,70,109,38,6*60
$GPGSV,1,1,02,01,03,077,,40,06,259,,0*69
$GLGSV,2,1,06,65,40,163,43,71,21,032,22,72,56,081,41,78,23,283,38,1*7B
$GLGSV,2,2,06,87,55,030,44,88,37,320,48,1*7B
$GLGSV,2,1,06,65,40,163,36,71,21,032,19,72,56,081,36,77,12,227,25,3*7C
$GLGSV,2,2,06,78,23,283,32,88,37,320,38,3*74
$GLGSV,1,1,02,79,09,332,,86,15,091,,0*7C
$GAGSV,2,1,08,02,28,209,28,05,30,142,30,09,34,080,23,15,13,279,36,2*7$GNRMC,045327.00,A,3726.9698521,N,12639.3714227,E,0.004,,220622,,,R,V*03
$GNVTG,,T,,M,0.004,N,0.008,K,D*34
$GNGNS,045327.00,3726.9698521,N,12639.3714227,E,RRRR,27,0.70,21.798,17.842,3.0,4095,V*0E
$GNGGA,045327.00,3726.9698521,N,12639.3714227,E,4,12,0.70,21.798,M,17.842,M,3.0,4095*5D
$GNGSA,A,3,06,20,19,11,17,09,12,,,,,,1.38,0.70,1.20,1*0F
$GNGSA,A,3,78,88,72,87,65,,,,,,,,1.38,0.70,1.20,2*0A
$GNGSA,A,3,02,34,05,36,30,15,,,,,,,1.38,0.70,1.20,3*0F
$GNGSA,A,3,07,04,01,10,28,08,14,13,03,,,,1.38,0.70,1.20,4*0F
$GPGSV,3,1,11,02,20,280,34,06,57,308,47,09,29,121,26,11,24,274,36,1*61
$GPGSV,3,2,11,12,18,316,40,17,70,109,41,19,79,000,39,20,14,226,33,1*6E
$GPGSV,3,3,11,28,,,42,41,27,238,41,50,47,179,44,1*6D
$GPGSV,2,1,06,06,57,308,44,09,29,121,20,11,24,274,35,12,18,316,29,6*6F
$GPGSV,2,2,06,14,18,185,15,17,70,109,38,6*63
$GPGSV,1,1,02,01,03,077,,40,06,259,,0*69
$GLGSV,2,1,06,65,40,163,43,71,21,032,22,72,56,081,42,78,23,283,38,1*78
$GLGSV,2,2,06,87,55,030,43,88,37,320,47,1*73
$GLGSV,2,1,06,65,40,163,36,71,21,032,19,72,56,081,35,77,12,227,25,3*7F
$GLGSV,2,2,06,78,23,283,33,88,37,320,38,3*75
$GLGSV,1,1,02,79,09,332,,86,15,091,,0*7C
$GAGSV,2,1,08,02,28,209,24,05,30,142,31,09,34,080,23,15,13,279,35,2*70
$GAGSV,2,2,08,18,64,308,49,30,38,272,39,34,56,314,48,36,49,055,33,2*70
$GAGSV,2,1,08,02,28,209,40,05,30,142,28,09,34,080,26,15,13,279,38,7*77
$GAGSV,2,2,08,18,64,308,46,30,38,272,43,34,56,314,46,36,49,055,39,7*73
$GAGSV,1,1,03,04,06,035,,11,06,082,,27,11,323,,0*48
$GBGSV,3,1,11,01,43,152,44,02,28,236,36,03,44,206,40,04,35,132,37,1*7B
$GBGSV,3,2,11,07,61,216,42,08,53,267,39,10,62,245,41,11,34,097,24,1*7F
$GBGSV,3,3,11,13,44,260,43,14,62,107,37,28,51,317,43,1*48
$GBGSV,3,1,09,01,43,152,42,03,44,206,40,04,35,132,39,07,61,216,38,3*7C
$GBGSV,3,2,09,08,53,267,40,10,62,245,40,11,34,097,31,13,44,260,34,3*7D
$GBGSV,3,3,09,14,62,107,43,3*4D
$GBGSV,1,1,04,05,08,256,,21,06,035,,23,06,219,,27,05,297,,0*7D
$GNRMC,045328.00,A,3726.9698544,N,12639.3714285,E,0.009,,220622,,,R,V*0A
$GNVTG,,T,,M,0.009,N,0.017,K,D*37
$GNGNS,045328.00,3726.9698544,N,12639.3714285,E,RRRR,27,0.70,21.768,17.842,3.0,4095,V*05
$GNGGA,045328.00,3726.9698544,N,12639.3714285,E,4,12,0.70,21.768,M,17.842,M,3.0,4095*56
$GNGSA,A,3,06,20,19,11,17,09,12,,,,,,1.38,0.70,1.20,1*0F
$GNGSA,A,3,78,88,72,87,65,,,,,,,,1.38,0.70,1.20,2*0A
$GNGSA,A,3,02,34,05,36,30,15,,,,,,,1.38,0.70,1.20,3*0F
$GNGSA,A,3,07,04,01,10,28,08,14,13,03,,,,1.38,0.70,1.20,4*0F
$GPGSV,3,1,11,02,20,280,34,06,57,308,47,09,29,121,27,11,24,274,35,1*63
$GPGSV,3,2,11,12,18,316,40,17,70,109,41,19,79,000,40,20,14,226,34,1*67
$GPGSV,3,3,11,28,,,42,41,27,238,41,50,47,179,44,1*6D
$GPGSV,2,1,06,06,57,308,44,09,29,121,20,11,24,274,36,12,18,316,29,6*6C
$GPGSV,2,2,06,14,18,185,16,17,70,109,38,6*60
$GPGSV,1,1,02,01,03,077,,40,06,259,,0*69
$GLGSV,2,1,06,65,40,163,43,71,21,032,22,72,56,081,42,78,23,283,38,1*78
$GLGSV,2,2,06,87,55,030,43,88,37,320,47,1*73
$GLGSV,2,1,06,65,40,163,36,71,21,032,20,72,56,081,35,77,12,227,25,3*75
$GLGSV,2,2,06,78,23,283,33,88,37,320,38,3*75
$GLGSV,1,1,02,79,09,332,,86,15,091,,0*7C
$GAGSV,2,1,08,02,28,209,22,05,30,142,30,09,34,080,23,15,13,279,35,2*77
$GAGSV,2,2,08,18,64,308,49,30,38,272,39,34,56,314,48,36,49,055,33,2*70
$GAGSV,2,1,08,02,28,209,42,05,30,142,29,09,34,080,26,15,13,279,37,7*7B
$GAGSV,2,2,08,18,64,308,47,30,38,272,43,34,56,314,46,36,49,055,39,7*72
$GAGSV,1,1,03,04,06,035,,11,06,082,,27,11,323,,0*48
$GBGSV,3,1,11,01,43,152,44,02,28,236,35,03,44,206,38,04,35,132,38,1*78
$GBGSV,3,2,11,07,61,216,42,08,53,267,39,10,62,245,41,11,34,097,24,1*7F
$GBGSV,3,3,11,13,44,260,44,14,62,107,38,28,51,317,43,1*40
$GBGSV,3,1,09,01,43,152,42,03,44,206,40,04,35,132,39,07,61,216,37,3*73
$GNRMC,045329.00,A,3726.9698502,N,12639.3714299,E,0.024,,220622,,,R,V*0B
$GNVTG,,T,,M,0.024,N,0.044,K,D*3E
$GNGNS,045329.00,3726.9698502,N,12639.3714299,E,RRRR,27,0.70,21.799,17.842,2.0,4095,V*04
$GNGGA,045329.00,3726.9698502,N,12639.3714299,E,4,12,0.70,21.799,M,17.842,M,2.0,4095*57
$GNGSA,A,3,06,20,19,11,17,09,12,,,,,,1.38,0.70,1.20,1*0F
$GNGSA,A,3,78,88,72,87,65,,,,,,,,1.38,0.70,1.20,2*0A
$GNGSA,A,3,02,34,05,36,30,15,,,,,,,1.38,0.70,1.20,3*0F
$GNGSA,A,3,07,04,01,10,28,08,14,13,03,,,,1.38,0.70,1.20,4*0F
$GPGSV,3,1,11,02,20,280,38,06,57,308,49,09,29,121,30,11,24,274,36,1*64
$GPGSV,3,2,11,12,18,316,40,17,70,109,43,19,79,000,41,20,14,226,36,1*66
$GPGSV,3,3,11,28,,,44,41,27,238,42,50,47,179,46,1*6A
$GPGSV,2,1,06,06,57,308,44,09,29,121,19,11,24,274,35,12,18,316,29,6*65
$GPGSV,2,2,06,14,18,185,15,17,70,109,38,6*63
$GPGSV,1,1,02,01,03,077,,40,06,259,,0*69
$GLGSV,2,1,06,65,40,163,43,71,21,032,20,72,56,081,42,78,23,283,39,1*7B
$GLGSV,2,2,06,87,55,030,44,88,37,320,47,1*74
$GLGSV,2,1,06,65,40,163,36,71,21,032,20,72,56,081,34,77,12,227,25,3*74
$GLGSV,2,2,06,78,23,283,33,88,37,320,37,3*7A
$GLGSV,1,1,02,79,09,332,,86,15,091,,0*7C
$GAGSV,2,1,08,02,28,209,23,05,30,142,30,09,34,080,22,15,13,279,35,2*77
$GAGSV,2,2,08,18,64,308,48,30,38,272,39,34,56,314,47,36,49,055,32,2*7F
$GAGSV,2,1,08,02,28,209,41,05,30,142,29,09,34,080,25,15,13,279,38,7*74
$GAGSV,2,2,08,18,64,308,47,30,38,272,43,34,56,314,46,36,49,055,37,7*7C
$GAGSV,1,1,03,04,06,035,,11,06,082,,27,11,322,,0*49
$GBGSV,3,1,11,01,43,152,44,02,28,236,35,03,44,206,38,04,35,132,38,1*78
$GBGSV,3,2,11,07,61,216,42,08,53,267,39,10,62,245,41,11,34,097,23,1*78
$GBGSV,3,3,11,13,44,260,44,14,62,107,38,28,51,317,44,1*47
$GBGSV,3,1,09,01,43,152,42,03,44,206,39,04,35,132,39,07,61,216,36,3*7C
$GBGSV,3,2,09,08,53,267,41,10,62,245,40,11,34,097,30,13,44,260,35,3*7C
$GBGSV,3,3,09,14,62,107,43,3*4D
$GBGSV,1,1,04,05,08,256,,21,06,035,,23,06,219,,27,05,297,,0*7D
$GNRMC,045330.00,A,3726.9698480,N,12639.3714319,E,0.009,,220622,,,R,V*0E
$GNVTG,,T,,M,0.009,N,0.016,K,D*36
$GNGNS,045330.00,3726.9698480,N,12639.3714319,E,RRRR,27,0.70,21.798,17.842,2.0,4095,V*0F
$GNGGA,045330.00,3726.9698480,N,12639.3714319,E,4,12,0.70,21.798,M,17.842,M,2.0,4095*5C
$GNGSA,A,3,06,20,19,11,17,09,12,,,,,,1.39,0.70,1.20,1*0E
$GNGSA,A,3,78,88,72,87,65,,,,,,,,1.39,0.70,1.20,2*0B
$GNGSA,A,3,02,34,05,36,30,15,,,,,,,1.39,0.70,1.20,3*0E
$GNGSA,A,3,07,04,01,10,28,08,14,13,03,,,,1.39,0.70,1.20,4*0E
$GPGSV,3,1,11,02,20,280,34,06,57,308,48,09,29,121,30,11,24,274,39,1*66
$GPGSV,3,2,11,12,18,316,37,17,70,109,43,19,79,000,40,20,14,226,34,1*65
$GPGSV,3,3,11,28,,,44,41,27,238,40,50,47,179,45,1*6B
$GPGSV,2,1,06,06,57,308,44,09,29,121,19,11,24,274,34,12,18,316,29,6*64
$GPGSV,2,2,06,14,18,185,14,17,70,109,38,6*62
$GPGSV,1,1,02,01,03,077,,40,06,259,,0*69
$GLGSV,2,1,06,65,40,163,43,71,21,032,22,72,56,081,41,78,23,283,40,1*74
$GLGSV,2,2,06,87,55,030,43,88,37,320,47,1*73
$GLGSV,2,1,06,65,40,163,36,71,21,032,21,72,56,081,33,77,12,227,26,3*71
$GLGSV,2,2,06,78,23,283,32,88,37,320,38,3*74
$GLGSV,1,1,02,79,09,332,,86,15,091,,0*7C
$GNRMC,045331.00,A,3726.9698477,N,12639.3714307,E,0.004,,220622,,,R,V*05
$GNVTG,,T,,M,0.004,N,0.007,K,D*3B
$GNGNS,045331.00,3726.9698477,N,12639.3714307,E,RRRR,27,0.70,21.800,17.842,2.0,4095,V*07
$GNGGA,045331.00,3726.9698477,N,12639.3714307,E,4,12,0.70,21.800,M,17.842,M,2.0,4095*54
$GNGSA,A,3,06,20,19,11,17,09,12,,,,,,1.39,0.70,1.20,1*0E
$GNGSA,A,3,78,88,72,87,65,,,,,,,,1.39,0.70,1.20,2*0B
$GNGSA,A,3,02,34,05,36,30,15,,,,,,,1.39,0.70,1.20,3*0E
$GNGSA,A,3,07,04,01,10,28,08,14,13,03,,,,1.39,0.70,1.20,4*0E
$GPGSV,3,1,11,02,20,280,34,06,57,308,47,09,29,121,30,11,24,274,39,1*69
$GPGSV,3,2,11,12,18,316,37,17,70,109,43,19,79,000,40,20,14,226,36,1*67
$GPGSV,3,3,11,28,,,44,41,27,238,40,50,47,179,45,1*6B
$GPGSV,2,1,06,06,57,308,41,09,29,121,18,11,24,274,31,12,18,316,27,6*6B
$GPGSV,2,2,06,14,18,185,13,17,70,109,35,6*68
$GPGSV,1,1,02,01,03,077,,40,06,259,,0*69
$GLGSV,2,1,06,65,40,163,43,71,21,032,21,72,56,081,41,78,23,283,40,1*77
$GLGSV,2,2,06,87,55,030,43,88,37,320,47,1*73
$GLGSV,2,1,06,65,40,163,33,71,21,032,20,72,56,081,31,77,12,227,25,3*74
$GLGSV,2,2,06,78,23,283,30,88,37,320,36,3*78
$GLGSV,1,1,02,79,09,332,,86,15,091,,0*7C
$GAGSV,2,1,08,02,28,209,33,05,30,142,31,09,34,080,21,15,13,279,35,2*74
$GAGSV,2,2,08,18,64,308,48,30,38,271,39,34,56,314,47,36,49,055,33,2*7D
$GAGSV,2,1,08,02,28,209,44,05,30,142,31,09,34,080,26,15,13,279,37,7*74
$GAGSV,2,2,08,18,64,308,47,30,38,271,43,34,56,314,46,36,49,055,37,7*7F
$GAGSV,1,1,03,04,06,035,,11,06,082,,27,11,322,,0*49
$GBGSV,3,1,11,01,43,152,44,02,28,236,33,03,44,206,40,04,35,132,39,1*70
$GBGSV,3,2,11,07,61,216,42,08,53,267,39,10,62,245,41,11,34,097,23,1*78
$GBGSV,3,3,11,13,44,260,45,14,62,107,38,28,51,317,43,1*41
$GBGSV,3,1,09,01,43,152,40,03,44,206,37,04,35,132,37,07,61,216,35,3*7D
$GBGSV,3,2,09,08,53,267,40,10,62,245,38,11,34,097,30,13,44,260,34,3*73
$GBGSV,3,3,09,14,62,107,41,3*4F
$GBGSV,1,1,04,05,08,256,,21,06,035,,23,06,219,,27,05,297,,0*7D
$GNRMC,045332.00,A,3726.9698490,N,12639.3714344,E,0.002,,220622,,,R,V*0E
$GNVTG,,T,,M,0.002,N,0.004,K,D*3E
$GNGNS,045332.00,3726.9698490,N,12639.3714344,E,RRRR,27,0.70,21.790,17.842,3.0,4095,V*0D
$GNGGA,045332.00,3726.9698490,N,12639.3714344,E,4,12,0.70,21.790,M,17.842,M,3.0,4095*5E
$GNGSA,A,3,06,20,19,11,17,09,12,,,,,,1.39,0.70,1.20,1*0E
$GNGSA,A,3,78,88,72,87,65,,,,,,,,1.39,0.70,1.20,2*0B
$GNGSA,A,3,02,34,05,36,30,15,,,,,,,1.39,0.70,1.20,3*0E
$GNGSA,A,3,07,04,01,10,28,08,14,13,03,,,,1.39,0.70,1.20,4*0E
$GPGSV,3,1,11,02,20,280,32,06,57,308,46,09,29,121,28,11,24,274,38,1*66
$GPGSV,3,2,11,12,18,316,36,17,70,109,42,19,79,000,40,20,14,226,35,1*64
$GPGSV,3,3,11,28,,,44,41,27,238,38,50,47,179,45,1*64
$GPGSV,2,1,06,06,57,308,43,09,29,121,19,11,24,274,33,12,18,316,26,6*6B
$GPGSV,2,2,06,14,18,185,14,17,70,109,37,6*6D
$GPGSV,1,1,02,01,03,077,,40,06,259,,0*69
$GLGSV,2,1,06,65,40,163,43,71,21,032,19,72,56,081,41,78,23,283,41,1*7D
$GLGSV,2,2,06,87,55,030,43,88,37,320,48,1*7C
$GLGSV,2,1,06,65,40,163,33,71,21,032,20,72,56,081,31,77,12,227,24,3*75
$GLGSV,2,2,06,78,23,283,30,88,37,320,36,3*78
$GLGSV,1,1,02,79,09,332,,86,15,091,,0*7C
$GAGSV,2,1,08,02,28,209,34,05,30,142,31,09,34,080,21,15,13,279,35,2*73
$GAGSV,2,2,08,18,64,308,49,30,38,271,40,34,56,314,48,36,49,055,32,2*7C
$GAGSV,2,1,08,02,28,209,44,05,30,142,30,09,34,080,27,15,13,279,37,7*74
$GAGSV,2,2,08,18,64,308,48,30,38,271,42,34,56,314,46,36,49,055,37,7*71
$GAGSV,1,1,03,04,06,035,,11,06,082,,27,11,322,,0*49
$GBGSV,3,1,11,01,43,152,44,02,28,236,33,03,44,206,40,04,35,132,39,1*70
$GBGSV,3,2,11,07,61,216,42,08,53,267,39,10,62,245,41,11,34,097,23,1*78
$GBGSV,3,3,11,13,44,260,45,14,62,107,38,28,51,317,43,1*41
$GBGSV,3,1,09,01,43,152,42,03,44,206,39,04,35,132,38,07,61,216,35,3*7E
$GNRMC,045333.00,A,3726.9698490,N,12639.3714290,E,0.008,,220622,,,R,V*0D
$GNVTG,,T,,M,0.008,N,0.015,K,D*34
$GNGNS,045333.00,3726.9698490,N,12639.3714290,E,RRRR,27,0.70,21.789,17.842,1.0,4095,V*0E
$GNGGA,045333.00,3726.9698490,N,12639.3714290,E,4,12,0.70,21.789,M,17.842,M,1.0,4095*5D
$GNGSA,A,3,06,20,19,11,17,09,12,,,,,,1.39,0.70,1.20,1*0E
$GNGSA,A,3,78,88,72,87,65,,,,,,,,1.39,0.70,1.20,2*0B
$GNGSA,A,3,02,34,05,36,30,15,,,,,,,1.39,0.70,1.20,3*0E
$GNGSA,A,3,07,04,01,10,28,08,14,13,03,,,,1.39,0.70,1.20,4*0E
$GPGSV,3,1,11,02,20,280,29,06,57,308,47,09,29,121,28,11,24,274,38,1*6D
$GPGSV,3,2,11,12,18,316,35,17,70,109,42,19,79,000,40,20,14,226,35,1*67
$GPGSV,3,3,11,28,,,44,41,27,238,38,50,47,179,44,1*65
$GPGSV,2,1,05,06,57,308,45,09,29,121,20,11,24,274,37,12,18,316,24,6*62
$GPGSV,2,2,05,17,70,109,38,6*54
$GPGSV,1,1,03,01,03,077,,14,18,185,,40,06,259,,0*58
$GLGSV,2,1,06,65,40,163,43,71,21,032,21,72,56,081,42,78,23,283,41,1*75
$GLGSV,2,2,06,87,55,030,43,88,37,320,48,1*7C
$GLGSV,2,1,06,65,40,163,36,71,21,032,22,72,56,081,32,77,12,227,23,3*76
$GLGSV,2,2,06,78,23,283,31,88,37,320,38,3*77
$GLGSV,1,1,02,79,09,332,,86,15,091,,0*7C
$GAGSV,2,1,08,02,28,209,33,05,30,142,31,09,34,080,21,15,13,279,35,2*74
$GAGSV,2,2,08,18,64,308,49,30,38,271,40,34,56,315,48,36,49,055,34,2*7B
$GAGSV,2,1,08,02,28,209,44,05,30,142,30,09,34,080,27,15,13,279,37,7*74
$GAGSV,2,2,08,18,64,308,48,30,38,271,42,34,56,315,47,36,49,055,38,7*7E
$GAGSV,1,1,03,04,06,035,,11,06,082,,27,11,322,,0*49
$GBGSV,3,1,11,01,43,152,44,02,28,236,33,03,44,206,40,04,35,132,38,1*71
$GBGSV,3,2,11,07,61,216,41,08,53,267,38,10,62,245,42,11,34,097,24,1*7E
$GBGSV,3,3,11,13,44,260,44,14,62,107,38,28,51,317,43,1*40
$GBGSV,3,1,09,01,43,152,44,03,44,206,42,04,35,132,41,07,61,216,37,3*78
$GBGSV,3,2,09,08,53,267,43,10,62,245,42,11,34,097,32,13,44,260,37,3*7C
$GBGSV,3,3,09,14,62,107,45,3*4B
$GNRMC,045334.00,A,3726.9698530,N,12639.3714313,E,0.010,,220622,,,R,V*02
$GNVTG,,T,,M,0.010,N,0.019,K,D*31
$GNGNS,045334.00,3726.9698530,N,12639.3714313,E,RRRR,27,0.70,21.794,17.842,2.0,4095,V*07
$GNGGA,045334.00,3726.9698530,N,12639.3714313,E,4,12,0.70,21.794,M,17.842,M,2.0,4095*54
$GNGSA,A,3,06,20,19,11,17,09,12,,,,,,1.39,0.70,1.20,1*0E
$GNGSA,A,3,78,88,72,87,65,,,,,,,,1.39,0.70,1.20,2*0B
$GNGSA,A,3,02,34,05,36,30,15,,,,,,,1.39,0.70,1.20,3*0E
$GNGSA,A,3,07,04,01,10,28,08,14,13,03,,,,1.39,0.70,1.20,4*0E
$GPGSV,3,1,11,02,20,280,30,06,57,308,45,09,29,121,28,11,24,274,37,1*68
$GPGSV,3,2,11,12,18,316,36,17,70,109,42,19,79,000,41,20,14,226,35,1*65
$GPGSV,3,3,11,28,,,45,41,27,238,38,50,47,179,44,1*64
$GPGSV,1,1,01,14,18,185,19,5*59
$GPGSV,2,1,05,06,57,308,44,09,29,121,20,11,24,274,35,12,18,316,26,6*63
$GPGSV,2,2,05,17,70,109,38,6*54
$GPGSV,1,1,02,01,03,077,,40,06,259,,0*69
$GLGSV,2,1,06,65,40,163,42,71,21,032,22,72,56,081,42,78,23,283,42,1*74
$GLGSV,2,2,06,87,55,030,43,88,37,320,48,1*7C
$GLGSV,2,1,06,65,40,163,36,71,21,032,22,72,56,081,33,77,12,227,23,3*77
$GLGSV,2,2,06,78,23,283,31,88,37,320,39,3*76
$GLGSV,1,1,02,79,09,332,,86,15,091,,0*7C
$GAGSV,2,1,08,02,28,209,37,05,30,142,31,09,34,080,20,15,13,279,35,2*71
$GAGSV,2,2,08,18,64,308,49,30,38,271,40,34,56,315,48,36,49,055,34,2*7B
$GAGSV,2,1,08,02,28,209,44,05,30,142,29,09,34,080,27,15,13,279,34,7*7F
$GAGSV,2,2,08,18,64,308,48,30,38,271,42,34,56,315,46,36,49,055,38,7*7F
$GAGSV,1,1,03,04,06,035,,11,06,082,,27,11,322,,0*49
$GBGSV,3,1,11,01,43,152,42,02,28,236,33,03,44,206,42,04,35,132,38,1*75
$GBGSV,3,2,11,07,61,216,40,08,53,267,39,10,62,245,42,11,34,097,25,1*7F
$GBGSV,3,3,11,13,44,260,44,14,62,107,39,28,51,317,43,1*41
$GBGSV,3,1,09,01,43,152,43,03,44,206,39,04,35,132,40,07,61,216,33,3*76
$GBGSV,3,2,09,08,53,267,43,10,62,245,40,11,34,097,33,13,44,260,36,3*7E
$GBGSV,3,3,09,14,62,107,44,3*4A
$GBGSV,1,1,04,05,08,256,,21,06,035,,23,06,219,,27,05,297,,0*7D
$GNRMC,045335.00,A,3726.9698485,N,12639.3714296,E,0.021,,220622,,,R,V*02
$GNVTG,,T,,M,0.021,N,0.039,K,D*31
$GNGNS,045335.00,3726.9698485,N,12639.3714296,E,RRRR,27,0.70,21.789,17.842,2.0,4095,V*09
$GNGGA,045335.00,3726.9698485,N,12639.3714296,E,4,12,0.70,21.789,M,17.842,M,2.0,4095*5A
$GNGSA,A,3,06,20,19,11,17,09,12,,,,,,1.39,0.70,1.20,1*0E
$GNGSA,A,3,78,88,72,87,65,,,,,,,,1.39,0.70,1.20,2*0B
$GNGSA,A,3,02,34,05,36,30,15,,,,,,,1.39,0.70,1.20,3*0E
$GNGSA,A,3,07,04,01,10,28,08,14,13,03,,,,1.39,0.70,1.20,4*0E
$GPGSV,3,1,10,06,57,308,46,09,29,121,27,11,24,274,34,12,18,316,38,1*6A
$GPGSV,3,2,10,17,70,109,42,19,79,000,43,20,14,226,35,28,,,44,1*57
$GPGSV,3,3,10,41,27,238,37,50,47,179,45,1*60
$GPGSV,2,1,06,06,57,308,44,09,29,121,21,11,24,274,35,12,18,316,28,6*6F
$GPGSV,2,2,06,14,18,185,19,17,70,109,37,6*60
$GPGSV,1,1,03,01,03,077,,02,20,280,,40,06,259,,0*52
$GLGSV,2,1,06,65,40,163,43,71,21,032,24,72,56,081,42,78,23,283,42,1*73
$GLGSV,2,2,06,87,55,030,43,88,37,320,48,1*7C
$GLGSV,2,1,06,65,40,163,36,71,21,032,21,72,56,081,32,77,12,227,22,3*74
$GLGSV,2,2,06,78,23,283,31,88,37,320,38,3*77
$GLGSV,1,1,02,79,09,332,,86,15,091,,0*7C
$GAGSV,2,1,08,02,28,209,36,05,30,142,31,09,34,080,19,15,13,279,35,2*7A
$GAGSV,2,2,08,18,64,308,49,30,38,271,41,34,56,315,48,36,49,055,32,2*7C
$GAGSV,2,1,08,02,28,209,44,05,30,142,29,09,34,080,27,15,13,279,37,7*7C
$GAGSV,2,2,08,18,64,308,48,30,38,271,42,34,56,315,47,36,49,055,37,7*71
$GAGSV,1,1,03,04,06,035,,11,06,082,,27,11,322,,0*49
$GBGSV,3,1,11,01,43,152,44,02,28,236,33,03,44,206,40,04,35,132,38,1*71
$GBGSV,3,2,11,07,61,216,40,08,53,267,38,10,62,245,42,11,34,097,25,1*7E
$GBGSV,3,3,11,13,44,260,45,14,62,107,37,28,51,317,43,1*4E
$GBGSV,3,1,09,01,43,152,43,03,44,206,39,04,35,132,39,07,61,216,35,3*7E
$GBGSV,3,2,09,08,53,267,40,10,62,245,38,11,34,097,32,13,44,260,36,3*73
$GBGSV,3,3,09,14,62,107,44,3*4A
$GBGSV,1,1,04,05,08,256,,21,06,035,,23,06,219,,27,05,297,,0*7D
$GNRMC,045336.00,A,3726.9698496,N,12639.3714285,E,0.004,,220622,,,R,V*06
$GNVTG,,T,,M,0.004,N,0.007,K,D*3B
$GNGNS,045336.00,3726.9698496,N,12639.3714285,E,RRRR,27,0.70,21.786,17.842,2.0,4095,V*05
$GNGGA,045336.00,3726.9698496,N,12639.3714285,E,4,12,0.70,21.786,M,17.842,M,2.0,4095*56
$GNGSA,A,3,06,20,19,11,17,09,12,,,,,,1.39,0.70,1.20,1*0E
$GNGSA,A,3,78,88,72,87,65,,,,,,,,1.39,0.70,1.20,2*0B
$GNGSA,A,3,02,34,05,36,30,15,,,,,,,1.39,0.70,1.20,3*0E
$GNGSA,A,3,07,04,01,10,28,08,14,13,03,,,,1.39,0.70,1.20,4*0E
$GPGSV,3,1,10,06,57,308,46,09,29,121,27,11,24,274,38,12,18,316,40,1*69
$GPGSV,3,2,10,17,70,109,42,19,79,000,41,20,14,226,36,28,,,44,1*56
$GPGSV,3,3,10,41,27,238,37,50,47,179,44,1*61
$GPGSV,2,1,06,06,57,308,44,09,29,121,21,11,24,274,35,12,18,316,32,6*64
$GPGSV,2,2,06,14,18,185,18,17,70,109,38,6*6E
$GPGSV,1,1,03,01,03,077,,02,20,280,,40,06,259,,0*52
$GLGSV,2,1,06,65,40,163,42,71,21,032,23,72,56,081,40,78,23,283,41,1*74
$GLGSV,2,2,06,87,55,030,43,88,37,320,47,1*73
$GLGSV,2,1,06,65,40,163,35,71,21,032,19,72,56,081,33,77,12,227,21,3*7E
$GLGSV,2,2,06,78,23,283,31,88,37,320,39,3*76
$GLGSV,1,1,02,79,09,332,,86,15,091,,0*7C
$GAGSV,2,1,08,02,28,209,36,05,30,142,30,09,34,080,17,15,13,279,35,2*75
$GAGSV,2,2,08,18,64,308,49,30,38,271,41,34,56,315,48,36,49,055,32,2*7C
$GAGSV,2,1,08,02,28,209,44,05,30,142,29,09,34,080,27,15,13,279,34,7*7F
$GAGSV,2,2,08,18,64,308,47,30,38,271,42,34,56,315,46,36,49,055,37,7*7F
$GAGSV,1,1,03,04,06,035,,11,06,082,,27,11,322,,0*49
$GBGSV,3,1,11,01,43,152,44,02,28,236,33,03,44,206,40,04,35,132,39,1*70
$GBGSV,3,2,11,07,61,216,41,08,53,267,39,10,62,245,42,11,34,097,25,1*7E
$GBGSV,3,3,11,13,44,260,45,14,62,107,39,28,51,317,43,1*40
$GBGSV,3,1,09,01,43,152,43,03,44,206,39,04,35,132,39,07,61,216,35,3*7E
$GNRMC,045337.00,A,3726.9698513,N,12639.3714302,E,0.011,,220622,,,R,V*01
$GNVTG,,T,,M,0.011,N,0.021,K,D*3B
$GNGNS,045337.00,3726.9698513,N,12639.3714302,E,RRRR,27,0.70,21.772,17.842,2.0,4095,V*0D
$GNGGA,045337.00,3726.9698513,N,12639.3714302,E,4,12,0.70,21.772,M,17.842,M,2.0,4095*5E
$GNGSA,A,3,06,20,19,11,17,09,12,,,,,,1.39,0.70,1.20,1*0E
$GNGSA,A,3,78,88,72,87,65,,,,,,,,1.39,0.70,1.20,2*0B
$GNGSA,A,3,02,34,05,36,30,15,,,,,,,1.39,0.70,1.20,3*0E
$GNGSA,A,3,07,04,01,10,28,08,14,13,03,,,,1.39,0.70,1.20,4*0E
$GPGSV,3,1,10,06,57,308,46,09,29,121,27,11,24,274,38,12,18,316,39,1*67
$GPGSV,3,2,10,17,70,109,42,19,79,000,41,20,14,226,36,28,,,44,1*56
$GPGSV,3,3,10,41,27,238,38,50,47,179,45,1*6F
$GPGSV,2,1,06,06,57,308,43,09,29,121,21,11,24,274,35,12,18,316,31,6*60
$GPGSV,2,2,06,14,18,185,18,17,70,109,38,6*6E
$GPGSV,1,1,03,01,03,077,,02,20,280,,40,06,259,,0*52
$GLGSV,2,1,06,65,40,163,42,71,21,032,21,72,56,081,40,78,23,283,40,1*77
$GLGSV,2,2,06,87,55,030,43,88,37,320,47,1*73
$GLGSV,2,1,06,65,40,163,36,71,21,032,20,72,56,081,33,77,12,227,19,3*7C
$GLGSV,2,2,06,78,23,283,33,88,37,320,38,3*75
$GLGSV,1,1,02,79,09,332,,86,15,091,,0*7C
$GAGSV,2,1,08,02,28,209,35,05,30,142,30,09,34,080,18,15,13,279,35,2*79
$GAGSV,2,2,08,18,64,308,49,30,38,271,40,34,56,315,48,36,49,055,33,2*7C
$GAGSV,2,1,08,02,28,209,44,05,30,142,29,09,34,080,27,15,13,279,35,7*7E
$GAGSV,2,2,08,18,64,308,47,30,38,271,43,34,56,315,46,36,49,055,38,7*71
$GAGSV,1,1,03,04,06,035,,11,06,082,,27,11,322,,0*49
$GBGSV,3,1,11,01,43,152,44,02,28,236,33,03,44,206,40,04,35,132,39,1*70
$GBGSV,3,2,11,07,61,216,41,08,53,267,39,10,62,245,41,11,34,097,24,1*7C
$GBGSV,3,3,11,13,44,260,45,14,62,107,39,28,51,317,43,1*40
$GBGSV,3,1,09,01,43,152,42,03,44,206,39,04,35,132,39,07,61,216,35,3*7F
$GBGSV,3,2,09,08,53,267,41,10,62,245,39,11,34,097,32,13,44,260,35,3*70
$GBGSV,3,3,09,14,62,107,44,3*4A
$GBGSV,1,1,04,05,08,256,,21,06,035,,23,06,219,,27,05,297,,0*7D
$GNRMC,045338.00,A,3726.9698504,N,12639.3714273,E,0.019,,220622,,,R,V*07
$GNVTG,,T,,M,0.019,N,0.035,K,D*36
$GNGNS,045338.00,3726.9698504,N,12639.3714273,E,RRRR,27,0.70,21.784,17.842,2.0,4095,V*0A
$GNGGA,045338.00,3726.9698504,N,12639.3714273,E,4,12,0.70,21.784,M,17.842,M,2.0,4095*59
$GNGSA,A,3,06,20,19,11,17,09,12,,,,,,1.39,0.70,1.20,1*0E
$GNGSA,A,3,78,88,72,87,65,,,,,,,,1.39,0.70,1.20,2*0B
$GNGSA,A,3,02,34,05,36,30,15,,,,,,,1.39,0.70,1.20,3*0E
$GNGSA,A,3,07,04,01,10,28,08,14,13,03,,,,1.39,0.70,1.20,4*0E
$GPGSV,3,1,10,06,57,308,47,09,29,121,26,11,24,274,34,12,18,316,38,1*6A
$GPGSV,3,2,10,17,70,109,42,19,79,000,42,20,14,226,36,28,,,44,1*55
$GPGSV,3,3,10,41,27,238,38,50,47,179,45,1*6F
$GPGSV,2,1,06,06,57,308,43,09,29,121,21,11,24,274,35,12,18,316,30,6*61
$GPGSV,2,2,06,14,18,185,17,17,70,109,38,6*61
$GPGSV,1,1,03,01,03,077,,02,20,280,,40,06,259,,0*52
$GLGSV,2,1,06,65,40,163,42,71,21,032,20,72,56,081,40,78,23,283,40,1*76
$GLGSV,2,2,06,87,55,030,43,88,37,320,47,1*73
$GLGSV,2,1,06,65,40,163,36,71,21,032,19,72,56,081,33,77,12,227,18,3*77
$GLGSV,2,2,06,78,23,283,31,88,37,320,38,3*77
$GLGSV,1,1,02,79,09,332,,86,15,091,,0*7C
$GAGSV,2,1,08,02,28,209,36,05,30,142,31,09,34,080,18,15,13,279,35,2*7B
$GAGSV,2,2,08,18,64,308,49,30,38,271,41,34,56,315,48,36,49,055,32,2*7C
$GAGSV,2,1,08,02,28,209,44,05,30,142,29,09,34,080,27,15,13,279,35,7*7E
$GAGSV,2,2,08,18,64,308,47,30,38,271,43,34,56,315,47,36,49,055,38,7*70
$GAGSV,1,1,03,04,06,035,,11,06,082,,27,11,322,,0*49
$GBGSV,3,1,11,01,43,152,44,02,28,236,32,03,44,206,40,04,35,132,38,1*70
$GBGSV,3,2,11,07,61,216,41,08,53,267,39,10,62,245,41,11,34,097,23,1*7B
$GBGSV,3,3,11,13,44,260,45,14,62,107,39,28,51,317,43,1*40
$GBGSV,3,1,09,01,43,152,42,03,44,206,39,04,35,132,39,07,61,216,34,3*7E
$GBGSV,3,2,09,08,53,267,42,10,62,245,39,11,34,097,32,13,44,260,35,3*73
$GBGSV,3,3,09,14,62,107,44,3*4A
$GBGSV,1,1,04,05,08,256,,21,06,035,,23,06,219,,27,05,297,,0*7D
$GNRMC,045339.00,A,3726.9698549,N,12639.3714311,E,0.021,,220622,,,R,V*01
$GNVTG,,T,,M,0.021,N,0.039,K,D*31
$GNGNS,045339.00,3726.9698549,N,12639.3714311,E,RRRR,27,0.70,21.774,17.842,2.0,4095,V*08
$GNGGA,045339.00,3726.9698549,N,12639.3714311,E,4,12,0.70,21.774,M,17.842,M,2.0,4095*5B
$GNGSA,A,3,06,20,19,11,17,09,12,,,,,,1.39,0.70,1.20,1*0E
$GNGSA,A,3,78,88,72,87,65,,,,,,,,1.39,0.70,1.20,2*0B
$GNGSA,A,3,02,34,05,36,30,15,,,,,,,1.39,0.70,1.20,3*0E
$GNGSA,A,3,07,04,01,10,28,08,14,13,03,,,,1.39,0.70,1.20,4*0E
$GPGSV,3,1,10,06,57,308,47,09,29,121,25,11,24,274,34,12,18,316,37,1*66
$GPGSV,3,2,10,17,70,109,42,19,79,000,42,20,14,226,37,28,,,45,1*55
$GPGSV,3,3,10,41,27,238,36,50,47,179,45,1*61
$GPGSV,2,1,06,06,57,308,43,09,29,121,22,11,24,274,34,12,18,316,30,6*63
$GPGSV,2,2,06,14,18,185,19,17,70,109,38,6*6F
$GPGSV,1,1,03,01,03,077,,02,20,280,,40,06,259,,0*52
$GLGSV,2,1,06,65,40,163,43,71,21,032,18,72,56,081,40,78,23,283,41,1*7D
$GLGSV,2,2,06,87,55,030,43,88,37,320,47,1*73
$GLGSV,2,1,06,65,40,163,34,71,21,032,18,72,56,081,33,77,12,227,15,3*79
$GLGSV,2,2,06,78,23,283,24,88,37,320,37,3*7C
$GLGSV,1,1,02,79,09,332,,86,15,091,,0*7C
$GAGSV,2,1,08,02,28,209,38,05,30,142,31,09,34,080,19,15,13,279,36,2*77
$GAGSV,2,2,08,18,64,308,48,30,38,271,41,34,56,315,48,36,49,055,33,2*7C
$GAGSV,2,1,08,02,28,209,44,05,30,142,30,09,34,080,27,15,13,279,33,7*70
$GAGSV,2,2,08,18,64,308,48,30,38,271,42,34,56,315,47,36,49,055,39,7*7F
$GAGSV,1,1,03,04,06,035,,11,06,082,,27,11,322,,0*49
$GBGSV,3,1,11,01,43,152,44,02,28,236,33,03,44,206,41,04,35,132,39,1*71
$GBGSV,3,2,11,07,61,216,41,08,53,267,39,10,62,245,41,11,34,097,23,1*7B
$GBGSV,3,3,11,13,44,260,45,14,62,107,39,28,51,317,43,1*40
$GBGSV,3,1,09,01,43,152,42,03,44,206,39,04,35,132,39,07,61,216,34,3*7E
$GBGSV,3,2,09,08,53,267,43,10,62,245,39,11,34,097,30,13,44,260,35,3*70
$GNRMC,045340.00,A,3726.9698562,N,12639.3714305,E,0.020,,220622,,,R,V*02
$GNVTG,,T,,M,0.020,N,0.037,K,D*3E
$GNGNS,045340.00,3726.9698562,N,12639.3714305,E,RRRR,27,0.70,21.777,17.842,3.0,4095,V*08
$GNGGA,045340.00,3726.9698562,N,12639.3714305,E,4,12,0.70,21.777,M,17.842,M,3.0,4095*5B
$GNGSA,A,3,06,20,19,11,17,09,12,,,,,,1.39,0.70,1.20,1*0E
$GNGSA,A,3,78,88,72,87,65,,,,,,,,1.39,0.70,1.20,2*0B
$GNGSA,A,3,02,34,05,36,30,15,,,,,,,1.39,0.70,1.20,3*0E
$GNGSA,A,3,07,04,01,10,28,08,14,13,03,,,,1.39,0.70,1.20,4*0E
$GPGSV,3,1,11,02,20,280,25,06,57,308,47,09,29,121,25,11,24,274,34,1*60
$GPGSV,3,2,11,12,18,316,39,17,70,109,41,19,79,000,42,20,14,226,37,1*68
$GPGSV,3,3,11,28,,,45,41,27,238,36,50,47,179,44,1*6A
$GPGSV,2,1,06,06,57,308,43,09,29,121,22,11,24,274,34,12,18,316,31,6*62
$GPGSV,2,2,06,14,18,185,19,17,70,109,38,6*6F
$GPGSV,1,1,02,01,03,077,,40,06,259,,0*69
$GLGSV,2,1,06,65,40,163,42,71,21,032,17,72,56,081,41,78,23,283,40,1*73
$GLGSV,2,2,06,87,55,030,43,88,37,320,47,1*73
$GLGSV,2,1,05,65,40,163,34,71,21,032,16,72,56,081,33,78,23,283,26,3*77
$GLGSV,2,2,05,88,37,320,37,3*4E
$GLGSV,1,1,03,77,12,227,,79,09,332,,86,15,091,,0*49
$GAGSV,2,1,08,02,28,209,37,05,30,142,31,09,34,080,20,15,13,279,36,2*72
$GAGSV,2,2,08,18,64,308,48,30,38,271,41,34,56,315,47,36,49,055,33,2*73
$GAGSV,2,1,08,02,28,209,44,05,30,142,29,09,34,080,27,15,13,279,33,7*78
$GAGSV,2,2,08,18,64,308,48,30,38,271,41,34,56,315,46,36,49,055,38,7*7C
$GAGSV,1,1,03,04,06,035,,11,06,082,,27,11,322,,0*49
$GBGSV,3,1,11,01,43,152,43,02,28,236,33,03,44,206,41,04,35,132,38,1*77
$GBGSV,3,2,11,07,61,216,41,08,53,267,39,10,62,245,41,11,34,097,24,1*7C
$GBGSV,3,3,11,13,44,260,45,14,62,107,40,28,51,317,43,1*4E
$GBGSV,3,1,09,01,43,152,42,03,44,206,39,04,35,132,38,07,61,216,33,3*78
$GBGSV,3,2,09,08,53,267,41,10,62,245,39,11,34,097,31,13,44,260,35,3*73
$GBGSV,3,3,09,14,62,107,44,3*4A
$GBGSV,1,1,04,05,08,256,,21,06,035,,23,06,219,,27,05,297,,0*7D
$GNRMC,045341.00,A,3726.9698534,N,12639.3714329,E,0.020,,220622,,,R,V*0E
$GNVTG,,T,,M,0.020,N,0.036,K,D*3F
$GNGNS,045341.00,3726.9698534,N,12639.3714329,E,RRRR,27,0.70,21.775,17.842,2.0,4095,V*07
$GNGGA,045341.00,3726.9698534,N,12639.3714329,E,4,12,0.70,21.775,M,17.842,M,2.0,4095*54
$GNGSA,A,3,06,20,19,11,17,09,12,,,,,,1.39,0.70,1.20,1*0E
$GNGSA,A,3,78,88,72,87,65,,,,,,,,1.39,0.70,1.20,2*0B
$GNGSA,A,3,02,34,05,36,30,15,,,,,,,1.39,0.70,1.20,3*0E
$GNGSA,A,3,07,04,01,10,28,08,14,13,03,,,,1.39,0.70,1.20,4*0E
$GPGSV,3,1,10,06,57,308,46,09,29,121,25,11,24,274,34,12,18,316,39,1*69
$GPGSV,3,2,10,17,70,109,42,19,79,000,42,20,14,226,37,28,,,45,1*55
$GPGSV,3,3,10,41,27,238,38,50,47,179,44,1*6E
$GPGSV,2,1,06,06,57,308,43,09,29,121,22,11,24,274,33,12,18,316,30,6*64
$GPGSV,2,2,06,14,18,185,19,17,70,109,38,6*6F
$GPGSV,1,1,03,01,03,077,,02,20,280,,40,06,259,,0*52
$GLGSV,2,1,06,65,40,163,42,71,21,032,19,72,56,081,40,78,23,283,40,1*7C
$GLGSV,2,2,06,87,55,030,43,88,37,320,48,1*7C
$GLGSV,2,1,05,65,40,163,33,71,21,032,17,72,56,081,34,78,23,283,28,3*78
$GLGSV,2,2,05,88,37,320,37,3*4E
$GLGSV,1,1,03,77,12,227,,79,09,332,,86,15,091,,0*49
$GAGSV,2,1,08,02,28,209,39,05,30,142,30,09,34,080,19,15,13,279,36,2*77
$GAGSV,2,2,08,18,64,308,49,30,38,271,41,34,56,315,47,36,49,055,34,2*75
$GAGSV,2,1,08,02,28,209,44,05,30,142,29,09,34,080,26,15,13,279,36,7*7C
$GAGSV,2,2,08,18,64,308,48,30,38,271,40,34,56,315,46,36,49,055,37,7*72
$GAGSV,1,1,03,04,06,035,,11,06,082,,27,11,322,,0*49
$GBGSV,3,1,11,01,43,152,42,02,28,236,35,03,44,206,42,04,35,132,39,1*72
$GBGSV,3,2,11,07,61,216,40,08,53,267,39,10,62,245,41,11,34,097,24,1*7D
$GBGSV,3,3,11,13,44,260,45,14,62,107,39,28,51,317,44,1*47
$GBGSV,3,1,09,01,43,152,42,03,44,206,37,04,35,132,38,07,61,216,33,3*76
$GBGSV,3,2,09,08,53,267,41,10,62,245,38,11,34,097,30,13,44,260,35,3*73
$GBGSV,3,3,09,14,62,107,44,3*4A
$GBGSV,1,1,04,05,08,256,,21,06,035,,23,06,219,,27,05,297,,0*7D
$GNRMC,045342.00,A,3726.9698527,N,12639.3714314,E,0.024,,220622,,,R,V*05
$GNVTG,,T,,M,0.024,N,0.044,K,D*3E
$GNGNS,045342.00,3726.9698527,N,12639.3714314,E,RRRR,27,0.70,21.777,17.842,2.0,4095,V*0A
$GNGGA,045342.00,3726.9698527,N,12639.3714314,E,4,12,0.70,21.777,M,17.842,M,2.0,4095*59
$GNGSA,A,3,06,20,19,11,17,09,12,,,,,,1.39,0.70,1.20,1*0E
$GNGSA,A,3,78,88,72,87,65,,,,,,,,1.39,0.70,1.20,2*0B
$GNGSA,A,3,02,34,05,36,30,15,,,,,,,1.39,0.70,1.20,3*0E
$GNGSA,A,3,07,04,01,10,28,08,14,13,03,,,,1.39,0.70,1.20,4*0E
$GPGSV,3,1,11,02,20,280,29,06,57,308,46,09,29,121,26,11,24,274,36,1*6C
$GPGSV,3,2,11,12,18,316,39,17,70,109,42,19,79,000,44,20,14,226,37,1*6D
$GPGSV,3,3,11,28,,,45,41,27,238,39,50,47,179,44,1*65
$GPGSV,2,1,06,06,57,308,43,09,29,121,22,11,24,274,34,12,18,316,29,6*6B
$GPGSV,2,2,06,14,18,185,19,17,70,109,38,6*6F
$GPGSV,1,1,02,01,03,077,,40,06,259,,0*69
$GLGSV,2,1,06,65,40,163,42,71,21,032,18,72,56,081,39,78,23,283,40,1*73
$GLGSV,2,2,06,87,55,030,44,88,37,320,48,1*7B
$GLGSV,2,1,05,65,40,163,34,71,21,032,18,72,56,081,35,78,23,283,29,3*70
$GLGSV,2,2,05,88,37,320,37,3*4E
$GLGSV,1,1,03,77,12,227,,79,09,332,,86,15,091,,0*49
$GAGSV,2,1,08,02,28,209,40,05,30,142,30,09,34,080,18,15,13,279,36,2*78
$GAGSV,2,2,08,18,64,308,49,30,38,271,41,34,56,315,47,36,49,055,34,2*75
$GAGSV,2,1,08,02,28,209,43,05,30,142,28,09,34,080,26,15,13,279,36,7*7A
$GAGSV,2,2,08,18,64,308,48,30,38,271,40,34,56,315,46,36,49,055,37,7*72
$GAGSV,1,1,03,04,06,035,,11,06,082,,27,11,322,,0*49
$GBGSV,3,1,11,01,43,152,42,02,28,236,36,03,44,206,43,04,35,132,39,1*70
$GBGSV,3,2,11,07,61,216,39,08,53,267,37,10,62,245,41,11,34,097,23,1*7A
$GBGSV,3,3,11,13,44,260,44,14,62,107,39,28,51,317,43,1*41
$GBGSV,3,1,09,01,43,152,41,03,44,206,38,04,35,132,38,07,61,216,32,3*7B
$GBGSV,3,2,09,08,53,267,41,10,62,245,39,11,34,097,31,13,44,260,35,3*73
$GBGSV,3,3,09,14,62,107,44,3*4A
$GBGSV,1,1,04,05,08,256,,21,06,035,,23,06,219,,27,05,297,,0*7D
$GNRMC,045343.00,A,3726.9698514,N,12639.3714318,E,0.012,,220622,,,R,V*0D
$GNVTG,,T,,M,0.012,N,0.022,K,D*3B
$GNGNS,045343.00,3726.9698514,N,12639.3714318,E,RRRR,27,0.70,21.793,17.842,1.0,4095,V*0E
$GNGGA,045343.00,3726.9698514,N,12639.3714318,E,4,12,0.70,21.793,M,17.842,M,1.0,4095*5D
$GNGSA,A,3,06,20,19,11,17,09,12,,,,,,1.39,0.70,1.20,1*0E
$GNGSA,A,3,78,88,72,87,65,,,,,,,,1.39,0.70,1.20,2*0B
$GNGSA,A,3,02,34,05,36,30,15,,,,,,,1.39,0.70,1.20,3*0E
$GNGSA,A,3,07,04,01,10,28,08,14,13,03,,,,1.39,0.70,1.20,4*0E
$GPGSV,3,1,11,02,20,280,30,06,57,308,47,09,29,121,27,11,24,274,35,1*67
$GPGSV,3,2,11,12,18,316,39,17,70,109,43,19,79,000,43,20,14,226,38,1*64
$GPGSV,3,3,11,28,,,44,41,27,238,39,50,47,179,44,1*64
$GPGSV,2,1,06,06,57,308,42,09,29,121,22,11,24,274,31,12,18,316,28,6*6E
$GPGSV,2,2,06,14,18,185,19,17,70,109,36,6*61
$GPGSV,1,1,03,01,03,077,,03,25,044,,40,06,259,,0*5C
$GLGSV,2,1,06,65,40,163,42,71,21,032,17,72,56,081,40,78,23,283,41,1*73
$GLGSV,2,2,06,87,55,030,44,88,37,320,47,1*74
$GLGSV,2,1,05,65,40,163,33,71,21,032,17,72,56,081,34,78,23,283,30,3*71
$GLGSV,2,2,05,88,37,320,35,3*4C
$GLGSV,1,1,03,77,12,227,,79,09,332,,86,15,091,,0*49
$GAGSV,2,1,08,02,28,209,39,05,30,142,30,09,34,080,18,15,13,279,37,2*77
$GAGSV,2,2,08,18,64,308,49,30,38,271,41,34,56,315,48,36,49,055,34,2*7A
$GAGSV,2,1,08,02,28,209,43,05,30,142,28,09,34,080,26,15,13,279,37,7*7B
$GAGSV,2,2,08,18,64,308,48,30,38,271,41,34,56,315,46,36,49,055,38,7*7C
$GAGSV,1,1,03,04,06,035,,11,06,082,,27,11,322,,0*49
$GBGSV,3,1,11,01,43,152,43,02,28,236,35,03,44,206,43,04,35,132,39,1*72
$GBGSV,3,2,11,07,61,216,40,08,53,267,38,10,62,245,41,11,34,097,23,1*7B
$GBGSV,3,3,11,13,44,260,44,14,62,107,39,28,51,317,43,1*41
$GBGSV,3,1,09,01,43,152,41,03,44,206,37,04,35,132,39,07,61,216,32,3*75
$GBGSV,3,2,09,08,53,267,42,10,62,245,37,11,34,097,30,13,44,260,33,3*79
$GBGSV,3,3,09,14,62,107,44,3*4A
$GBGSV,1,1,04,05,08,256,,21,06,035,,23,06,219,,27,05,297,,0*7D
$GNRMC,045344.00,A,3726.9698510,N,12639.3714322,E,0.018,,220622,,,R,V*0D
$GNVTG,,T,,M,0.018,N,0.034,K,D*36
$GNGNS,045344.00,3726.9698510,N,12639.3714322,E,RRRR,27,0.70,21.770,17.842,2.0,4095,V*0A
$GNGGA,045344.00,3726.9698510,N,12639.3714322,E,4,12,0.70,21.770,M,17.842,M,2.0,4095*59
$GNGSA,A,3,06,20,19,11,17,09,12,,,,,,1.39,0.70,1.20,1*0E
$GNGSA,A,3,78,88,72,87,65,,,,,,,,1.39,0.70,1.20,2*0B
$GNGSA,A,3,02,34,05,36,30,15,,,,,,,1.39,0.70,1.20,3*0E
$GNGSA,A,3,07,04,01,10,28,08,14,13,03,,,,1.39,0.70,1.20,4*0E
$GPGSV,3,1,10,06,57,308,46,09,29,121,26,11,24,274,34,12,18,316,39,1*6A
$GPGSV,3,2,10,17,70,109,43,19,79,000,43,20,14,226,36,28,,,45,1*54
$GPGSV,3,3,10,41,27,238,38,50,47,179,44,1*6E
$GPGSV,2,1,06,06,57,308,42,09,29,121,22,11,24,274,31,12,18,316,28,6*6E
$GPGSV,2,2,06,14,18,185,19,17,70,109,37,6*60
$GPGSV,1,1,04,01,03,077,,02,20,280,,03,25,044,,40,06,259,,0*61
$GLGSV,2,1,06,65,40,163,42,71,21,032,19,72,56,081,39,78,23,283,41,1*73
$GLGSV,2,2,06,87,55,030,44,88,37,320,47,1*74
$GLGSV,2,1,05,65,40,163,34,71,21,032,18,72,56,081,35,78,23,283,31,3*79
$GLGSV,2,2,05,88,37,320,36,3*4F
$GLGSV,1,1,03,77,12,227,,79,09,332,,86,15,091,,0*49
$GAGSV,2,1,08,02,28,209,39,05,30,142,30,09,34,080,18,15,13,279,36,2*76
$GAGSV,2,2,08,18,64,308,49,30,38,271,41,34,56,315,47,36,49,055,34,2*75
$GAGSV,2,1,08,02,28,209,41,05,30,142,28,09,34,080,26,15,13,279,35,7*7B
$GAGSV,2,2,08,18,64,308,48,30,38,271,40,34,56,315,46,36,49,055,38,7*7D
$GAGSV,1,1,03,04,06,035,,11,06,082,,27,11,322,,0*49
$GBGSV,3,1,11,01,43,152,42,02,28,236,35,03,44,206,42,04,35,132,39,1*72
$GBGSV,3,2,11,07,61,216,40,08,53,267,39,10,62,244,40,11,34,097,23,1*7A
$GBGSV,3,3,11,13,44,260,45,14,62,107,39,28,51,317,44,1*47
$GBGSV,3,1,09,01,43,152,41,03,44,206,37,04,35,132,38,07,61,216,33,3*75
$GNRMC,045345.00,A,3726.9698519,N,12639.3714349,E,0.034,,220622,,,R,V*06
$GNVTG,,T,,M,0.034,N,0.064,K,D*3D
$GNGNS,045345.00,3726.9698519,N,12639.3714349,E,RRRR,27,0.70,21.769,17.842,2.0,4095,V*07
$GNGGA,045345.00,3726.9698519,N,12639.3714349,E,4,12,0.70,21.769,M,17.842,M,2.0,4095*54
$GNGSA,A,3,06,20,19,11,17,09,12,,,,,,1.39,0.70,1.20,1*0E
$GNGSA,A,3,78,88,72,87,65,,,,,,,,1.39,0.70,1.20,2*0B
$GNGSA,A,3,02,34,05,36,30,15,,,,,,,1.39,0.70,1.20,3*0E
$GNGSA,A,3,07,04,01,10,28,08,14,13,03,,,,1.39,0.70,1.20,4*0E
$GPGSV,3,1,11,02,20,280,28,06,57,308,47,09,29,121,27,11,24,274,36,1*6D
$GPGSV,3,2,11,12,18,316,40,17,70,109,43,19,79,000,43,20,14,226,38,1*6A
$GPGSV,3,3,11,28,,,44,41,27,238,39,50,47,179,44,1*64
$GPGSV,2,1,06,06,57,308,43,09,29,121,22,11,24,274,33,12,18,316,28,6*6D
$GPGSV,2,2,06,14,18,185,20,17,70,109,37,6*6A
$GPGSV,1,1,03,01,03,077,,03,25,044,,40,06,259,,0*5C
$GLGSV,2,1,06,65,40,163,42,71,21,032,20,72,56,081,40,78,23,283,40,1*76
$GLGSV,2,2,06,87,55,030,43,88,37,320,47,1*73
$GLGSV,2,1,05,65,40,163,34,71,21,032,19,72,56,081,35,78,23,283,30,3*79
$GLGSV,2,2,05,88,37,320,36,3*4F
$GLGSV,1,1,03,77,12,227,,79,09,332,,86,15,091,,0*49
$GAGSV,2,1,08,02,28,209,39,05,30,142,30,09,34,080,16,15,13,279,35,2*7B
$GAGSV,2,2,08,18,64,308,49,30,38,271,41,34,56,315,47,36,49,055,34,2*75
$GAGSV,2,1,08,02,28,209,42,05,30,142,27,09,34,080,26,15,13,279,36,7*74
$GAGSV,2,2,08,18,64,308,48,30,38,271,41,34,56,315,46,36,49,055,39,7*7D
$GAGSV,1,1,03,04,06,035,,11,06,082,,27,11,322,,0*49
$GBGSV,3,1,11,01,43,152,42,02,28,236,35,03,44,206,42,04,35,132,39,1*72
$GBGSV,3,2,11,07,61,216,40,08,53,267,38,10,62,244,40,11,34,098,23,1*74
$GBGSV,3,3,11,13,44,260,43,14,62,107,40,28,51,317,44,1*4F
$GBGSV,3,1,09,01,43,152,41,03,44,206,38,04,35,132,38,07,61,216,33,3*7A
$GBGSV,3,2,09,08,53,267,42,10,62,244,37,11,34,098,29,13,44,260,34,3*78
$GBGSV,3,3,09,14,62,107,44,3*4A
$GBGSV,1,1,04,05,08,256,,21,06,035,,23,06,219,,27,05,297,,0*7D
$GNRMC,045346.00,A,3726.9698517,N,12639.3714323,E,0.007,,220622,,,R,V*07
$GNVTG,,T,,M,0.007,N,0.013,K,D*3D
$GNGNS,045346.00,3726.9698517,N,12639.3714323,E,RRRR,27,0.70,21.755,17.842,2.0,4095,V*09
$GNGGA,045346.00,3726.9698517,N,12639.3714323,E,4,12,0.70,21.755,M,17.842,M,2.0,4095*5A
$GNGSA,A,3,06,20,19,11,17,09,12,,,,,,1.39,0.70,1.20,1*0E
$GNGSA,A,3,78,88,72,87,65,,,,,,,,1.39,0.70,1.20,2*0B
$GNGSA,A,3,02,34,05,36,30,15,,,,,,,1.39,0.70,1.20,3*0E
$GNGSA,A,3,07,04,01,10,28,08,14,13,03,,,,1.39,0.70,1.20,4*0E
$GPGSV,3,1,11,02,20,280,27,06,57,308,46,09,29,121,27,11,24,274,36,1*63
$GPGSV,3,2,11,12,18,316,39,17,70,109,43,19,79,000,44,20,14,226,38,1*63
$GPGSV,3,3,11,28,,,44,41,27,238,39,50,47,179,43,1*63
$GPGSV,2,1,06,06,57,308,45,09,29,121,21,11,24,274,35,12,18,316,29,6*6F
$GPGSV,2,2,06,14,18,185,20,17,70,109,39,6*64
$GPGSV,1,1,03,01,03,077,,03,25,044,,40,06,259,,0*5C
$GLGSV,2,1,06,65,40,163,42,71,21,032,24,72,56,081,42,78,23,283,41,1*71
$GLGSV,2,2,06,87,55,030,44,88,37,320,47,1*74
$GLGSV,2,1,05,65,40,163,35,71,21,032,22,72,56,081,37,78,23,283,34,3*76
$GLGSV,2,2,05,88,37,320,40,3*4E
$GLGSV,1,1,03,77,12,227,,79,09,332,,86,15,091,,0*49
$GAGSV,2,1,08,02,28,209,40,05,30,142,30,09,34,080,13,15,13,279,34,2*71
$GAGSV,2,2,08,18,64,308,48,30,38,271,41,34,56,315,47,36,49,055,34,2*74
$GAGSV,2,1,08,02,28,209,41,05,30,142,27,09,34,080,27,15,13,279,37,7*77
$GAGSV,2,2,08,18,64,308,48,30,38,271,41,34,56,315,46,36,49,055,39,7*7D
$GNRMC,045347.00,A,3726.9698503,N,12639.3714298,E,0.018,,220622,,,R,V*0C
$GNVTG,,T,,M,0.018,N,0.033,K,D*31
$GNGNS,045347.00,3726.9698503,N,12639.3714298,E,RRRR,27,0.70,21.784,17.842,2.0,4095,V*00
$GNGSA,A,3,06,20,19,11,17,09,12,,,,,,1.39,0.70,1.20,1*0E
$GNGSA,A,3,78,88,72,87,65,,,,,,,,1.39,0.70,1.20,2*0B
$GNGSA,A,3,02,34,05,36,30,15,,,,,,,1.39,0.70,1.20,3*0E
$GNGSA,A,3,07,04,01,10,28,08,14,13,03,,,,1.39,0.70,1.20,4*0E
$GPGSV,3,1,11,02,20,280,27,06,57,308,46,09,29,121,27,11,24,274,36,1*63
$GPGSV,3,2,11,12,18,316,39,17,70,109,43,19,79,000,44,20,14,226,36,1*6D
$GPGSV,3,3,11,28,,,44,41,27,238,39,50,47,179,43,1*63
$GPGSV,2,1,06,06,57,308,43,09,29,121,20,11,24,274,34,12,18,316,28,6*68
$GPGSV,2,2,06,14,18,185,17,17,70,109,38,6*61
$GPGSV,1,1,03,01,03,077,,03,25,044,,40,06,259,,0*5C
$GLGSV,2,1,06,65,40,163,42,71,21,032,26,72,56,081,41,78,23,283,41,1*70
$GLGSV,2,2,06,87,55,030,43,88,37,320,46,1*72
$GLGSV,2,1,05,65,40,163,35,71,21,032,22,72,56,081,36,78,23,283,32,3*71
$GLGSV,2,2,05,88,37,320,36,3*4F
$GLGSV,1,1,03,77,12,227,,79,09,332,,86,15,091,,0*49
$GAGSV,2,1,08,02,28,209,39,05,30,142,30,09,34,080,14,15,13,2$GAGSV,2,2,08,18,64,308,48,30,38,271,41,34,56,315,47,36,49,055,33,2*73
$GAGSV,2,1,08,02,28,209,43,05,30,142,28,09,34,080,26,15,13,279,36,7*7A
$GAGSV,2,2,08,18,64,308,48,30,38,271,41,34,56,315,46,36,49,055,39,7*7D
$GAGSV,1,1,03,04,06,035,,11,06,082,,27,11,322,,0*49
$GBGSV,3,1,11,01,43,152,41,02,28,236,35,03,44,206,42,04,35,132,38,1*70
$GBGSV,3,2,11,07,61,216,40,08,53,267,39,10,62,244,40,11,34,098,25,1*73
$GBGSV,3,3,11,13,44,260,45,14,63,106,40,28,51,317,44,1*49
$GBGSV,3,1,09,01,43,152,42,03,44,206,39,04,35,132,39,07,61,216,33,3*79
$GBGSV,3,2,09,08,53,267,43,10,62,244,39,11,34,098,30,13,44,260,36,3*7D
$GBGSV,3,3,09,14,63,106,45,3*4B
$GBGSV,1,1,04,05,08,256,,21,06,035,,23,06,219,,27,05,297,,0*7D
$GNRMC,045348.00,A,3726.9698509,N,12639.3714298,E,0.009,,220622,,,R,V*09
$GNVTG,,T,,M,0.009,N,0.017,K,D*37
$GNGNS,045348.00,3726.9698509,N,12639.3714298,E,RRRR,27,0.70,21.773,17.842,2.0,4095,V*0D
$GNGGA,045348.00,3726.9698509,N,12639.3714298,E,4,12,0.70,21.773,M,17.842,M,2.0,4095*5E
$GNGSA,A,3,06,20,19,11,17,09,12,,,,,,1.39,0.70,1.20,1*0E
$GNGSA,A,3,78,88,72,87,65,,,,,,,,1.39,0.70,1.20,2*0B
$GNGSA,A,3,02,34,05,36,30,15,,,,,,,1.39,0.70,1.20,3*0E
$GNGSA,A,3,07,04,01,10,28,08,14,13,03,,,,1.39,0.70,1.20,4*0E
$GPGSV,3,1,10,06,57,308,46,09,29,121,27,11,24,274,36,12,18,316,39,1*69
$GPGSV,3,2,10,17,70,109,42,19,79,000,43,20,14,226,37,28,,,44,1*55
$GPGSV,3,3,10,41,27,238,39,50,47,179,43,1*68
$GPGSV,2,1,06,06,57,308,44,09,29,121,21,11,24,274,34,12,18,316,28,6*6E
$GPGSV,2,2,06,14,18,185,16,17,70,109,38,6*60
$GPGSV,1,1,04,01,03,077,,02,20,280,,03,25,044,,40,06,259,,0*61
$GLGSV,2,1,06,65,40,163,42,71,21,032,26,72,56,081,41,78,23,283,41,1*70
$GLGSV,2,2,06,87,55,030,43,88,37,320,46,1*72
$GLGSV,2,1,05,65,40,163,35,71,21,032,22,72,56,081,36,78,23,283,32,3*71
$GLGSV,2,2,05,88,37,320,37,3*4E
$GLGSV,1,1,03,77,12,227,,79,09,332,,86,15,091,,0*49
$GAGSV,2,1,08,02,28,209,40,05,30,142,31,09,34,080,17,15,13,279,34,2*74
$GAGSV,2,2,08,18,64,308,49,30,38,271,41,34,56,315,47,36,49,055,33,2*72
$GAGSV,2,1,08,02,28,209,42,05,30,142,28,09,34,080,26,15,13,279,35,7*78
$GNRMC,045349.00,A,3726.9698509,N,12639.3714323,E,0.032,,220622,,,R,V*01
$GNVTG,,T,,M,0.032,N,0.060,K,D*3F
$GNGNS,045349.00,3726.9698509,N,12639.3714323,E,RRRR,27,0.70,21.778,17.842,2.0,4095,V*06
$GNGGA,045349.00,3726.9698509,N,12639.3714323,E,4,12,0.70,21.778,M,17.842,M,2.0,4095*55
$GNGSA,A,3,06,20,19,11,17,09,12,,,,,,1.39,0.70,1.20,1*0E
$GNGSA,A,3,78,88,72,87,65,,,,,,,,1.39,0.70,1.20,2*0B
$GNGSA,A,3,02,34,05,36,30,15,,,,,,,1.39,0.70,1.20,3*0E
$GNGSA,A,3,07,04,01,10,28,08,14,13,03,,,,1.39,0.70,1.20,4*0E
$GPGSV,3,1,11,02,20,280,24,06,57,308,46,09,29,121,26,11,24,274,37,1*60
$GPGSV,3,2,11,12,18,316,40,17,70,109,43,19,79,000,43,20,14,226,37,1*65
$GPGSV,3,3,11,28,,,43,41,27,238,41,50,47,179,43,1*6B
$GPGSV,2,1,06,06,57,308,44,09,29,121,21,11,24,274,34,12,18,316,27,6*61
$GPGSV,2,2,06,14,18,185,16,17,70,109,38,6*60
$GPGSV,1,1,03,01,03,077,,03,25,044,,40,06,259,,0*5C
$GLGSV,2,1,06,65,40,163,40,71,21,032,23,72,56,081,42,78,23,283,40,1*75
$GLGSV,2,2,06,87,55,030,44,88,37,320,46,1*75
$GLGSV,2,1,05,65,40,163,35,71,21,032,21,72,56,081,38,78,23,283,32,3*7C
$GLGSV,2,2,05,88,37,320,38,3*41
$GLGSV,1,1,03,77,12,227,,79,09,332,,86,15,091,,0*49
$GAGSV,2,1,08,02,28,209,39,05,30,142,30,09,34,080,17,15,13,279,35,2*7A
$GAGSV,2,2,08,18,64,308,49,30,38,271,40,34,56,315,47,36,49,055,36,2*76
$GAGSV,2,1,08,02,28,209,42,05,30,142,28,09,34,080,27,15,13,279,36,7*7A
$GAGSV,2,2,08,18,64,308,49,30,38,271,41,34,56,315,46,36,49,055,39,7*7C
$GAGSV,1,1,03,04,06,035,,11,06,082,,27,11,322,,0*49
$GBGSV,3,1,11,01,43,152,41,02,28,236,36,03,44,206,42,04,35,132,39,1*72
$GBGSV,3,2,11,07,61,216,40,08,53,267,39,10,62,244,40,11,34,098,25,1*73
$GBGSV,3,3,11,13,44,260,44,14,63,106,42,28,51,317,45,1*4B
$GBGSV,3,1,09,01,43,152,42,03,44,206,40,04,35,132,39,07,61,216,34,3*70
$GBGSV,3,2,09,08,53,267,42,10,62,244,38,11,34,098,30,13,44,260,37,3*7C
$GBGSV,3,3,09,14,63,106,44,3*4A
$GBGSV,1,1,04,05,08,256,,21,06,035,,23,06,219,,27,05,297,,0*7D
$GNRMC,045350.00,A,3726.9698499,N,12639.3714324,E,0.014,,220622,,,R,V*02
$GNVTG,,T,,M,0.014,N,0.025,K,D*3A
$GNGNS,045350.00,3726.9698499,N,12639.3714324,E,RRRR,27,0.70,21.786,17.842,2.0,4095,V*00
$GNGGA,045350.00,3726.9698499,N,12639.3714324,E,4,12,0.70,21.786,M,17.842,M,2.0,4095*53
$GNGSA,A,3,06,20,19,11,17,09,12,,,,,,1.39,0.70,1.20,1*0E
$GNGSA,A,3,78,88,72,87,65,,,,,,,,1.39,0.70,1.20,2*0B
$GNGSA,A,3,02,34,05,36,30,15,,,,,,,1.39,0.70,1.20,3*0E
$GNGSA,A,3,07,04,01,10,28,08,14,13,03,,,,1.39,0.70,1.20,4*0E
$GPGSV,3,1,11,02,20,280,30,06,57,308,46,09,29,121,28,11,24,274,39,1*65
$GPGSV,3,2,11,12,18,316,35,17,70,109,45,19,79,000,45,20,14,226,38,1*68
$GPGSV,3,3,11,28,,,43,41,27,238,42,50,47,179,42,1*69
$GPGSV,2,1,06,06,57,308,44,09,29,121,20,11,24,274,34,12,18,316,26,6*61
$GPGSV,2,2,06,14,18,185,19,17,70,109,39,6*6E
$GPGSV,1,1,03,01,03,077,,03,25,044,,40,06,259,,0*5C
$GLGSV,2,1,06,65,40,163,42,71,21,032,23,72,56,081,41,78,23,283,40,1*74
$GLGSV,2,2,06,87,55,030,44,88,37,320,46,1*75
$GLGSV,2,1,05,65,40,163,34,71,21,032,21,72,56,081,37,78,23,283,31,3*71
$GLGSV,2,2,05,88,37,320,36,3*4F
$GLGSV,1,1,03,77,12,227,,79,09,332,,86,15,091,,0*49
$GAGSV,2,1,08,02,28,209,36,05,30,142,29,09,34,080,17,15,13,279,33,2*7B
$GAGSV,2,2,08,18,64,308,49,30,38,271,40,34,56,315,47,36,49,055,35,2*75
$GAGSV,2,1,08,02,28,209,43,05,30,142,29,09,34,080,27,15,13,279,38,7*74
$GAGSV,2,2,08,18,64,308,49,30,38,271,40,34,56,315,46,36,49,055,38,7*7C
$GAGSV,1,1,03,04,06,035,,11,06,082,,27,11,322,,0*49
$GBGSV,3,1,11,01,43,152,43,02,28,236,37,03,44,206,41,04,35,132,38,1*73
$GBGSV,3,2,11,07,61,216,39,08,53,267,37,10,62,244,40,11,34,098,25,1*73
$GBGSV,3,3,11,13,44,260,43,14,63,106,41,28,51,317,44,1*4E
$GBGSV,3,1,09,01,43,152,41,03,44,206,41,04,35,132,38,07,61,216,32,3*75
$GBGSV,3,2,09,08,53,267,41,10,62,244,39,11,34,098,30,13,44,260,36,3*7F
$GBGSV,3,3,09,14,63,106,44,3*4A
$GNRMC,045351.00,A,3726.9698515,N,12639.3714298,E,0.016,,220622,,,R,V*02
$GNVTG,,T,,M,0.016,N,0.030,K,D*3C
$GNGNS,045351.00,3726.9698515,N,12639.3714298,E,RRRR,27,0.70,21.798,17.842,2.0,4095,V*0D
$GNGGA,045351.00,3726.9698515,N,12639.3714298,E,4,12,0.70,21.798,M,17.842,M,2.0,4095*5E
$GNGSA,A,3,06,20,19,11,17,09,12,,,,,,1.39,0.70,1.20,1*0E
$GNGSA,A,3,78,88,72,87,65,,,,,,,,1.39,0.70,1.20,2*0B
$GNGSA,A,3,07,04,01,10,28,08,14,13,03,,,,1.39,0.70,1.20,4*0E
$GPGSV,3,1,11,02,20,280,29,06,57,308,46,09,29,121,30,11,24,274,39,1*64
$GPGSV,3,2,11,12,18,316,39,17,70,109,45,19,79,000,46,20,14,226,38,1*67
$GPGSV,3,3,11,28,,,44,41,27,238,42,50,47,179,43,1*6F
$GPGSV,2,1,06,06,57,308,44,09,29,121,18,11,24,274,34,12,18,316,26,6*6A
$GPGSV,2,2,06,14,18,185,21,17,70,109,39,6*65
$GPGSV,1,1,03,01,03,077,,03,25,044,,40,06,259,,0*5C
$GLGSV,2,1,06,65,40,163,43,71,21,032,23,72,56,081,41,78,23,283,40,1*75
$GLGSV,2,2,06,87,55,030,44,88,37,320,46,1*75
$GLGSV,2,1,05,65,40,163,33,71,21,032,21,72,56,081,37,78,23,283,29,3*7F
$GLGSV,2,2,05,88,37,320,36,3*4F
$GLGSV,1,1,03,77,12,227,,79,09,332,,86,15,091,,0*49
$GAGSV,2,1,08,02,28,209,36,05,30,142,29,09,34,080,17,15,13,279,33,2*7B
$GAGSV,2,2,08,18,64,308,49,30,38,271,40,34,56,315,47,36,49,055,35,2*75
$GAGSV,2,1,08,02,28,209,43,05,30,142,29,09,34,080,28,15,13,279,38,7*7B
$GAGSV,2,2,08,18,64,308,49,30,38,271,39,34,56$GAGSV,1,1,03,04,06,035,,11,06,082,,27,11,322,,0*49
$GBGSV,3,1,11,01,43,152,43,02,28,236,36,03,44,206,41,04,35,132,38,1*72
$GBGSV,3,2,11,07,61,216,39,08,53,267,38,10,62,244,40,11,34,098,25,1*7C
$GBGSV,3,3,11,13,44,260,43,14,63,106,41,28,51,317,44,1*4E
$GBGSV,3,1,09,01,43,152,41,03,44,206,41,04,35,132,37,07,61,216,32,3*7A
$GBGSV,3,2,09,08,53,267,42,10,62,244,39,11,34,098,31,13,44,260,35,3*7E
$GBGSV,3,3,09,14,63,106,44,3*4A
$GBGSV,1,1,04,05,08,256,,21,05,035,,23,06,219,,27,05,297,,0*7E
$GNRMC,045352.00,A,3726.9698480,N,12639.3714318,E,0.002,,220622,,,R,V*00
$GNVTG,,T,,M,0.002,N,0.005,K,D*3F
$GNGNS,045352.00,3726.9698480,N,12639.3714318,E,RRRR,27,0.70,21.799,17.842,2.0,4095,V*0B
$GNGGA,045352.00,3726.9698480,N,12639.3714318,E,4,12,0.70,21.799,M,17.842,M,2.0,4095*58
$GNGSA,A,3,06,20,19,11,17,09,12,,,,,,1.39,0.70,1.20,1*0E
$GNGSA,A,3,78,88,72,87,65,,,,,,,,1.39,0.70,1.20,2*0B
$GNGSA,A,3,02,34,05,36,30,15,,,,,,,1.39,0.70,1.20,3*0E
$GNGSA,A,3,07,04,01,10,28,08,14,13,03,,,,1.39,0.70,1.20,4*0E
$GPGSV,3,1,11,02,20,280,30,06,57,308,45,09,29,121,30,11,24,274,34,1*62
$GPGSV,3,2,11,12,18,316,35,17,70,109,45,19,79,000,46,20,14,226,39,1*6A
$GPGSV,3,3,11,28,,,44,41,27,238,41,50,47,179,42,1*6D
$GPGSV,2,1,06,06,57,308,44,09,29,121,18,11,24,274,34,12,18,316,27,6*6B
$GPGSV,2,2,06,14,18,185,22,17,70,109,39,6*66
$GPGSV,1,1,03,01,03,077,,03,25,044,,40,06,259,,0*5C
$GLGSV,2,1,06,65,40,163,41,71,21,032,22,72,56,081,42,78,23,283,40,1*75
$GLGSV,2,2,06,87,55,030,44,88,37,320,47,1*74
$GLGSV,2,1,05,65,40,163,34,71,21,032,22,72,56,081,37,78,23,283,30,3*73
$GLGSV,2,2,05,88,37,320,37,3*4E
$GLGSV,1,1,03,77,12,227,,79,09,332,,86,15,091,,0*49
$GAGSV,2,1,08,02,28,209,36,05,30,142,29,09,34,080,16,15,13,279,33,2*7A
$GAGSV,2,2,08,18,64,308,49,30,38,271,40,34,56,315,47,36,49,055,36,2*76
$GAGSV,2,1,08,02,28,209,43,05,30,142,29,09,34,080,28,15,13,279,37,7*74
$GAGSV,2,2,08,18,64,308,49,30,38,271,38,34,56,315,44,36,49,055,38,7*71
$GAGSV,1,1,03,04,06,035,,11,06,082,,27,11,322,,0*49
$GBGSV,3,1,11,01,43,152,41,02,28,236,36,03,44,206,41,04,35,132,38,1*70
$GBGSV,3,2,11,07,61,216,40,08,53,267,38,10,62,244,40,11,34,098,25,1*72
$GBGSV,3,3,11,13,44,260,42,14,63,106,41,28,51,317,42,1*49
$GBGSV,3,1,09,01,43,152,42,03,44,206,41,04,35,132,37,07,61,216,31,3*7A
$GBGSV,3,2,09,08,53,267,42,10,62,244,39,11,34,098,31,13,44,260,34,3*7F
$GBGSV,3,3,09,14,63,106,45,3*4B
$GBGSV,1,1,04,05,08,256,,21,05,035,,23,06,219,,27,05,297,,0*7E
$GNRMC,045353.00,A,3726.9698514,N,12639.3714330,E,0.010,,220622,,,R,V*04
$GNVTG,,T,,M,0.010,N,0.018,K,D*30
$GNGNS,045353.00,3726.9698514,N,12639.3714330,E,RRRR,27,0.70,21.800,17.842,3.0,4095,V*02
$GNGGA,045353.00,3726.9698514,N,12639.3714330,E,4,12,0.70,21.800,M,17.842,M,3.0,4095*51
$GNGSA,A,3,06,20,19,11,17,09,12,,,,,,1.39,0.70,1.20,1*0E
$GNGSA,A,3,78,88,72,87,65,,,,,,,,1.39,0.70,1.20,2*0B
$GNGSA,A,3,02,34,05,36,30,15,,,,,,,1.39,0.70,1.20,3*0E
$GNGSA,A,3,07,04,01,10,28,08,14,13,03,,,,1.39,0.70,1.20,4*0E
$GPGSV,3,1,11,02,20,280,36,06,57,308,46,09,29,121,30,11,24,274,34,1*67
$GPGSV,3,2,11,12,18,316,38,17,70,109,43,19,79,000,45,20,14,226,40,1*6C
$GPGSV,3,3,11,28,,,45,41,27,238,41,50,47,179,42,1*6C
$GPGSV,2,1,06,06,57,308,44,09,29,121,19,11,24,274,37,12,18,316,27,6*69
$GPGSV,2,2,06,14,18,185,22,17,70,109,39,6*66
$GPGSV,1,1,03,01,03,077,,03,25,044,,40,06,259,,0*5C
$GLGSV,2,1,06,65,40,163,42,71,21,032,18,72,56,081,42,78,23,283,40,1*7F
$GLGSV,2,2,06,87,55,030,43,88,37,320,49,1*7D
$GLGSV,2,1,05,65,40,163,35,71,21,032,21,72,56,081,36,78,23,283,32,3*72
$GLGSV,2,2,05,88,37,320,38,3*41
$GLGSV,1,1,03,77,12,227,,79,09,332,,86,15,091,,0*49
$GAGSV,2,1,08,02,28,209,38,05,30,142,29,09,34,080,18,15,13,279,34,2*7D
$GAGSV,2,2,08,18,64,308,49,30,38,271,42,34,56,315,48,36,49,055,33,2*7E
$GAGSV,2,1,07,02,28,209,43,05,30,142,29,15,13,279,38,18,64,308,49,7*75
$GAGSV,2,2,07,30,38,271,40,34,56,315,45,36,49,055,39,7*4C
$GAGSV,1,1,03,04,06,035,,11,06,082,,27,11,322,,0*49
$GBGSV,3,1,11,01,43,152,42,02,28,236,36,03,44,206,42,04,35,132,38,1*70
$GBGSV,3,2,11,07,61,216,40,08,53,267,37,10,62,244,40,11,34,098,24,1*7C
$GBGSV,3,3,11,13,44,260,42,14,63,106,40,28,51,317,43,1*49
$GBGSV,3,1,09,01,43,152,42,03,44,206,39,04,35,132,38,07,61,216,32,3*79
$GBGSV,3,2,09,08,53,267,41,10,62,244,39,11,34,098,30,13,44,260,34,3*7D
$GBGSV,3,3,09,14,63,106,44,3*4A
$GBGSV,1,1,04,05,08,256,,21,05,035,,23,05,219,,27,05,297,,0*7D
$GNRMC,045354.00,A,3726.9698462,N,12639.3714305,E,0.005,,220622,,,R,V*01
$GNVTG,,T,,M,0.005,N,0.009,K,D*34
$GNGNS,045354.00,3726.9698462,N,12639.3714305,E,RRRR,27,0.70,21.812,17.842,2.0,4095,V*01
$GNGGA,045354.00,3726.9698462,N,12639.3714305,E,4,12,0.70,21.812,M,17.842,M,2.0,4095*52
$GNGSA,A,3,06,20,19,11,17,09,12,,,,,,1.39,0.70,1.20,1*0E
$GNGSA,A,3,78,88,72,87,65,,,,,,,,1.39,0.70,1.20,2*0B
$GNGSA,A,3,02,34,05,36,30,15,,,,,,,1.39,0.70,1.20,3*0E
$GNGSA,A,3,07,04,01,10,28,08,14,13,03,,,,1.39,0.70,1.20,4*0E
$GPGSV,3,2,11,12,18,316,37,17,70,109,45,19,79,000,45,20,14,226,39,1*6B
$GPGSV,3,3,11,28,,,45,41,27,238,41,50,47,179,42,1*6C
$GPGSV,2,1,06,06,57,308,43,09,29,121,20,11,24,274,37,12,18,316,25,6*66
$GPGSV,2,2,06,14,18,185,21,17,70,109,39,6*65
$GPGSV,1,1,03,01,03,077,,03,25,044,,40,06,259,,0*5C
$GLGSV,2,1,06,65,40,163,40,71,21,032,17,72,56,081,42,78,23,283,38,1*7D
$GLGSV,2,2,06,87,55,030,42,88,37,320,48,1*7D
$GLGSV,2,1,05,65,40,163,35,71,21,032,20,72,56,081,35,78,23,283,31,3*73
$GLGSV,2,2,05,88,37,320,38,3*41
$GLGSV,1,1,03,77,12,227,,79,09,332,,86,15,091,,0*49
$GAGSV,2,1,08,02,28,209,39,05,30,142,29,09,34,080,20,15,13,279,34,2*77
$GAGSV,2,2,08,18,64,308,49,30,38,271,42,34,56,315,47,36,49,055,34,2*76
$GAGSV,2,1,07,02,28,209,39,05,30,142,29,15,13,279,38,18,64,308,49,7*78
$GAGSV,2,2,07,30,38,271,40,34,56,315,45,36,49,055,38,7*4D
$GAGSV,1,1,03,04,06,035,,11,06,082,,27,11,322,,0*49
$GBGSV,3,1,11,01,43,152,41,02,28,236,35,03,44,206,4$GNRMC,045355.00,A,3726.9698543,N,12639.3714355,E,0.006,,220622,,,R,V*04
$GNVTG,,T,,M,0.006,N,0.010,K,D*3F
