$GNVTG,,T,,M,0.006,N,0.012,K,D*3D
$GNGNS,050135.00,3726.9498493,N,12639.2541986,E,RRRR,28,0.76,21.238,17.838,2.0,4095,V*08
$GNGGA,050135.00,3726.9498493,N,12639.2541986,E,4,12,0.76,21.238,M,17.838,M,2.0,4095*54
$GNGSA,A,3,17,09,12,19,20,11,06,14,,,,,1.48,0.76,1.27,1*0C
$GNGSA,A,3,76,87,72,71,,,,,,,,,1.48,0.76,1.27,2*07
$GNGSA,A,3,01,08,26,21,13,,,,,,,,1.48,0.76,1.27,3*07
$GNGSA,A,3,02,28,08,07,13,03,27,04,01,10,33,,1.48,0.76,1.27,4*0B
$GPGSV,3,1,12,02,21,281,24,03,23,044,17,04,27,081,18,06,58,312,47,1*64
$GPGSV,3,2,12,09,31,119,45,11,25,276,38,12,19,314,32,14,16,184,36,1*6C
$GPGSV,3,3,12,17,68,114,44,19,80,004,44,20,15,226,42,28,,,31,1*51
$GPGSV,2,1,07,04,27,081,15,06,58,312,44,09,31,119,37,11,25,276,33,6*62
$GPGSV,2,2,07,12,19,314,29,14,16,184,31,17,68,114,40,6*57
$GPGSV,1,1,02,01,01,078,,50,47,179,,0*61
$GLGSV,2,1,06,71,57,083,47,72,39,163,37,76,12,228,38,77,22,277,21,1*7E
$GLGSV,2,2,06,85,18,091,23,87,33,318,35,1*70
$G$GLGSV,2,2,06,85,18,091,19,87,33,318,10,3*7C
$GLGSV,1,1,03,70,21,032,,78,09,331,,86,52,047,,0*42
$GAGSV,2,1,05,01,26,303,41,08,37,117,44,13,65,001,42,21,38,247,35,2*72
$GAGSV,2,2,05,26,30,287,45,2*48
$GAGSV,2,1,07,01,26,303,45,03,24,058,22,08,37,117,44,13,65,001,42,7*76
$GAGSV,2,2,07,18,20,125,42,21,38,247,32,26,30,287,48,7*41
$GAGSV,1,1,03,07,14,169,,15,31,072,,27,16,193,,0*41
$GBGSV,3,1,12,01,43,152,39,02,28,236,36,03,44,206,39,04,35,132,38,1*73
$GBGSV,3,2,12,07,60,215,39,08,53,269,37,10,62,244,37,13,45,261,39,1*71
$GBGSV,3,3,12,27,61,328,47,28,54,088,47,33,42,056,25,37,02,211,17,1*75
$GBGSV,2,1,07,01,43,152,40,03,44,206,40,04,35,132,43,07,60,215,42,3*73
$GBGSV,2,2,07,08,53,269,42,10,62,244,39,13,45,261,29,3*46
$GBGSV,1,1,04,05,08,256,,14,18,041,,15,33,191,,30,13,302,,0*7B
$GNRMC,050136.00,A,3726.9498517,N,12639.2542075,E,0.010,,210622,,,R,V*01
$GNVTG,,T,,M,0.010,N,0.019,K,D*31
$GNGNS,050136.00,3726.9498517,N,12639.2542075,E,RRRR,28,0.76,21.242,17.838,2.0,4095,V*0D
$GNGGA,050136.00,3726.9498517,N,12639.2542075,E,4,12,0.76,21.242,M,17.838,M,2.0,4095*51
$GNGSA,A,3,17,09,12,19,20,11,06,14,,,,,1.48,0.76,1.27,1*0C
$GNGSA,A,3,76,87,72,71,,,,,,,,,1.48,0.76,1.27,2*07
$GNGSA,A,3,01,08,26,21,13,,,,,,,,1.48,0.76,1.27,3*07
$GNGSA,A,3,02,28,08,07,13,03,27,04,01,10,33,,1.48,0.76,1.27,4*0B
$GPGSV,3,1,12,02,21,281,23,03,23,044,17,04,27,081,18,06,58,312,48,1*6C
$GNRMC,050137.00,A,3726.9498522,N,12639.2542075,E,0.004,,210622,,,R,V*03
$GNVTG,,T,,M,0.004,N,0.008,K,D*34
$GNGNS,050137.00,3726.9498522,N,12639.2542075,E,RRRR,28,0.76,21.246,17.838,2.0,4095,V*0E
$GNGGA,050137.00,3726.9498522,N,12639.2542075,E,4,12,0.76,21.246,M,17.838,M,2.0,4095*52
$GNGSA,A,3,17,09,12,19,20,11,06,14,,,,,1.48,0.76,1.27,1*0C
$GNGSA,A,3,76,87,72,71,,,,,,,,,1.48,0.76,1.27,2*07
$GNGSA,A,3,01,08,26,21,13,,,,,,,,1.48,0.76,1.27,3*07
$GNGSA,A,3,02,28,08,07,13,03,27,04,01,10,33,,1.48,0.76,1.27,4*0B
$GPGSV,3,1,12,02,21,281,25,03,23,044,17,04,27,081,18,06,58,312,49,1*6B
$GPGSV,3,2,12,09,31,119,43,11,25,276,28,12,19,314,36,14,16,184,35,1*6C
$GPGSV,3,3,12,17,68,114,41,19,81,009,45,20,15,226,38,28,,,40,1*52
$GPGSV,2,1,07,04,27,081,12,06,58,312,43,09,31,119,36,11,25,276,33,6*63
$GPGSV,2,2,07,12,19,314,31,14,16,184,34,17,68,114,38,6*54
$GPGSV,1,1,02,01,01,078,,50,47,179,,0*61
$GLGSV,2,1,06,71,57,083,48,72,39,163,37,76,12,228,32,77,22,277,20,1*7A
$GLGSV,2,2,06,85,18,091,23,87,33,318,36,1*73
$GLGSV,2,1,06,71,57,083,38,72,39,163,30,76,12,228,36,77,22,277,18,3*77
$GLGSV,2,2,06,85,18,091,20,87,33,318,08,3*7F
$GLGSV,1,1,03,70,21,032,,78,09,331,,86,52,047,,0*42
$GAGSV,2,1,05,01,26,303,44,08,37,117,42,13,65,001,40,21,38,247,38,2*7E
$GAGSV,2,2,05,26,30,287,42,2*4F
$GAGSV,2,1,07,01,26,303,44,03,24,058,22,08,37,117,42,13,65,001,43,7*70
$GAGSV,2,2,07,18,20,125,43,21,38,247,31,26,30,287,47,7*4C
$GAGSV,1,1,03,07,14,169,,15,31,072,,27,16,193,,0*41
$GBGSV,3,1,12,01,43,152,36,02,28,236,35,03,44,206,42,04,35,132,34,1*7F
$GBGSV,3,2,12,07,60,215,41,08,53,269,40,10,62,244,42,13,45,261,41,1*73
$GBGSV,3,3,12,27,61,328,48,28,54,088,45,33,42,056,26,37,02,211,13,1*7F
$GBGSV,2,1,07,01,43,152,39,03,44,206,39,04,35,132,42,07,60,215,41,3*71
$GBGSV,2,2,07,08,53,269,43,10,62,244,41,13,45,261,35,3*45
$GBGSV,1,1,04,05,08,256,,14,18,041,,15,33,191,,30,13,302,,0*7B
$GNRMC,050138.00,A,3726.9498517,N,12639.2542051,E,0.019,,210622,,,R,V*00
$GNVTG,,T,,M,0.019,N,0.035,K,D*36
$GNGNS,050138.00,3726.9498517,N,12639.2542051,E,RRRR,28,0.76,21.237,17.838,2.0,4095,V*07
$GNGGA,050138.00,3726.9498517,N,12639.2542051,E,4,12,0.76,21.237,M,17.838,M,2.0,4095*5B
$GNGSA,A,3,17,09,12,19,20,11,06,14,,,,,1.48,0.76,1.27,1*0C
$GNGSA,A,3,76,87,72,71,,,,,,,,,1.48,0.76,1.27,2*07
$GNGSA,A,3,01,08,26,21,13,,,,,,,,1.48,0.76,1.27,3*07
$GNGSA,A,3,02,28,08,07,13,03,27,04,01,10,33,,1.48,0.76,1.27,4*0B
$GPGSV,3,1,12,02,21,281,32,03,23,044,15,04,27,081,17,06,58,312,48,1*61
$GPGSV,3,2,12,09,31,119,43,11,25,276,32,12,19,314,33,14,16,184,37,1*60
$GPGSV,3,3,12,17,68,114,40,19,81,009,42,20,16,227,40,28,,,41,1*58
$GPGSV,2,1,07,04,27,081,15,06,58,312,43,09,31,119,36,11,25,276,33,6*64
$GPGSV,2,2,07,12,19,314,30,14,16,184,31,17,68,114,38,6*50
$GPGSV,1,1,02,01,01,078,,50,47,179,,0*61
$GLGSV,2,1,06,71,57,083,48,72,39,163,40,76,12,228,32,77,22,277,20,1*7A
$GLGSV,2,2,06,85,18,091,22,87,33,318,37,1*73
$GLGSV,2,1,06,71,57,083,37,72,39,163,28,76,12,228,35,77,22,277,18,3*72
$GLGSV,2,2,06,85,18,091,20,87,33,318,08,3*7F
$GLGSV,1,1,03,70,21,032,,78,09,331,,86,52,047,,0*42
$GAGSV,2,1,05,01,26,303,43,08,37,117,42,13,65,001,40,21,38,247,38,2*79
$GAGSV,2,2,05,26,30,287,42,2*4F
$GAGSV,2,1,07,01,26,303,43,03,24,058,23,08,37,117,42,13,65,001,40,7*75
$GAGSV,2,2,07,18,20,125,43,21,38,247,35,26,30,287,48,7*47
$GAGSV,1,1,03,07,14,169,,15,31,072,,27,16,193,,0*41
$GBGSV,3,1,12,01,43,152,37,02,28,236,38,03,44,206,42,04,35,132,35,1*72
$GBGSV,3,2,12,07,60,215,41,08,53,269,40,10,62,244,40,13,45,261,42,1*72
$GNRMC,050139.00,A,3726.9498531,N,12639.2542061,E,0.010,,210622,,,R,V*0F
$GNVTG,,T,,M,0.010,N,0.019,K,D*31
$GNGNS,050139.00,3726.9498531,N,12639.2542061,E,RRRR,28,0.76,21.229,17.838,2.0,4095,V*0E
$GNGGA,050139.00,3726.9498531,N,12639.2542061,E,4,12,0.76,21.229,M,17.838,M,2.0,4095*52
$GNGSA,A,3,17,09,12,19,20,11,06,14,,,,,1.48,0.76,1.27,1*0C
$GNGSA,A,3,76,87,72,71,,,,,,,,,1.48,0.76,1.27,2*07
$GNGSA,A,3,01,08,26,21,13,,,,,,,,1.48,0.76,1.27,3*07
$GNGSA,A,3,02,28,08,07,13,03,27,04,01,10,33,,1.48,0.76,1.27,4*0B
$GPGSV,3,1,12,02,21,281,31,03,23,044,13,04,27,081,18,06,58,312,48,1*6B
$GPGSV,3,2,12,09,31,119,43,11,25,276,29,12,19,314,34,14,16,184,38,1*62
$GPGSV,3,3,12,17,68,114,40,19,81,009,42,20,16,227,40,28,,,42,1*5B
$GPGSV,2,1,07,04,27,081,16,06,58,312,43,09,31,119,37,11,25,276,32,6*67
$GPGSV,2,2,07,12,19,314,31,14,16,184,32,17,68,114,38,6*52
$GPGSV,1,1,02,01,01,078,,50,47,179,,0*61
$GLGSV,2,1,06,71,57,083,48,72,39,163,41,76,12,228,33,77,22,277,20,1*7A
$GLGSV,2,2,06,85,18,091,22,87,33,318,37,1*73
$GLGSV,2,1,06,71,57,083,37,72,39,163,27,76,12,228,36,77,22,277,17,3*71
$GLGSV,2,2,06,85,18,091,20,87,33,318,08,3*7F
$GLGSV,1,1,03,70,21,032,,78,09,331,,86,52,047,,0*42
$GAGSV,2,1,05,01,26,303,43,08,37,117,43,13,65,001,40,21,38,247,39,2*79
$GAGSV,2,2,05,26,30,287,39,2*43
$GAGSV,2,1,06,01,26,303,43,08,37,117,43,13,65,001,41,18,20,125,43,7*77
$GAGSV,2,2,06,21,38,247,34,26,30,287,48,7*7D
$GAGSV,1,1,04,03,24,058,,07,14,169,,15,31,072,,27,16,193,,0*7E
$GBGSV,3,1,12,01,43,152,38,02,28,236,37,03,44,206,42,04,35,132,35,1*72
$GBGSV,3,2,12,07,60,215,41,08,53,269,40,10,62,244,41,13,45,261,42,1*73
$GBGSV,3,3,12,27,61,328,47,28,54,088,44,33,42,056,27,37,02,211,14,1*77
$GBGSV,2,1,07,01,43,152,39,03,44,206,38,04,35,132,42,07,60,215,41,3*70
$GBGSV,2,2,07,08,53,269,43,10,62,244,41,13,45,261,36,3*46
$GBGSV,1,1,04,05,08,256,,14,18,041,,15,33,191,,30,13,302,,0*7B
$GNRMC,050140.00,A,3726.9498469,N,12639.2542007,E,0.022,,210622,,,R,V*0C
$GNVTG,,T,,M,0.022,N,0.041,K,D*3D
$GNGNS,050140.00,3726.9498469,N,12639.2542007,E,RRRR,28,0.76,21.237,17.838,2.0,4095,V*03
$GNGGA,050140.00,3726.9498469,N,12639.2542007,E,4,12,0.76,21.237,M,17.838,M,2.0,4095*5F
$GNGSA,A,3,17,09,12,19,20,11,06,14,,,,,1.48,0.76,1.27,1*0C
$GNGSA,A,3,76,87,72,71,,,,,,,,,1.48,0.76,1.27,2*07
$GNGSA,A,3,01,08,26,21,13,,,,,,,,1.48,0.76,1.27,3*07
$GNGSA,A,3,02,28,08,07,13,03,27,04,01,10,33,,1.48,0.76,1.27,4*0B
$GPGSV,3,1,12,02,21,281,37,03,23,044,12,04,27,081,18,06,58,312,48,1*6C
$GPGSV,3,2,12,09,31,119,44,11,25,276,35,12,19,314,35,14,16,184,39,1*68
$GPGSV,3,3,12,17,68,114,39,19,81,009,41,20,16,227,41,28,,,42,1*57
$GPGSV,2,1,07,04,27,081,17,06,58,312,43,09,31,119,37,11,25,276,31,6*65
$GPGSV,2,2,07,12,19,314,32,14,16,184,32,17,68,114,38,6*51
$GLGSV,2,1,06,71,57,083,48,72,39,163,41,76,12,228,33,77,22,277,19,1*70
$GLGSV,2,2,06,85,18,091,22,87,33,318,38,1*7C
$GLGSV,2,1,06,71,57,083,36,72,39,163,27,76,12,228,36,77,22,277,18,3*7F
$GLGSV,2,2,06,85,18,091,20,87,33,318,08,3*7F
$GLGSV,1,1,03,70,21,032,,78,09,331,,86,52,047,,0*42
$GAGSV,2,1,05,01,26,303,40,08,37,117,43,13,65,001,39,21,38,247,39,2*74
$GAGSV,2,2,05,26,30,287,39,2*43
$GAGSV,2,1,06,01,26,303,43,08,37,117,44,13,65,001,41,18,20,125,43,7*70
$GAGSV,2,2,06,21,38,247,33,26,30,287,47,7*75
$GAGSV,1,1,04,03,24,058,,07,14,169,,15,31,072,,27,16,193,,0*7E
$GBGSV,3,1,12,01,43,152,37,02,28,236,37,03,44,206,42,04,35,132,35,1*7D
$GBGSV,3,2,12,07,60,215,40,08,53,269,40,10,62,244,39,13,45,261,42,1*7D
$GBGSV,3,3,12,27,61,328,46,28,54,088,44,33,42,056,27,37,02,211,14,1*76
$GBGSV,2,1,07,01,43,152,38,03,44,206,39,04,35,132,42,07,60,215,41,3*70
$GBGSV,2,2,07,08,53,269,43,10,62,244,41,13,45,261,36,3*46
$GBGSV,1,1,04,05,08,256,,14,18,041,,15,33,191,,30,13,302,,0$GNRMC,050141.00,A,3726.9498449,N,12639.2542009,E,0.018,,210622,,,R,V*08
$GNVTG,,T,,M,0.018,N,0.034,K,D*36
$GNGNS,050141.00,3726.9498449,N,12639.2542009,E,RRRR,28,0.76,21.239,17.838,2.0,4095,V*00
$GNGGA,050141.00,3726.9498449,N,12639.2542009,E,4,12,0.76,21.239,M,17.838,M,2.0,4095*5C
$GNGSA,A,3,17,09,12,19,20,11,06,14,,,,,1.48,0.76,1.27,1*0C
$GNGSA,A,3,76,87,72,71,,,,,,,,,1.48,0.76,1.27,2*07
$GNGSA,A,3,01,08,26,21,13,,,,,,,,1.48,0.76,1.27,3*07
$GNGSA,A,3,02,28,08,07,13,03,27,04,01,10,33,,1.48,0.76,1.27,4*0B
$GPGSV,3,1,12,02,21,281,34,03,23,044,11,04,27,081,18,06,58,312,48,1*6C
$GPGSV,3,2,12,09,31,119,44,11,25,276,34,12,19,314,35,14,16,184,39,1*69
$GPGSV,3,3,12,17,68,114,39,19,81,009,40,20,16,227,40,28,,,42,1*57
$GPGSV,2,1,07,04,27,081,17,06,58,312,44,09,31,119,36,11,25,276,31,6*63
$GPGSV,2,2,07,12,19,314,32,14,16,184,32,17,68,114,38,6*51
$GPGSV,1,1,02,01,01,078,,50,47,179,,0*61
$GLGSV,2,1,06,71,57,083,47,72,39,163,41,76,12,228,32,77,22,277,19,1*7E
$GLGSV,2,2,06,85,18,091,22,87,33,318,38,1*7C
$GLGSV,2,1,06,71,57,083,36,72,39,163,27,76,12,228,37,77,22,277,18,3*7E
$GLGSV,2,2,06,85,18,091,19,87,33,318,10,3*7C
$GLGSV,1,1,03,70,21,032,,78,09,331,,86,52,047,,0*42
$GAGSV,2,1,05,01,26,303,41,08,37,117,42,13,65,001,39,21,38,247,39,2*74
$GAGSV,2,2,05,26,30,287,39,2*43
$GAGSV,2,1,06,01,26,303,42,08,37,117,42,13,65,001,40,18,20,125,43,7*76
$GAGSV,2,2,06,21,38,247,33,26,30,287,46,7*74
$GAGSV,1,1,04,03,24,058,,07,14,169,,15,31,072,,27,16,193,,0*7E
$GBGSV,3,1,12,01,43,152,37,02,28,236,38,03,44,206,42,04,35,132,35,1*72
$GBGSV,3,2,12,07,60,215,40,08,53,269,41,10,62,244,40,13,45,261,42,1*72
$GBGSV,3,3,12,27,61,328,46,28,54,088,44,33,42,056,27,37,02,211,13,1*71
$GBGSV,2,1,07,01,43,152,38,03,44,206,39,04,35,132,42,07,60,215,40,3*71
$GBGSV,2,2,07,08,53,269,43,10,62,244,40,13,45,261,36,3*47
$GBGSV,1,1,04,05,08,256,,14,18,041,,15,33,191,,30,13,302,,0*7B
$GNRMC,050142.00,A,3726.9498463,N,12639.2542037,E,0.017,,210622,,,R,V*01
$GNVTG,,T,,M,0.017,N,0.032,K,D*3F
$GNGNS,050142.00,3726.9498463,N,12639.2542037,E,RRRR,28,0.76,21.239,17.838,2.0,4095,V*06
$GNGGA,050142.00,3726.9498463,N,12639.2542037,E,4,12,0.76,21.239,M,17.838,M,2.0,4095*5A
$GNGSA,A,3,17,09,12,19,20,11,06,14,,,,,1.48,0.76,1.27,1*0C
$GPGSV,3,2,12,09,31,119,43,11,25,276,32,12,19,314,34,14,16,184,38,1*68
$GPGSV,3,3,12,17,68,114,39,19,81,009,41,20,16,227,39,28,,,42,1*58
$GPGSV,2,2,07,12,19,314,32,14,16,184,31,17,68,114,37,6*5D
$GPGSV,1,1,02,01,01,078,,50,47,179,,0*61
$GLGSV,2,1,06,71,57,083,47,72,39,163,42,76,12,228,25,77,22,277,20,1*71
$GLGSV,2,2,06,85,18,091,21,87,33,318,38,1*7F
$GLGSV,2,1,06,71,57,083,36,72,39,163,27,76,12,228,37,77,22,277,17,3*71
$GLGSV,2,2,06,85,18,091,17,87,33,318,11,3*73
$GLGSV,1,1,03,70,21,032,,78,09,331,,86,52,047,,0*42
$GAGSV,2,1,05,01,26,303,42,08,37,117,42,13,65,001,39,21,38,247,37,2*79
$GAGSV,2,2,05,26,30,287,38,2*42
$GAGSV,2,1,06,01,26,303,43,08,37,117,41,13,65,001,41,18,20,125,43,7*75
$GAGSV,2,2,06,21,38,247,33,26,30,287,47,7*75
$GAGSV,1,1,04,03,24,058,,07,14,169,,15,31,072,,27,16,193,,0*7E
$GBGSV,3,1,12,01,43,152,38,02,28,236,38,03,44,206,42,04,35,132,35,1*7D
$GBGSV,3,2,12,07,60,215,41,08,53,269,41,10,62,244,41,13,45,261,42,1*72
$GNRMC,050143.00,A,3726.9498482,N,12639.2542038,E,0.018,,210622,,,R,V*0F
$GNVTG,,T,,M,0.018,N,0.034,K,D*36
$GNGNS,050143.00,3726.9498482,N,12639.2542038,E,RRRR,28,0.69,21.238,17.838,1.0,4095,V*0B
$GNGGA,050143.00,3726.9498482,N,12639.2542038,E,4,12,0.69,21.238,M,17.838,M,1.0,4095*57
$GNGSA,A,3,17,09,12,19,20,11,06,14,,,,,1.32,0.69,1.12,1*09
$GNGSA,A,3,76,87,72,71,,,,,,,,,1.32,0.69,1.12,2*02
$GNGSA,A,3,01,08,26,21,13,,,,,,,,1.32,0.69,1.12,3*02
$GNGSA,A,3,02,28,08,07,13,03,27,04,01,10,33,,1.32,0.69,1.12,4*0E
$GPGSV,3,1,12,02,21,281,31,03,23,044,13,04,27,081,19,06,58,312,49,1*6B
$GPGSV,3,2,12,09,31,119,43,11,25,276,31,12,19,314,35,14,16,184,39,1*6B
$GPGSV,3,3,12,17,68,114,39,19,81,009,41,20,16,227,39,28,,,43,1*59
$GPGSV,2,1,07,04,27,081,17,06,58,312,43,09,31,119,37,11,25,276,32,6*66
$GPGSV,2,2,07,12,19,314,31,14,16,184,31,17,68,114,37,6*5E
$GPGSV,1,1,02,01,01,078,,50,47,179,,0*61
$GLGSV,2,1,06,71,57,083,47,72,39,163,42,76,12,228,26,77,22,277,19,1*78
$GLGSV,2,2,06,85,18,091,20,87,33,318,39,1*7F
$GLGSV,2,1,06,71,57,083,36,72,39,163,27,76,12,228,36,77,22,277,13,3*74
$GLGSV,2,2,06,85,18,091,15,87,33,318,10,3*70
$GLGSV,1,1,03,70,21,032,,78,09,331,,86,52,047,,0*42
$GAGSV,2,1,05,01,26,303,40,08,37,117,41,13,65,001,39,21,38,247,38,2*77
$GAGSV,2,2,05,26,30,287,36,2*4C
$GAGSV,2,1,06,01,26,303,43,08,37,117,41,13,65,001,41,18,20,125,43,7*75
$GAGSV,2,2,06,21,38,247,33,26,30,287,47,7*75
$GAGSV,1,1,04,03,24,058,,07,14,169,,15,31,072,,27,16,193,,0*7E
$GBGSV,3,1,12,01,43,152,37,02,28,236,38,03,44,206,42,04,35,132,35,1*72
$GBGSV,3,2,12,07,60,215,41,08,53,269,41,10,62,244,41,13,45,261,42,1*72
$GBGSV,3,3,12,27,61,328,47,28,54,088,44,33,42,056,27,37,02,211,16,1*75
$GBGSV,2,1,07,01,43,152,38,03,44,206,39,04,35,132,42,07,60,215,41,3*70
$GBGSV,2,2,07,08,53,269,43,10,62,244,40,13,45,261,37,3*46
$GBGSV,1,1,04,05,08,256,,14,18,041,,15,33,191,,30,13,302,,0*7B
$GNRMC,050144.00,A,3726.9498496,N,12639.2542060,E,0.010,,210622,,,R,V*08
$GNVTG,,T,,M,0.010,N,0.018,K,D*30
$GNGNS,050144.00,3726.9498496,N,12639.2542060,E,RRRR,28,0.69,21.233,17.838,2.0,4095,V*0C
$GNGGA,050144.00,3726.9498496,N,12639.2542060,E,4,12,0.69,21.233,M,17.838,M,2.0,4095*50
$GNGSA,A,3,17,09,12,19,20,11,06,14,,,,,1.32,0.69,1.12,1*09
$GNGSA,A,3,76,87,72,71,,,,,,,,,1.32,0.69,1.12,2*02
$GNGSA,A,3,01,08,26,21,13,,,,,,,,1.32,0.69,1.12,3*02
$GNGSA,A,3,02,28,08,07,13,03,27,04,01,10,33,,1.32,0.69,1.12,4*0E
$GPGSV,3,1,12,02,21,281,32,03,23,044,14,04,27,081,20,06,58,312,49,1*65
$GPGSV,3,2,12,09,31,119,43,11,25,276,31,12,19,314,35,14,16,184,39,1*6B
$GPGSV,3,3,12,17,68,114,39,19,81,009,41,20,16,227,40,28,,,43,1*57
$GPGSV,2,1,07,04,27,081,17,06,58,312,44,09,31,119,36,11,25,276,32,6*60
$GPGSV,2,2,07,12,19,314,31,14,16,184,31,17,68,114,37,6*5E
$GPGSV,1,1,02,01,01,078,,50,47,179,,0*61
$GLGSV,2,1,06,71,57,083,47,72,39,163,43,76,12,228,24,77,22,277,19,1*7B
$GLGSV,2,2,06,85,18,091,19,87,33,318,38,1*74
$GLGSV,2,1,06,71,57,083,36,72,39,163,25,76,12,228,35,77,22,277,11,3*77
$GLGSV,2,2,06,85,18,091,12,87,33,318,10,3*77
$GLGSV,1,1,03,70,21,032,,78,09,331,,86,52,047,,0*42
$GAGSV,2,1,05,01,26,303,41,08,37,117,42,13,65,001,40,21,38,247,39,2*7A
$GAGSV,2,2,05,26,30,287,39,2*43
$GAGSV,2,1,07,01,26,303,43,08,37,117,41,13,65,001,41,15,31,072,24,7*7B
$GAGSV,2,2,07,18,20,125,44,21,38,247,33,26,30,287,47,7*49
$GAGSV,1,1,03,03,24,058,,07,14,169,,27,16,193,,0*4A
$GBGSV,3,1,12,01,43,152,37,02,28,236,38,03,44,206,43,04,35,132,35,1*73
$GBGSV,3,2,12,07,60,215,41,08,53,269,41,10,62,244,42,13,45,261,42,1*71
$GBGSV,3,3,12,27,61,328,47,28,54,088,44,33,42,056,27,37,02,211,16,1*75
$GBGSV,2,1,07,01,43,152,38,03,44,206,40,04,35,132,42,07,60,215,41,3*7E
$GBGSV,2,2,07,08,53,269,43,10,62,244,41,13,45,261,37,3*47
$GNRMC,050145.00,A,3726.9498500,N,12639.2542041,E,0.010,,210622,,,R,V*04
$GNVTG,,T,,M,0.010,N,0.019,K,D*31
$GNGNS,050145.00,3726.9498500,N,12639.2542041,E,RRRR,28,0.69,21.229,17.838,2.0,4095,V*0B
$GNGGA,050145.00,3726.9498500,N,12639.2542041,E,4,12,0.69,21.229,M,17.838,M,2.0,4095*57
$GNGSA,A,3,17,09,12,19,20,11,06,14,,,,,1.32,0.69,1.12,1*09
$GNGSA,A,3,76,87,72,71,,,,,,,,,1.32,0.69,1.12,2*02
$GNGSA,A,3,01,08,26,21,13,,,,,,,,1.32,0.69,1.12,3*02
$GNGSA,A,3,02,28,08,07,13,03,27,04,01,10,33,,1.32,0.69,1.12,4*0E
$GPGSV,4,1,13,02,21,281,32,03,23,044,13,04,27,081,21,06,58,312,49,1*65
$GPGSV,4,2,13,09,31,119,43,11,25,276,30,12,19,314,35,14,16,184,39,1*6C
$GPGSV,4,3,13,17,68,114,39,19,81,009,41,20,16,227,40,28,,,43,1*51
$GPGSV,4,4,13,50,47,179,32,1*5E
$GPGSV,2,1,07,04,27,081,17,06,58,312,43,09,31,119,36,11,25,276,32,6*67
$GPGSV,2,2,07,12,19,314,31,14,16,184,30,17,68,114,37,6*5F
$GPGSV,1,1,01,01,01,078,,0*5B
$GLGSV,2,1,06,71,57,083,47,72,39,163,43,76,12,228,24,77,22,277,20,1*71
$GLGSV,2,2,06,85,18,091,17,87,33,318,38,1*7A
$GLGSV,2,1,06,71,57,083,35,72,39,163,23,76,12,228,36,77,22,277,13,3*73
$GLGSV,2,2,06,85,18,091,10,87,33,318,08,3*7C
$GLGSV,1,1,03,70,21,032,,78,09,331,,86,52,047,,0*42
$GAGSV,2,1,05,01,26,303,40,08,37,117,41,13,65,001,39,21,38,247,38,2*77
$GAGSV,2,2,05,26,30,287,36,2*4C
$GAGSV,2,1,06,01,26,303,43,08,37,117,41,13,65,001,41,18,20,125,43,7*75
$GAGSV,2,2,06,21,38,247,33,26,30,287,47,7*75
$GAGSV,1,1,04,03,24,058,,07,14,169,,15,31,072,,27,16,193,,0*7E
$GBGSV,3,1,12,01,43,152,37,02,28,236,38,03,44,206,43,04,35,132,35,1*73
$GBGSV,3,2,12,07,60,215,41,08,53,269,41,10,62,244,41,13,45,261,43,1*73
$GBGSV,3,3,12,27,61,328,47,28,54,088,44,33,42,056,26,37,02,211,17,1*75
$GBGSV,2,1,07,01,43,152,38,03,44,206,40,04,35,132,42,07,60,215,41,3*7E
$GBGSV,2,2,07,08,53,269,43,10,62,244,41,13,45,261,37,3*47
$GNRMC,050146.00,A,3726.9498495,N,12639.2542012,E,0.004,,210622,,,R,V*09
$GNVTG,,T,,M,0.004,N,0.007,K,D*3B
$GNGNS,050146.00,3726.9498495,N,12639.2542012,E,RRRR,28,0.69,21.244,17.838,2.0,4095,V*08
$GNGGA,050146.00,3726.9498495,N,12639.2542012,E,4,12,0.69,21.244,M,17.838,M,2.0,4095*54
$GNGSA,A,3,17,09,12,19,20,11,06,14,,,,,1.32,0.69,1.12,1*09
$GNGSA,A,3,76,87,72,71,,,,,,,,,1.32,0.69,1.12,2*02
$GNGSA,A,3,01,08,26,21,13,,,,,,,,1.32,0.69,1.12,3*02
$GNGSA,A,3,02,28,08,07,13,03,27,04,01,10,33,,1.32,0.69,1.12,4*0E
$GPGSV,4,1,13,02,21,281,31,03,23,044,13,04,27,081,21,06,58,312,49,1*66
$GPGSV,4,2,13,09,31,119,43,11,25,276,31,12,19,314,35,14,16,184,39,1*6D
$GPGSV,4,3,13,17,68,114,39,19,81,009,43,20,16,227,38,28,,,43,1*5C
$GPGSV,4,4,13,50,47,179,33,1*5F
$GPGSV,2,1,07,04,27,081,15,06,58,312,43,09,31,119,36,11,25,276,32,6*65
$GPGSV,2,2,07,12,19,314,31,14,16,184,30,17,68,114,37,6*5F
$GPGSV,1,1,01,01,01,078,,0*5B
$GLGSV,2,1,06,71,57,083,46,72,39,163,43,76,12,228,23,77,22,277,19,1*7D
$GLGSV,2,2,06,85,18,091,15,87,33,318,38,1*78
$GLGSV,2,1,06,71,57,083,36,72,39,163,23,76,12,228,35,77,22,277,13,3*73
$GLGSV,2,2,06,85,18,091,08,87,33,318,09,3*74
$GLGSV,1,1,03,70,21,032,,78,09,331,,86,52,047,,0*42
$GAGSV,2,1,05,01,26,303,43,08,37,117,41,13,65,001,39,21,38,247,38,2*74
$GAGSV,2,2,05,26,30,287,40,2*4D
$GAGSV,2,1,06,01,26,303,43,08,37,117,41,13,65,001,41,18,20,125,43,7*75
$GAGSV,2,2,06,21,38,247,33,26,30,287,47,7*75
$GAGSV,1,1,04,03,24,058,,07,14,169,,15,31,072,,27,16,193,,0*7E
$GBGSV,3,1,12,01,43,152,37,02,28,236,36,03,44,206,43,04,35,132,34,1*7C
$GBGSV,3,2,12,07,60,215,41,08,53,269,40,10,62,244,42,13,45,261,42,1*70
$GBGSV,3,3,12,27,61,328,48,28,54,088,44,33,42,056,27,37,02,211,16,1*7A
$GBGSV,2,1,07,01,43,152,38,03,44,206,40,04,35,132,42,07,60,215,41,3*7E
$GBGSV,2,2,07,08,53,269,42,10,62,244,41,13,45,261,37,3*46
$GNRMC,050147.00,A,3726.9498469,N,12639.2542013,E,0.014,,210622,,,R,V*0B
$GNVTG,,T,,M,0.014,N,0.026,K,D*39
$GNGNS,050147.00,3726.9498469,N,12639.2542013,E,RRRR,28,0.69,21.243,17.838,2.0,4095,V*0C
$GNGGA,050147.00,3726.9498469,N,12639.2542013,E,4,12,0.69,21.243,M,17.838,M,2.0,4095*50
$GNGSA,A,3,17,09,12,19,20,11,06,14,,,,,1.32,0.69,1.12,1*09
$GNGSA,A,3,76,87,72,71,,,,,,,,,1.32,0.69,1.12,2*02
$GNGSA,A,3,01,08,26,21,13,,,,,,,,1.32,0.69,1.12,3*02
$GNGSA,A,3,02,28,08,07,13,03,27,04,01,10,33,,1.32,0.69,1.12,4*0E
$GPGSV,4,1,13,02,21,281,32,03,23,044,14,04,27,081,22,06,58,312,49,1*61
$GPGSV,4,2,13,09,31,119,43,11,25,276,31,12,19,314,35,14,16,184,40,1*63
$GPGSV,4,3,13,17,68,114,40,19,81,009,43,20,16,227,39,28,,,43,1*53
$GPGSV,4,4,13,50,47,179,34,1*58
$GPGSV,2,1,07,04,27,081,13,06,58,312,44,09,31,119,37,11,25,276,32,6*65
$GPGSV,2,2,07,12,19,314,32,14,16,184,31,17,68,114,37,6*5D
$GPGSV,1,1,01,01,01,078,,0*5B
$GLGSV,2,1,06,71,57,083,46,72,39,163,43,76,12,228,23,77,22,277,18,1*7C
$GLGSV,2,2,06,85,18,091,14,87,33,318,37,1*76
$GLGSV,2,1,06,71,57,083,37,72,39,163,21,76,12,228,35,77,22,277,13,3*70
$GLGSV,2,2,06,85,18,091,08,87,33,318,10,3*7C
$GLGSV,1,1,03,70,21,032,,78,09,331,,86,52,047,,0*42
$GAGSV,2,1,05,01,26,303,43,08,37,117,41,13,65,001,39,21,38,247,38,2*74
$GAGSV,2,2,05,26,30,287,40,2*4D
$GAGSV,2,1,06,01,26,303,43,08,37,117,41,13,65,001,42,18,20,125,43,7*76
$GAGSV,2,2,06,21,38,247,33,26,30,287,47,7*75
$GAGSV,1,1,04,03,24,058,,07,14,169,,15,31,072,,27,16,193,,0*7E
$GBGSV,3,1,12,01,43,152,37,02,28,236,37,03,44,206,43,04,35,132,35,1*7C
$GBGSV,3,2,12,07,60,215,41,08,53,269,41,10,62,244,43,13,45,261,42,1*70
$GBGSV,3,3,12,27,61,328,48,28,54,088,44,33,42,056,27,37,02,211,15,1*79
$GBGSV,2,1,07,01,43,152,38,03,44,206,40,04,35,132,42,07,60,215,41,3*7E
$GBGSV,2,2,07,08,53,269,43,10,62,244,41,13,45,261,37,3*47
$GNRMC,050148.00,A,3726.9498439,N,12639.2541986,E,0.030,,210622,,,R,V*01
$GNVTG,,T,,M,0.030,N,0.056,K,D*38
$GNGNS,050148.00,3726.9498439,N,12639.2541986,E,RRRR,28,0.69,21.232,17.838,2.0,4095,V*06
$GNGGA,050148.00,3726.9498439,N,12639.2541986,E,4,12,0.69,21.232,M,17.838,M,2.0,4095*5A
$GNGSA,A,3,17,09,12,19,20,11,06,14,,,,,1.32,0.69,1.12,1*09
$GNGSA,A,3,76,87,72,71,,,,,,,,,1.32,0.69,1.12,2*02
$GNGSA,A,3,01,08,26,21,13,,,,,,,,1.32,0.69,1.12,3*02
$GNGSA,A,3,02,28,08,07,13,03,27,04,01,10,33,,1.32,0.69,1.12,4*0E
$GPGSV,4,1,13,02,21,281,32,03,23,044,13,04,27,081,22,06,58,312,48,1*67
$GPGSV,4,2,13,09,31,119,43,11,25,276,27,12,19,314,35,14,16,184,40,1*64
$GPGSV,4,3,13,17,68,114,40,19,81,009,41,20,16,227,41,28,,,43,1*5E
$GPGSV,4,4,13,50,47,179,33,1*5F
$GPGSV,2,1,07,04,27,081,13,06,58,312,43,09,31,119,34,11,25,276,32,6*61
$GPGSV,2,2,07,12,19,314,32,14,16,184,31,17,68,114,38,6*52
$GPGSV,1,1,01,01,01,078,,0*5B
$GLGSV,2,1,06,71,57,083,46,72,39,163,43,76,12,228,26,77,22,277,17,1*76
$GLGSV,2,2,06,85,18,091,13,87,33,318,38,1*7E
$GLGSV,2,1,06,71,57,083,36,72,39,163,21,76,12,228,35,77,22,277,12,3*70
$GLGSV,2,2,06,85,18,091,10,87,33,318,05,3*71
$GLGSV,1,1,03,70,21,032,,78,09,331,,86,52,047,,0*42
$GAGSV,2,1,05,01,26,303,41,08,37,117,41,13,65,001,39,21,38,247,38,2*76
$GAGSV,2,2,05,26,30,287,39,2*43
$GAGSV,2,1,06,01,26,303,44,08,37,117,41,13,65,001,40,18,20,125,43,7*73
$GAGSV,2,2,06,21,38,247,33,26,30,287,47,7*75
$GAGSV,1,1,04,03,24,058,,07,14,169,,15,31,072,,27,16,193,,0*7E
$GBGSV,3,1,12,01,43,152,38,02,28,236,37,03,44,206,43,04,35,132,35,1*73
$GBGSV,3,2,12,07,60,215,41,08,53,269,41,10,62,244,42,13,45,261,42,1*71
$GBGSV,3,3,12,27,61,328,46,28,54,088,44,33,42,056,27,37,02,211,14,1*76
$GBGSV,2,1,07,01,43,152,38,03,44,206,40,04,35,132,42,07,60,215,40,3*7F
$GBGSV,2,2,07,08,53,269,43,10,62,244,41,13,45,261,38,3*48
$GBGSV,1,1,04,05,08,256,,14,18,041,,15,33,191,,30,13,302,,0*7B
$GNRMC,050149.00,A,3726.9498428,N,12639.2541997,E,0.020,,210622,,,R,V*01
$GNVTG,,T,,M,0.020,N,0.037,K,D*3E
$GNGNS,050149.00,3726.9498428,N,12639.2541997,E,RRRR,28,0.69,21.241,17.838,2.0,4095,V*03
$GNGGA,050149.00,3726.9498428,N,12639.2541997,E,4,12,0.69,21.241,M,17.838,M,2.0,4095*5F
$GNGSA,A,3,17,09,12,19,20,11,06,14,,,,,1.32,0.69,1.12,1*09
$GNGSA,A,3,76,87,72,71,,,,,,,,,1.32,0.69,1.12,2*02
$GNGSA,A,3,01,08,26,21,13,,,,,,,,1.32,0.69,1.12,3*02
$GNGSA,A,3,02,28,08,07,13,03,27,04,01,10,33,,1.32,0.69,1.12,4*0E
$GPGSV,4,1,13,02,21,281,31,03,23,044,11,04,27,081,23,06,58,312,48,1*67
$GPGSV,4,2,13,09,31,119,43,11,25,276,26,12,19,314,35,14,16,184,40,1*65
$GPGSV,4,3,13,17,68,114,41,19,81,009,43,20,16,227,41,28,,,43,1*5D
$GPGSV,4,4,13,50,47,179,32,1*5E
$GPGSV,2,1,07,04,27,081,12,06,58,312,43,09,31,119,34,11,25,276,32,6*60
$GPGSV,2,2,07,12,19,314,31,14,16,184,28,17,68,114,37,6*56
$GPGSV,1,1,01,01,01,078,,0*5B
$GLGSV,2,1,06,71,57,083,46,72,39,163,43,76,12,228,31,77,22,277,18,1*7F
$GLGSV,2,2,06,85,18,091,11,87,33,318,37,1*73
$GLGSV,2,1,06,71,57,083,34,72,39,163,20,76,12,228,35,77,22,277,13,3*72
$GLGSV,2,2,06,85,18,091,10,87,33,318,09,3*7D
$GLGSV,1,1,03,70,21,032,,78,09,331,,86,52,047,,0*42
$GAGSV,2,1,05,01,26,303,42,08,37,117,40,13,65,001,41,21,38,247,39,2*7A
$GAGSV,2,2,05,26,30,287,39,2*43
$GAGSV,2,1,06,01,26,303,44,08,37,117,41,13,65,001,41,18,20,125,43,7*72
$GAGSV,2,2,06,21,38,247,34,26,30,287,47,7*72
$GAGSV,1,1,04,03,24,058,,07,14,169,,15,31,072,,27,16,193,,0*7E
$GBGSV,3,1,12,01,43,152,37,02,28,236,37,03,44,206,42,04,35,132,35,1*7D
$GBGSV,3,2,12,07,60,215,41,08,53,269,41,10,62,244,41,13,45,261,42,1*72
$GBGSV,3,3,12,27,61,328,47,28,54,088,45,33,42,056,26,37,02,211,14,1*77
$GBGSV,2,1,07,01,43,152,37,03,44,206,38,04,35,132,41,07,60,215,41,3*7D
$GBGSV,2,2,07,08,53,269,43,10,62,244,40,13,45,261,36,3*47
$GBGSV,1,1,04,05,08,256,,14,18,041,,15,33,191,,30,13,302,,0*7B
$GNRMC,050150.00,A,3726.9498464,N,12639.2541978,E,0.007,,210622,,,R,V*05
$GNVTG,,T,,M,0.007,N,0.012,K,D*3C
$GNGNS,050150.00,3726.9498464,N,12639.2541978,E,RRRR,28,0.69,21.244,17.838,2.0,4095,V*07
$GNGGA,050150.00,3726.9498464,N,12639.2541978,E,4,12,0.69,21.244,M,17.838,M,2.0,4095*5B
$GNGSA,A,3,17,09,12,19,20,11,06,14,,,,,1.32,0.69,1.12,1*09
$GNGSA,A,3,76,87,72,71,,,,,,,,,1.32,0.69,1.12,2*02
$GNGSA,A,3,01,08,26,21,13,,,,,,,,1.32,0.69,1.12,3*02
$GNGSA,A,3,02,28,08,07,13,03,27,04,01,10,33,,1.32,0.69,1.12,4*0E
$GPGSV,4,1,13,02,21,281,33,03,23,044,09,04,27,081,23,06,58,312,48,1*6C
$GPGSV,4,2,13,09,31,119,44,11,25,276,27,12,19,314,35,14,16,184,41,1*62
$GPGSV,4,3,13,17,68,114,40,19,81,009,43,20,16,227,41,28,,,43,1*5C
$GPGSV,4,4,13,50,47,179,32,1*5E
$GPGSV,2,1,07,04,27,081,14,06,58,312,43,09,31,119,35,11,25,276,33,6*66
$GPGSV,2,2,07,12,19,314,31,14,16,184,27,17,68,114,37,6*59
$GPGSV,1,1,01,01,01,078,,0*5B
$GLGSV,2,1,06,71,57,083,45,72,39,163,42,76,12,228,25,77,22,277,19,1*79
$GLGSV,2,2,06,85,18,091,13,87,33,318,35,1*73
$GLGSV,2,1,06,71,57,083,33,72,39,163,21,76,12,228,31,77,22,277,12,3*71
$GLGSV,2,2,06,85,18,091,07,87,33,318,10,3*73
$GLGSV,1,1,03,70,21,032,,78,09,331,,86,52,047,,0*42
$GAGSV,2,1,05,01,26,303,43,08,37,117,40,13,65,001,41,21,38,247,38,2*7A
$GAGSV,2,2,05,26,30,287,41,2*4C
$GAGSV,2,1,06,01,26,303,43,08,37,117,41,13,65,001,41,18,20,125,44,7*72
$GAGSV,2,2,06,21,38,247,34,26,30,287,47,7*72
$GAGSV,1,1,04,03,24,058,,07,14,169,,15,31,072,,27,16,193,,0*7E
$GBGSV,3,1,12,01,43,152,37,02,28,236,37,03,44,206,43,04,35,132,34,1*7D
$GBGSV,3,2,12,07,60,215,41,08,53,269,41,10,62,244,41,13,45,261,41,1*71
$GNRMC,050151.00,A,3726.9498459,N,12639.2541981,E,0.016,,210622,,,R,V*0C
$GNVTG,,T,,M,0.016,N,0.030,K,D*3C
$GNGNS,050151.00,3726.9498459,N,12639.2541981,E,RRRR,28,0.69,21.241,17.838,2.0,4095,V*0B
$GNGGA,050151.00,3726.9498459,N,12639.2541981,E,4,12,0.69,21.241,M,17.838,M,2.0,4095*57
$GNGSA,A,3,17,09,12,19,20,11,06,14,,,,,1.32,0.69,1.12,1*09
$GNGSA,A,3,76,87,72,71,,,,,,,,,1.32,0.69,1.12,2*02
$GNGSA,A,3,01,08,26,21,13,,,,,,,,1.32,0.69,1.12,3*02
$GNGSA,A,3,02,28,08,07,13,03,27,04,01,10,33,,1.32,0.69,1.12,4*0E
$GPGSV,4,1,13,02,21,281,38,03,23,044,11,04,27,081,23,06,58,312,48,1*6E
$GPGSV,4,2,13,09,31,119,43,11,25,276,33,12,19,314,32,14,16,184,41,1*67
$GPGSV,4,3,13,17,68,114,40,19,81,009,42,20,16,227,39,28,,,44,1*55
$GPGSV,4,4,13,50,47,179,31,1*5D
$GPGSV,2,1,07,04,27,081,14,06,58,312,44,09,31,119,34,11,25,276,33,6*60
$GPGSV,2,2,07,12,19,314,31,14,16,184,26,17,68,114,36,6*59
$GPGSV,1,1,01,01,01,078,,0*5B
$GLGSV,2,1,06,71,57,083,44,72,39,163,42,76,12,228,24,77,22,277,20,1*73
$GLGSV,2,2,06,85,18,091,13,87,33,318,36,1*70
$GLGSV,2,1,06,71,57,083,32,72,39,163,21,76,12,228,32,77,22,277,11,3*70
$GLGSV,2,2,06,85,18,091,09,87,33,318,07,3*7B
$GLGSV,1,1,03,70,21,032,,78,09,331,,86,52,047,,0*42
$GAGSV,2,1,05,01,26,303,43,08,37,117,40,13,65,001,41,21,38,247,38,2*7A
$GAGSV,2,2,05,26,30,287,41,2*4C
$GAGSV,2,1,06,01,26,303,42,08,37,117,39,13,65,001,41,18,20,125,43,7*7B
$GAGSV,2,2,06,21,38,247,35,26,30,287,47,7*73
$GAGSV,1,1,04,03,24,058,,07,14,169,,15,31,072,,27,16,193,,0*7E
$GBGSV,3,1,12,01,43,152,37,02,28,236,36,03,44,206,43,04,35,132,33,1*7B
$GBGSV,3,2,12,07,60,215,42,08,53,269,41,10,62,244,42,13,45,261,41,1*71
$GBGSV,3,3,12,27,61,328,48,28,54,088,42,33,42,056,26,37,02,211,17,1*7C
$GBGSV,2,1,07,01,43,152,36,03,44,206,41,04,35,132,41,07,60,215,42,3*71
$GBGSV,2,2,07,08,53,269,42,10,62,244,43,13,45,261,36,3*45
$GBGSV,1,1,04,05,08,256,,14,18,041,,15,33,191,,30,13,302,,0*7B
$GNRMC,050152.00,A,3726.9498459,N,12639.2541998,E,0.006,,210622,,,R,V*06
$GNVTG,,T,,M,0.006,N,0.011,K,D*3E
$GNGNS,050152.00,3726.9498459,N,12639.2541998,E,RRRR,28,0.69,21.250,17.838,2.0,4095,V*00
$GNGGA,050152.00,3726.9498459,N,12639.2541998,E,4,12,0.69,21.250,M,17.838,M,2.0,4095*5C
$GNGSA,A,3,17,09,12,19,20,11,06,14,,,,,1.32,0.69,1.12,1*09
$GNGSA,A,3,76,87,72,71,,,,,,,,,1.32,0.69,1.12,2*02
$GNGSA,A,3,01,08,26,21,13,,,,,,,,1.32,0.69,1.12,3*02
$GNGSA,A,3,02,28,08,07,13,03,27,04,01,10,33,,1.32,0.69,1.12,4*0E
$GPGSV,4,1,13,02,21,281,38,03,23,044,13,04,27,081,22,06,58,312,48,1*6D
$GPGSV,4,2,13,09,31,119,43,11,25,276,25,12,19,314,27,14,16,184,41,1*64
$GPGSV,4,3,13,17,68,114,41,19,81,009,43,20,16,227,39,28,,,43,1*52
$GPGSV,4,4,13,50,47,179,32,1*5E
$GPGSV,2,1,07,04,27,081,14,06,58,312,43,09,31,119,35,11,25,276,34,6*61
$GPGSV,2,2,07,12,19,314,29,14,16,184,26,17,68,114,36,6*50
$GPGSV,1,1,01,01,01,078,,0*5B
$GLGSV,2,1,06,71,57,083,44,72,39,163,44,76,12,228,26,77,22,277,19,1*7D
$GLGSV,2,2,06,85,18,091,19,87,33,318,35,1*79
$GLGSV,2,1,06,71,57,083,36,72,39,163,21,76,12,228,32,77,22,277,17,3*72
$GLGSV,2,2,06,85,18,091,11,87,33,318,12,3*76
$GLGSV,1,1,03,70,21,032,,78,09,331,,86,52,047,,0*42
$GAGSV,2,1,05,01,26,303,37,08,37,117,40,13,65,001,41,21,38,247,36,2*77
$GAGSV,2,2,05,26,30,287,41,2*4C
$GAGSV,2,1,06,01,26,303,41,08,37,117,40,13,65,001,42,18,20,125,43,7*75
$GAGSV,2,2,06,21,38,247,36,26,30,287,45,7*72
$GAGSV,1,1,04,03,24,058,,07,14,169,,15,31,072,,27,16,193,,0*7E
$GBGSV,3,1,12,01,43,152,37,02,28,236,35,03,44,206,44,04,35,132,33,1*7F
$GBGSV,3,2,12,07,60,215,42,08,53,269,41,10,62,244,42,13,45,261,41,1*71
$GBGSV,3,3,12,27,61,328,47,28,54,088,42,33,42,056,25,37,02,211,16,1*71
$GBGSV,2,1,07,01,43,152,37,03,44,206,42,04,35,132,41,07,60,215,42,3*73
$GBGSV,2,2,07,08,53,269,40,10,62,244,43,13,45,261,34,3*45
$GBGSV,1,1,04,05,08,256,,14,18,041,,15,33,191,,30,13,302,,0*7B
$GNRMC,050153.00,A,3726.9498463,N,12639.2541978,E,0.015,,210622,,,R,V*02
$GNVTG,,T,,M,0.015,N,0.029,K,D*37
$GNGNS,050153.00,3726.9498463,N,12639.2541978,E,RRRR,28,0.69,21.245,17.838,1.0,4095,V*01
$GNGGA,050153.00,3726.9498463,N,12639.2541978,E,4,12,0.69,21.245,M,17.838,M,1.0,4095*5D
$GNGSA,A,3,17,09,12,19,20,11,06,14,,,,,1.32,0.69,1.12,1*09
$GNGSA,A,3,76,87,72,71,,,,,,,,,1.32,0.69,1.12,2*02
$GNGSA,A,3,01,08,26,21,13,,,,,,,,1.32,0.69,1.12,3*02
$GNGSA,A,3,02,28,08,07,13,03,27,04,01,10,33,,1.32,0.69,1.12,4*0E
$GPGSV,4,1,13,02,21,281,36,03,23,044,15,04,27,081,23,06,58,312,48,1*64
$GPGSV,4,2,13,09,31,119,43,11,25,276,34,12,19,314,32,14,16,184,41,1*60
$GPGSV,4,3,13,17,68,114,41,19,81,009,43,20,16,227,39,28,,,43,1*52
$GPGSV,4,4,13,50,47,179,32,1*5E
$GPGSV,2,1,07,04,27,081,14,06,58,312,44,09,31,119,35,11,25,276,34,6*66
$GPGSV,2,2,07,12,19,314,32,14,16,184,25,17,68,114,36,6*59
$GPGSV,1,1,01,01,01,078,,0*5B
$GLGSV,2,1,06,71,57,083,43,72,39,163,43,76,12,228,28,77,22,277,19,1*73
$GLGSV,2,2,06,85,18,091,15,87,33,318,36,1*76
$GLGSV,2,1,06,71,57,083,35,72,39,163,21,76,12,228,33,77,22,277,18,3*7F
$GLGSV,2,2,06,85,18,091,13,87,33,318,11,3*77
$GLGSV,1,1,03,70,21,032,,78,09,331,,86,52,047,,0*42
$GAGSV,2,1,05,01,26,303,44,08,37,117,40,13,65,001,40,21,38,247,38,2*7C
$GAGSV,2,2,05,26,30,287,38,2*42
$GAGSV,2,1,06,01,26,303,43,08,37,117,40,13,65,001,42,18,20,125,43,7*77
$GAGSV,2,2,06,21,38,247,36,26,30,287,44,7*73
$GAGSV,1,1,04,03,24,058,,07,14,169,,15,31,072,,27,16,193,,0*7E
$GBGSV,3,1,12,01,43,152,36,02,28,236,35,03,44,206,44,04,35,132,34,1*79
$GBGSV,3,2,12,07,60,215,42,08,53,269,40,10,62,244,42,13,45,261,40,1*71
$GBGSV,3,3,12,27,61,328,48,28,54,088,42,33,42,056,26,37,02,211,15,1*7E
$GBGSV,2,1,07,01,43,152,37,03,44,206,42,04,35,132,41,07,60,215,42,3*73
$GBGSV,2,2,07,08,53,269,41,10,62,244,43,13,45,261,35,3*45
$GBGSV,1,1,04,05,08,256,,14,18,041,,15,33,191,,30,13,302,,0*7B
$GNRMC,050154.00,A,3726.9498452,N,12639.2541977,E,0.019,,210622,,,R,V*04
$GNVTG,,T,,M,0.019,N,0.035,K,D*36
$GNGNS,050154.00,3726.9498452,N,12639.2541977,E,RRRR,28,0.71,21.263,17.838,2.0,4095,V*05
$GNGGA,050154.00,3726.9498452,N,12639.2541977,E,4,12,0.71,21.263,M,17.838,M,2.0,4095*59
$GNGSA,A,3,17,09,02,12,19,20,11,06,14,,,,1.33,0.71,1.12,1*03
$GNGSA,A,3,76,87,72,71,,,,,,,,,1.33,0.71,1.12,2*0A
$GNGSA,A,3,01,08,26,21,13,,,,,,,,1.33,0.71,1.12,3*0A
$GNGSA,A,3,28,08,07,13,03,27,04,01,10,33,,,1.33,0.71,1.12,4*04
$GPGSV,4,1,13,02,21,281,34,03,23,044,07,04,27,081,24,06,58,312,48,1*62
$GPGSV,4,2,13,09,31,119,43,11,25,276,30,12,19,314,33,14,16,184,41,1*65
$GPGSV,4,3,13,17,68,114,40,19,81,009,40,20,16,227,39,28,,,44,1*57
$GPGSV,4,4,13,50,47,179,32,1*5E
$GPGSV,2,1,07,04,27,081,15,06,58,312,44,09,31,119,37,11,25,276,30,6*61
$GPGSV,2,2,07,12,19,314,30,14,16,184,25,17,68,114,36,6*5B
$GPGSV,1,1,01,01,01,078,,0*5B
$GLGSV,2,1,06,71,57,083,45,72,39,163,43,76,12,228,26,77,22,277,19,1*7B
$GLGSV,2,2,06,85,18,091,18,87,33,318,36,1*7B
$GLGSV,2,1,06,71,57,083,35,72,39,163,20,76,12,228,29,77,22,277,20,3*7E
$GLGSV,2,2,06,85,18,091,17,87,33,318,12,3*70
$GLGSV,1,1,03,70,21,032,,78,09,331,,86,52,047,,0*42
$GAGSV,2,1,05,01,26,303,42,08,37,117,41,13,65,001,41,21,38,247,38,2*7A
$GAGSV,2,2,05,26,30,287,37,2*4D
$GAGSV,2,1,06,01,26,303,43,08,37,117,39,13,65,001,41,18,20,125,44,7*7D
$GAGSV,2,2,06,21,38,247,35,26,30,287,47,7*73
$GAGSV,1,1,04,03,24,058,,07,15,169,,15,31,072,,27,16,193,,0*7F
$GBGSV,3,1,12,01,43,152,37,02,28,236,37,03,44,206,43,04,35,132,36,1*7F
$GBGSV,3,2,12,07,60,215,41,08,53,269,41,10,62,244,41,13,45,261,42,1*72
$GNRMC,050155.00,A,3726.9498423,N,12639.2541994,E,0.001,,210622,,,R,V*07
$GNVTG,,T,,M,0.001,N,0.001,K,D*38
$GNGNS,050155.00,3726.9498423,N,12639.2541994,E,RRRR,28,0.68,21.245,17.838,2.0,4095,V*03
$GNGGA,050155.00,3726.9498423,N,12639.2541994,E,4,12,0.68,21.245,M,17.838,M,2.0,4095*5F
$GNGSA,A,3,17,09,02,12,19,20,11,06,14,,,,1.29,0.68,1.09,1*0A
$GNGSA,A,3,76,87,72,71,,,,,,,,,1.29,0.68,1.09,2*03
$GNGSA,A,3,01,08,26,21,13,,,,,,,,1.29,0.68,1.09,3*03
$GNGSA,A,3,28,08,07,13,03,27,04,01,10,02,,,1.29,0.68,1.09,4*0F
$GPGSV,4,1,13,02,21,281,37,03,23,044,08,04,27,081,24,06,58,312,48,1*6E
$GPGSV,4,2,13,09,31,119,43,11,25,276,32,12,19,314,34,14,16,184,41,1*60
$GPGSV,4,3,13,17,68,114,40,19,81,009,42,20,16,227,38,28,,,44,1*54
$GPGSV,4,4,13,50,47,179,33,1*5F
$GPGSV,2,1,07,04,27,081,15,06,58,312,44,09,31,119,37,11,25,276,33,6*62
$GPGSV,2,2,07,12,19,314,30,14,16,184,26,17,68,114,36,6*58
$GPGSV,1,1,01,01,01,078,,0*5B
$GLGSV,2,1,06,71,57,083,44,72,39,163,43,76,12,228,25,77,22,277,20,1*73
$GLGSV,2,2,06,85,18,091,20,87,33,318,37,1*71
$GLGSV,2,1,06,71,57,083,36,72,39,163,22,76,12,228,28,77,22,277,20,3*7E
$GLGSV,2,2,06,85,18,091,20,87,33,318,07,3*70
$GLGSV,1,1,03,70,21,032,,78,09,331,,86,52,047,,0*42
$GAGSV,2,1,05,01,26,303,41,08,37,117,40,13,65,001,40,21,38,247,37,2*76
$GAGSV,2,2,05,26,30,287,36,2*4C
$GAGSV,2,1,06,01,26,303,42,08,37,117,39,13,65,001,41,18,20,125,44,7*7C
$GAGSV,2,2,06,21,38,247,36,26,30,287,47,7*70
$GAGSV,1,1,04,03,24,058,,07,15,169,,15,31,072,,27,16,193,,0*7F
$GBGSV,3,1,12,01,43,152,37,02,28,236,36,03,44,206,43,04,35,132,36,1*7E
$GBGSV,3,2,12,07,60,215,41,08,53,269,41,10,62,244,42,13,45,261,42,1*71
$GBGSV,3,3,12,27,61,328,47,28,54,088,42,33,42,056,25,37,02,211,13,1*74
$GBGSV,2,1,07,01,43,152,36,03,44,206,41,04,35,132,40,07,60,215,40,3*72
$GBGSV,2,2,07,08,53,269,42,10,62,244,41,13,45,261,36,3*47
$GBGSV,1,1,04,05,08,256,,14,18,041,,15,33,191,,30,13,302,,0*7B
$GNRMC,050156.00,A,3726.9498428,N,12639.2541943,E,0.025,,210622,,,R,V*03
$GNVTG,,T,,M,0.025,N,0.046,K,D*3D
$GNGNS,050156.00,3726.9498428,N,12639.2541943,E,RRRR,28,0.68,21.250,17.838,2.0,4095,V*05
$GNGGA,050156.00,3726.9498428,N,12639.2541943,E,4,12,0.68,21.250,M,17.838,M,2.0,4095*59
$GNGSA,A,3,17,09,02,12,19,20,11,06,14,,,,1.29,0.68,1.09,1*0A
$GNGSA,A,3,76,87,72,71,,,,,,,,,1.29,0.68,1.09,2*03
$GNGSA,A,3,01,08,26,21,13,,,,,,,,1.29,0.68,1.09,3*03
$GNGSA,A,3,28,08,07,13,03,27,04,01,10,02,,,1.29,0.68,1.09,4*0F
$GPGSV,4,1,13,02,21,281,37,03,23,044,10,04,27,081,25,06,58,312,48,1*66
$GPGSV,4,3,13,17,68,114,40,19,81,009,44,20,16,227,37,28,,,44,1*5D
$GPGSV,4,4,13,50,47,179,33,1*5F
$GPGSV,2,1,07,04,27,081,15,06,58,312,43,09,31,119,37,11,25,276,34,6*62
$GPGSV,2,2,07,12,19,314,31,14,16,184,27,17,68,114,36,6*58
$GPGSV,1,1,01,01,01,078,,0*5B
$GLGSV,2,1,06,71,57,083,44,72,39,163,44,76,12,228,23,77,22,277,20,1*72
$GLGSV,2,2,06,85,18,091,20,87,33,318,37,1*71
$GLGSV,2,1,06,71,57,083,37,72,39,163,24,76,12,228,25,77,22,277,21,3*75
$GLGSV,2,2,06,85,18,091,17,87,33,318,09,3*7A
$GLGSV,1,1,03,70,21,032,,78,09,331,,86,52,047,,0*42
$GAGSV,2,1,05,01,26,303,43,08,37,117,41,13,65,001,41,21,38,247,37,2*74
$GAGSV,2,2,05,26,30,287,40,2*4D
$GAGSV,2,1,06,01,26,303,42,08,37,117,40,13,65,001,42,18,20,125,44,7*71
$GAGSV,2,2,06,21,38,247,36,26,30,287,46,7*71
$GAGSV,1,1,04,03,24,058,,07,15,169,,15,31,072,,27,16,193,,0*7F
$GBGSV,3,1,12,01,43,152,37,02,28,236,35,03,44,206,43,04,35,132,35,1*7E
$GBGSV,3,2,12,07,60,215,41,08,53,269,41,10$GNRMC,050157.00,A,3726.9498408,N,12639.2541940,E,0.009,,210622,,,R,V*0D
$GNVTG,,T,,M,0.009,N,0.016,K,D*36
$GNGNS,050157.00,3726.9498408,N,12639.2541940,E,RRRR,28,0.68,21.248,17.838,2.0,4095,V*0C
$GNGGA,050157.00,3726.9498408,N,12639.2541940,E,4,12,0.68,21.248,M,17.838,M,2.0,4095*50
$GNGSA,A,3,17,09,02,12,19,20,11,06,14,,,,1.29,0.68,1.09,1*0A
$GNGSA,A,3,76,87,72,71,,,,,,,,,1.29,0.68,1.09,2*03
$GNGSA,A,3,01,08,26,21,13,,,,,,,,1.29,0.68,1.09,3*03
$GNGSA,A,3,28,08,07,13,03,27,04,01,10,02,,,1.29,0.68,1.09,4*0F
$GPGSV,4,1,13,02,21,281,37,03,23,044,11,04,27,081,25,06,58,312,48,1*67
$GPGSV,4,2,13,09,31,119,43,11,25,276,33,12,19,314,34,14,16,184,41,1*61
$GPGSV,4,3,13,17,68,114,41,19,81,009,44,20,16,227,36,28,,,43,1*5A
$GPGSV,4,4,13,50,47,179,34,1*58
$GPGSV,2,1,07,04,27,081,15,06,58,312,43,09,31,119,37,11,25,276,34,6*62
$GPGSV,2,2,07,12,19,314,30,14,16,184,28,17,68,114,36,6*56
$GPGSV,1,1,01,01,01,078,,0*5B
$GLGSV,2,1,06,71,57,083,45,72,39,163,44,76,12,228,22,77,22,277,22,1*70
$GLGSV,2,2,06,85,18,091,21,87,33,318,37,1*70
$GLGSV,2,1,06,71,57,083,37,72,39,163,24,76,12,228,25,77,22,277,22,3*76
$GLGSV,2,2,06,85,18,091,19,87,33,318,09,3*74
$GLGSV,1,1,03,70,21,032,,78,09,331,,86,52,047,,0*42
$GAGSV,2,1,05,01,26,303,42,08,37,117,41,13,65,001,40,21,38,247,36,2*75
$GAGSV,2,2,05,26,30,287,39,2*43
$GAGSV,2,1,06,01,26,303,43,08,37,117,40,13,65,001,43,18,20,125,44,7*71
$GAGSV,2,2,06,21,38,247,37,26,30,287,45,7*73
$GAGSV,1,1,04,03,24,058,,07,15,169,,15,31,072,,27,16,193,,0*7F
$GBGSV,3,1,12,01,43,152,36,02,28,236,35,03,44,206,43,04,35,132,35,1*7F
$GBGSV,3,2,12,07,60,215,42,08,53,269,41,10,62,244,42,13,45,261,42,1*72
$GBGSV,3,3,12,27,61,328,48,28,54,088,42,33,42,056,25,37,02,211,09,1*70
$GBGSV,2,1,07,01,43,152,37,03,44,206,42,04,35,132,41,07,60,215,41,3*70
$GBGSV,2,2,07,08,53,269,42,10,62,244,42,13,45,261,36,3*44
$GBGSV,1,1,04,05,08,256,,14,18,041,,15,33,191,,30,13,302,,0*7B
$GNRMC,050158.00,A,3726.9498403,N,12639.2541961,E,0.012,,210622,,,R,V*00
$GNVTG,,T,,M,0.012,N,0.022,K,D*3B
$GNGNS,050158.00,3726.9498403,N,12639.2541961,E,RRRR,28,0.68,21.254,17.838,2.0,4095,V*06
$GNGGA,050158.00,3726.9498403,N,12639.2541961,E,4,12,0.68,21.254,M,17.838,M,2.0,4095*5A
$GNGSA,A,3,17,09,02,12,19,20,11,06,14,,,,1.29,0.68,1.09,1*0A
$GNGSA,A,3,76,87,72,71,,,,,,,,,1.29,0.68,1.09,2*03
$GNGSA,A,3,01,08,26,21,13,,,,,,,,1.29,0.68,1.09,3*03
$GNGSA,A,3,28,08,07,13,03,27,04,01,10,02,,,1.29,0.68,1.09,4*0F
$GPGSV,4,1,13,02,21,281,37,03,23,044,13,04,27,081,24,06,58,312,48,1*64
$GPGSV,4,2,13,09,31,119,43,11,25,276,29,12,19,314,33,14,16,184,40,1*6C
$GPGSV,4,3,13,17,68,114,41,19,81,009,44,20,16,227,34,28,,,43,1*58
$GPGSV,4,4,13,50,47,179,34,1*58
$GPGSV,2,1,07,04,27,081,15,06,58,312,43,09,31,119,37,11,25,276,34,6*62
$GPGSV,2,2,07,12,19,314,29,14,16,184,28,17,68,114,36,6*5E
$GPGSV,1,1,01,01,01,078,,0*5B
$GLGSV,2,1,06,71,57,083,45,72,39,163,45,76,12,228,22,77,22,277,25,1*76
$GLGSV,2,2,06,85,18,091,22,87,33,318,37,1*73
$GLGSV,2,1,06,71,57,083,38,72,39,163,24,76,12,228,25,77,22,277,23,3*78
$GLGSV,2,2,06,85,18,091,20,87,33,318,10,3*76
$GLGSV,1,1,03,70,21,032,,78,09,331,,86,52,047,,0*42
$GAGSV,2,1,05,01,26,303,42,08,37,117,40,13,65,001,40,21,38,247,36,2*74
$GAGSV,2,2,05,26,30,287,39,2*43
$GAGSV,2,1,06,01,26,303,42,08,37,117,39,13,65,001,43,18,20,125,44,7*7E
$GAGSV,2,2,06,21,38,247,37,26,30,287,44,7*72
$GAGSV,1,1,04,03,24,058,,07,15,169,,15,31,072,,27,16,193,,0*7F
$GBGSV,3,1,11,01,43,152,35,02,28,236,33,03,44,206,44,04,35,132,35,1*7E
$GBGSV,3,2,11,07,60,215,41,08,53,269,40,10,62,244,42,13,45,261,41,1*70
$GBGSV,3,3,11,27,61,328,48,28,54,089,44,33,42,056,24,1*48
$GBGSV,2,1,07,01,43,152,39,03,44,206,43,04,35,132,41,07,60,215,42,3*7C
$GBGSV,2,2,07,08,53,269,42,10,62,244,42,13,45,261,36,3*44
$GBGSV,2,1,05,05,08,256,,14,18,041,,15,33,191,,30,13,302,,0*79
$GBGSV,2,2,05,30,13,302,,0*42
$GNRMC,050159.00,A,3726.9498434,N,12639.2541951,E,0.015,,210622,,,R,V*01
$GNVTG,,T,,M,0.015,N,0.027,K,D*39
$GNGNS,050159.00,3726.9498434,N,12639.2541951,E,RRRR,28,0.69,21.242,17.838,2.0,4095,V*06
$GNGSA,A,3,17,09,02,12,19,20,11,06,14,,,,1.32,0.69,1.12,1*0B
$GNGSA,A,3,76,87,72,71,,,,,,,,,1.32,0.69,1.12,2*02
$GNGSA,A,3,01,08,26,21,13,,,,,,,,1.32,0.69,1.12,3*02
$GNGSA,A,3,28,08,07,13,03,27,04,01,10,02,,,1.32,0.69,1.12,4*0E
$GPGSV,4,1,13,02,21,281,37,03,23,044,14,04,27,081,23,06,58,312,48,1*64
$GPGSV,4,2,13,09,31,119,44,11,25,276,34,12,19,314,32,14,16,184,40,1*66
$GPGSV,4,3,13,17,68,114,42,19,81,009,46,20,16,227,42,28,,,42,1*59
$GPGSV,4,4,13,50,47,179,34,1*58
$GPGSV,2,1,07,04,27,081,12,06,58,312,43,09,31,119,34,11,25,276,32,6*60
$GPGSV,2,2,07,12,19,314,28,14,16,184,29,17,68,114,36,6*5E
$GPGSV,1,1,01,01,01,078,,0*5B
$GLGSV,2,1,06,71,57,083,48,72,39,163,46,76,12,228,36,77,22,277,26,1*7E
$GLGSV,2,2,06,85,18,091,23,87,33,318,37,1*72
$GLGSV,2,1,06,71,57,083,37,72,39,163,24,76,12,228,32,77,22,277,23,3*71
$GLGSV,2,2,06,85,18,091,19,87,33,318,08,3*75
$GLGSV,1,1,03,70,21,032,,78,09,331,,86,52,047,,0*42
$GAGSV,2$GAGSV,2,2,05,26,30,287,42,2*4F
$GAGSV,2,1,06,01,26,303,42,08,37,117,40,13,65,001,43,18,20,125,44,7*70
$GAGSV,2,2,06,21,38,247,37,26,30,287,44,7*72
$GAGSV,1,1,04,03,24,058,,07,15,169,,15,31,072,,27,16,193,,0*7F
$GBGSV,3,1,11,01,43,152,35,02,28,236,33,03,44,206,44,04,35,132,35,1*7E
$GBGSV,3,2,11,07,60,215,43,08,53,269,40,10,62,244,42,13,45,261,41,1*72
$GBGSV,3,3,11,27,61,328,48,28,54,089,44,33,42,056,24,1*48
$GBGSV,2,1,07,01,43,152,39,03,44,206,43,04,35,132,41,07,60,215,43,3*7D
$GBGSV,2,2,07,08,53,269,42,10,62,244,42,13,45,261,38,3*4A
$GBGSV,2,1,05,05,08,256,,14,18,041,,15,33,191,,30,13,302,,0*79
$GBGSV,2,2,05,30,13,302,,0*42
$GNRMC,050200.00,A,3726.9498449,N,12639.2541946,E,0.028,,210622,,,R,V*0C
$GNVTG,,T,,M,0.028,N,0.051,K,D*36
$GNGGA,050200.00,3726.9498449,N,12639.2541946,E,4,12,0.68,21.248,M,17.838,M,2.0,4095*52
$GNGSA,A,3,17,09,02,12,19,20,11,06,14,,,,1.29,0.68,1.09,1*0A
$GNGSA,A,3,76,87,72,71,,,,,,,,,1.29,0.68,1.09,2*03
$GNGSA,A,3,01,08,26,21,13,,,,,,,,1.29,0.68,1.09,3*03
$GNGSA,A,3,28,08,07,13,03,27,04,01,10,02,,,1.29,0.68,1.09,4*0F
$GPGSV,4,1,13,02,21,281,38,03,23,044,15,04,27,081,22,06,58,312,48,1*6B
$GPGSV,4,2,13,09,31,119,43,11,25,276,36,12,19,314,35,14,16,184,39,1*6A
$GPGSV,4,3,13,17,68,114,42,19,81,009,46,20,16,227,42,28,,,43,1*58
$GPGSV,4,4,13,50,47,179,35,1*59
$GPGSV,1,1,01,03,23,044,14,5*56
$GPGSV,2,1,07,04,27,081,12,06,58,312,43,09,31,119,35,11,25,276,32,6*61
$GPGSV,2,2,07,12,19,314,28,14,16,184,29,17,68,114,37,6*5F
$GPGSV,1,1,01,01,01,078,,0*5B
$GLGSV,2,1,06,71,57,083,47,72,39,163,45,76,12,228,33,77,22,277,27,1*76
$GLGSV,2,2,06,85,18,091,25,87,33,318,37,1*74
$GLGSV,2,1,06,71,57,083,37,72,39,163,25,76,12,228,33,77,22,277,24,3*76
$GLGSV,2,2,06,85,18,091,19,87,33,318,07,3*7A
$GLGSV,1,1,03,70,21,032,,78,09,331,,86,52,047,,0*42
$GAGSV,2,1,05,01,26,303,39,08,37,117,41,13,65,001,43,21,38,247,35,2*79
$GAGSV,2,2,05,26,30,287,43,2*4E
$GAGSV,2,1,06,01,26,303,42,08,37,117,40,13,65,001,43,18,20,125,43,7*77
$GAGSV,2,2,06,21,38,247,38,26,30,287,45,7*7C
$GAGSV,1,1,04,03,24,058,,07,15,169,,15,31,072,,27,16,193,,0*7F
$GBGSV,3,1,12,01,43,152,35,02,28,236,34,03,44,206,43,04,35,132,34,1*7C
$GBGSV,3,2,12,07,60,215,42,08,53,269,40,10,62,244,42,13,45,261,41,1*70
$GBGSV,3,3,12,27,61,328,48,28,54,089,45,33,42,056,25,37,02,211,15,1*7B
$GBGSV,2,1,07,01,43,152,39,03,44,206,43,04,35,132,41,07,60,215,43,3*7D
$GBGSV,2,2,07,08,53,269,42,10,62,244,42,13,45,261,38,3*4A
$GBGSV,1,1,04,05,08,256,,14,18,041,,15,33,191,,30,13,302,,0*7B
$GNRMC,050201.00,A,3726.9498447,N,12639.2541988,E,0.027,,210622,,,R,V*0E
$GNVTG,,T,,M,0.027,N,0.049,K,D*30
$GNGNS,050201.00,3726.9498447,N,12639.2541988,E,RRRR,28,0.70,21.246,17.838,2.0,4095,V*04
$GNGGA,050201.00,3726.9498447,N,12639.2541988,E,4,12,0.70,21.246,M,17.838,M,2.0,4095*58
$GNGSA,A,3,17,09,02,12,19,20,11,06,14,,,,1.29,0.70,1.08,1*02
$GNGSA,A,3,76,87,77,72,71,,,,,,,,1.29,0.70,1.08,2*0B
$GNGSA,A,3,01,08,26,21,13,,,,,,,,1.29,0.70,1.08,3*0B
$GNGSA,A,3,28,08,07,13,03,27,04,01,10,,,,1.29,0.70,1.08,4*05
$GPGSV,4,1,13,02,21,281,32,03,23,044,15,04,27,081,22,06,58,312,47,1*6E
$GPGSV,4,2,13,09,31,119,43,11,25,276,31,12,19,314,31,14,16,184,38,1*68
$GPGSV,4,3,13,17,68,114,42,19,81,009,46,20,16,227,44,28,,,42,1*5F
$GPGSV,4,4,13,50,47,179,35,1*59
$GPGSV,2,1,08,03,23,044,12,04,27,081,15,06,58,312,43,09,31,119,35,6*6D
$GPGSV,2,2,08,11,25,276,32,12,19,314,28,14,16,184,34,17,68,114,37,6*69
$GPGSV,1,1,01,01,01,078,,0*5B
$GLGSV,2,1,06,71,57,083,48,72,39,163,45,76,12,228,35,77,22,277,26,1*7E
$GLGSV,2,2,06,85,18,091,26,87,33,318,37,1*77
$GLGSV,2,1,06,71,57,083,37,72,39,163,23,76,12,228,33,77,22,277,25,3*71
$GLGSV,2,2,06,85,18,091,19,87,33,318,08,3*75
$GLGSV,1,1,03,70,21,032,,78,09,331,,86,52,047,,0*42
$GAGSV,2,1,05,01,26,302,36,08,37,117,41,13,65,001,43,21,38,247,35,2*77
$GAGSV,2,2,05,26,30,287,42,2*4F
$GAGSV,2,1,06,01,26,302,44,08,37,117,40,13,65,001,43,18,20,125,43,7*70
$GAGSV,2,2,06,21,38,247,37,26,30,287,46,7*70
$GAGSV,1,1,04,03,24,058,,07,15,169,,15,31,072,,27,16,193,,0*7F
$GBGSV,3,1,12,01,43,152,35,02,28,236,35,03,44,206,44,04,35,132,34,1*7A
$GBGSV,3,2,12,07,60,215,42,08,53,269,40,10,62,244,42,13,45,261,40,1*71
$GBGSV,3,3,12,27,61,328,46,28,54,089,45,33,42,056,25,37,02,211,14,1*74
$GBGSV,2,1,07,01,43,152,40,03,44,206,45,04,35,132,40,07,60,215,43,3*74
$GBGSV,2,2,07,08,53,269,42,10,62,244,43,13,45,261,38,3*4B
$GBGSV,1,1,04,05,08,256,,14,18,041,,15,33,191,,30,13,302,,0*7B
$GNRMC,050202.00,A,3726.9498448,N,12639.2541986,E,0.026,,210622,,,R,V*0D
$GNVTG,,T,,M,0.026,N,0.049,K,D*31
$GNGNS,050202.00,3726.9498448,N,12639.2541986,E,RRRR,28,0.70,21.241,17.838,2.0,4095,V*01
$GNGSA,A,3,17,09,02,12,19,20,11,06,14,,,,1.29,0.70,1.08,1*02
$GNGSA,A,3,76,87,77,72,71,,,,,,,,1.29,0.70,1.08,2*0B
$GNGSA,A,3,01,08,26,21,13,,,,,,,,1.29,0.70,1.08,3*0B
$GNGSA,A,3,28,08,07,13,03,27,04,01,10,,,,1.29,0.70,1.08,4*05
$GPGSV,4,1,13,02,21,281,36,03,23,044,15,04,27,081,23,06,58,312,47,1*6B
$GPGSV,4,2,13,09,31,119,44,11,25,276,30,12,19,314,26,14,16,184,40,1*67
$GPGSV,4,3,13,17,68,114,43,19,81,009,47,20,16,227,44,28,,,40,1*5D
$GPGSV,4,4,13,50,47,179,34,1*58
$GPGSV,2,1,08,03,23,044,09,04,27,081,17,06,58,312,42,09,31,119,35,6*64
$GPGSV,2,2,08,11,25,276,32,12,19,314,28,14,16,184,33,17,68,114,38,6*61
$GPGSV,1,1,01,01,01,078,,0*5B
$GLGSV,2,1,06,71,57,083,48,72,39,163,44,76,12,228,34,77,22,277,26,1*7E
$GLGSV,2,2,06,85,18,091,28,87,33,318,36,1*78
$GLGSV,2,1,06,71,57,083,38,72,39,163,19,76,12,228,31,77,22,277,24,3*74
$GLGSV,2,2,06,85,18,091,19,87,33,318,08,3*75
$GLGSV,1,1,03,70,21,032,,78,09,331,,86,52,047,,0$GNRMC,050203.00,A,3726.9498418,N,12639.2541932,E,0.007,,210622,,,R,V*05
$GNVTG,,T,,M,0.007,N,0.013,K,D*3D
$GNGNS,050203.00,3726.9498418,N,12639.2541932,E,RRRR,28,0.70,21.223,17.838,1.0,4095,V*0D
$GNGGA,050203.00,3726.9498418,N,12639.2541932,E,4,12,0.70,21.223,M,17.838,M,1.0,4095*51
$GNGSA,A,3,17,09,02,12,19,20,11,06,14,,,,1.29,0.70,1.08,1*02
$GNGSA,A,3,76,87,77,72,71,,,,,,,,1.29,0.70,1.08,2*0B
$GNGSA,A,3,01,08,26,21,13,,,,,,,,1.29,0.70,1.08,3*0B
$GNGSA,A,3,28,08,07,13,03,27,04,01,10,,,,1.29,0.70,1.08,4*05
$GPGSV,4,1,13,02,21,281,34,03,23,044,15,04,27,081,24,06,58,312,46,1*6F
$GPGSV,4,2,13,09,31,119,44,11,25,276,28,12,19,314,35,14,16,184,38,1*63
$GPGSV,4,3,13,17,68,114,42,19,81,009,47,20,16,227,42,28,,,41,1*5B
$GPGSV,4,4,13,50,47,179,32,1*5E
$GPGSV,2,1,08,03,23,044,08,04,27,081,16,06,58,312,41,09,31,119,35,6*67
$GPGSV,2,2,08,11,25,276,32,12,19,314,30,14,16,184,33,17,68,114,38,6*68
$GPGSV,1,1,01,01,01,078,,0*5B
$GLGSV,2,1,06,71,57,083,49,72,39,163,44,76,12,228,34,77,22,277,27,1*7E
$GLGSV,2,2,06,85,18,091,28,87,33,318,37,1*79
$GLGSV,2,1,06,71,57,083,35,72,39,163,17,76,12,228,30,77,22,277,22,3*70
$GLGSV,2,2,06,85,18,091,17,87,33,318,09,3*7A
$GLGSV,1,1,03,70,21,032,,78,09,331,,86,52,047,,0*42
$GAGSV,2,1,05,01,26,302,37,08,37,117,42,13,65,001,43,21,38,247,36,2*76
$GAGSV,2,2,05,26,30,287,41,2*4C
$GAGSV,2,1,06,01,26,302,44,08,37,117,42,13,65,001,43,18,20,125,43,7*72
$GAGSV,2,2,06,21,38,247,38,26,30,287,46,7*7F
$GAGSV,1,1,04,03,24,057,,07,15,169,,15,31,072,,27,16,193,,0*70
$GBGSV,3,1,12,01,43,152,37,02,28,236,35,03,44,206,44,04,35,132,35,1*79
$GBGSV,3,2,12,07,60,215,42,08,53,269,40,10,62,244,42,13,45,261,40,1*71
$GBGSV,3,3,12,27,61,328,46,28,54,089,46,33,42,056,25,37,02,211,11,1*72
$GBGSV,2,1,07,01,43,152,40,03,44,206,43,04,35,132,40,07,60,215,43,3*72
$GBGSV,2,2,07,08,53,269,42,10,62,244,42,13,45,261,35,3*47
$GBGSV,1,1,04,05,08,256,,14,18,041,,15,33,191,,30,13,302,,0*7B
$GNRMC,050204.00,A,3726.9498427,N,12639.2541937,E,0.014,,210622,,,R,V*09
$GNVTG,,T,,M,0.014,N,0.027,K,D*38
$GNGNS,050204.00,3726.9498427,N,12639.2541937,E,RRRR,28,0.71,21.223,17.838,2.0,4095,V*01
$GNGGA,050204.00,3726.9498427,N,12639.2541937,E,4,12,0.71,21.223,M,17.838,M,2.0,4095*5D
$GNGSA,A,3,17,09,02,12,19,20,11,06,14,,,,1.31,0.71,1.10,1*03
$GNGSA,A,3,76,87,77,72,71,,,,,,,,1.31,0.71,1.10,2*0A
$GNGSA,A,3,01,08,26,21,13,,,,,,,,1.31,0.71,1.10,3*0A
$GNGSA,A,3,28,08,07,13,03,27,04,01,10,,,,1.31,0.71,1.10,4*04
$GPGSV,4,1,13,02,21,281,37,03,23,044,13,04,27,081,25,06,58,312,47,1*6A
$GPGSV,4,2,13,09,31,119,44,11,25,276,32,12,19,314,38,14,16,184,38,1*65
$GPGSV,4,3,13,17,68,114,42,19,81,009,46,20,16,227,42,28,,,43,1*58
$GPGSV,4,4,13,50,47,179,33,1*5F
$GPGSV,2,1,08,03,23,044,10,04,27,081,17,06,58,312,42,09,31,119,37,6*6E
$GPGSV,2,2,08,11,25,276,31,12,19,314,31,14,16,184,37,17,68,114,38,6*6E
$GPGSV,1,1,01,01,01,078,,0*5B
$GBGSV,2,2,07,08,53,269,42,10,62,244,43,13,45,261,36,3*45
$GBGSV,1,1,04,05,08,256,,14,18,041,,15,33,191,,30,13,302,,0*7B
$GNRMC,050205.00,A,3726.9498404,N,12639.2541944,E,0.021,,210622,,,R,V*0B
$GNGNS,050205.00,3726.9498404,N,12639.2541944,E,RRRR,28,0.70,21.257,17.838,2.0,4095,V*07
$GNGGA,050205.00,3726.9498404,N,12639.2541944,E,4,12,0.70,21.257,M,17.838,M,2.0,4095*5B
$GNGSA,A,3,17,09,02,12,19,20,11,06,14,,,,1.29,0.70,1.08,1*02
$GNGSA,A,3,76,87,77,72,71,,,,,,,,1.29,0.70,1.08,2*0B
$GNGSA,A,3,01,08,26,21,13,,,,,,,,1.29,0.70,1.08,3*0B
$GNGSA,A,3,28,08,07,13,03,27,04,01,10,,,,1.29,0.70,1.08,4*05
$GPGSV,3,1,12,02,21,281,37,03,23,044,10,04,27,081,24,06,58,312,47,1*6E
$GPGSV,3,2,12,09,31,119,44,12,19,314,37,14,16,184,36,17,68,114,42,1*6D
$GPGSV,3,3,12,19,81,009,46,20,16,227,41,28,,,44,50,47,179,32,1*58
$GPGSV,2,1,07,04,27,081,18,06,58,312,43,09,31,119,37,11,25,276,32,6*69
$GPGSV,2,2,07,12,19,314,29,14,16,184,36,17,68,114,39,6*5E
$GPGSV,1,1,01,01,01,078,,0*5B
$GLGSV,2,1,06,71,57,083,47,72,39,163,43,76,12,228,33,77,22,277,26,1*71
$GLGSV,2,2,06,85,18,091,27,87,33,318,36,1*77
$GLGSV,2,1,06,71,57,083,38,72,39,163,23,76,12,228,32,77,22,277,25,3*7F
$GLGSV,2,2,06,8$GLGSV,1,1,03,70,21,032,,78,09,331,,86,52,047,,0*42
$GAGSV,2,1,05,01,26,302,39,08,37,117,42,13,65,001,44,21,38,247,36,2*7F
$GAGSV,2,2,05,26,30,287,44,2*49
$GAGSV,2,1,06,01,26,302,42,08,37,117,42,13,65,001,43,18,20,125,44,7*73
$GAGSV,2,2,06,21,38,247,38,26,30,287,44,7*7D
$GAGSV,1,1,04,03,24,057,,07,15,169,,15,31,072,,27,16,193,,0*70
$GBGSV,3,1,12,01,43,152,37,02,28,236,32,03,44,206,43,04,35,132,36,1*7A
$GBGSV,3,2,12,07,60,215,42,08,53,269,41,10,62,244,41,13,45,261,39,1*7D
$GBGSV,3,3,12,27,61,328,47,28,54,089,46,33,42,056,24,37,02,211,14,1*77
$GBGSV,2,1,07,01,43,152,40,03,44,206,42,04,35,132,40,07,60,215,43,3*73
$GBGSV,2,2,07,08,53,269,43,10,62,244,43,13,45,261,37,3*45
$GBGSV,1,1,04,05,08,256,,14,18,041,,15,33,191,,30,13,302,,0*7B
$GNRMC,050206.00,A,3726.9498447,N,12639.2541961,E,0.022,,210622,,,R,V*0B
$GNVTG,,T,,M,0.022,N,0.041,K,D*3D
$GNGNS,050206.00,3726.9498447,N,12639.2541961,E,RRRR,28,0.70,21.227,17.838,2.0,4095,V*03
$GNGGA,050206.00,3726.9498447,N,12639.2541961,E,4,12,0.70,21.227,M,17.838,M,2.0,4095*5F
$GNGSA,A,3,17,09,02,12,19,20,11,06,14,,,,1.29,0.70,1.08,1*02
$GNGSA,A,3,76,87,77,72,71,,,,,,,,1.29,0.70,1.08,2*0B
$GNGSA,A,3,01,08,26,21,13,,,,,,,,1.29,0.70,1.08,3*0B
$GNGSA,A,3,28,08,07,13,03,27,04,01,10,,,,1.29,0.70,1.08,4*05
$GPGSV,4,1,13,02,21,281,37,03,23,044,16,04,27,081,24,06,58,312,47,1*6E
$GPGSV,4,2,13,09,31,119,45,11,25,276,28,12,19,314,38,14,16,184,38,1*6F
$GPGSV,4,3,13,17,68,114,43,19,81,009,46,20,16,227,34,28,,,42,1*59
$GPGSV,4,4,13,50,47,179,32,1*5E
$GPGSV,2,1,07,04,27,081,19,06,58,312,43,09,31,119,37,11,25,276,33,6*69
$GPGSV,2,2,07,12,19,314,30,14,16,184,36,17,68,114,39,6*56
$GPGSV,1,1,01,01,01,078,,0*5B
$GLGSV,2,1,06,71,57,083,47,72,39,163,44,76,12,228,27,77,22,277,24,1*71
$GLGSV,2,2,06,85,18,091,26,87,33,318,36,1*76
$GLGSV,2,1,06,71,57,083,38,72,39,163,25,76,12,228,31,77,22,277,27,3*78
$GLGSV,2,2,06,85,18,091,17,87,33,318,09,3*7A
$GLGSV,1,1,03,70,21,032,,78,09,331,,86,52,047,,0*42
$GAGSV,2,1,05,01,26,302,40,08,37,117,43,13,65,001,44,21,38,247,38,2*7E
$GAGSV,2,2,05,26,30,287,44,2*49
$GBGSV,2,2,07,08,53,269,43,10,62,244,43,13,45,261,37,3*45
$GBGSV,1,1,04,05,08,256,,14,18,041,,15,33,191,,30,13,302,,0*7B
$GNRMC,050207.00,A,3726.9498420,N,12639.2541923,E,0.020,,210622,,,R,V*0F
$GNVTG,,T,,M,0.020,N,0.036,K,D*3F
$GNGNS,050207.00,3726.9498420,N,12639.2541923,E,RRRR,28,0.70,21.246,17.838,2.0,4095,V*02
$GNGGA,050207.00,3726.9498420,N,12639.2541923,E,4,12,0.70,21.246,M,17.838,M,2.0,4095*5E
$GNGSA,A,3,17,09,02,12,19,20,11,06,14,,,,1.29,0.70,1.08,1*02
$GNGSA,A,3,76,87,77,72,71,,,,,,,,1.29,0.70,1.08,2*0B
$GNGSA,A,3,01,08,26,21,13,,,,,,,,1.29,0.70,1.08,3*0B
$GNGSA,A,3,28,08,07,13,03,27,04,01,10,,,,1.29,0.70,1.08,4*05
$GPGSV,4,1,13,02,21,281,35,03,23,044,16,04,27,081,24,06,58,312,47,1*6C
$GPGSV,4,2,13,09,31,119,45,11,25,276,30,12,19,314,40,14,16,184,37,1*66
$GPGSV,4,3,13,17,68,114,42,19,81,009,46,20,16,227,33,28,,,43,1*5E
$GPGSV,4,4,13,50,47,179,31,1*5D
$GPGSV,2,1,07,04,27,081,18,06,58,312,43,09,31,119,36,11,25,276,31,6*6B
$GPGSV,2,2,07,12,19,314,31,14,16,184,35,17,68,114,39,6*54
$GPGSV,1,1,01,01,01,078,,0*5B
$GLGSV,2,1,06,71,57,083,47,72,39,163,42,76,12,228,25,77,22,277,22,1*73
$GLGSV,2,2,06,85,18,091,26,87,33,318,34,1*74
$GLGSV,2,1,06,71,57,083,38,72,39,163,25,76,12,228,31,77,22,277,27,3*78
$GLGSV,2,2,06,85,18,091,16,87,33,318,10,3*73
$GLGSV,1,1,03,70,21,032,,78,09,331,,86,52,047,,0*42
$GAGSV,2,1,05,01,26,302,41,08,38,117,43,13,65,001,44,21,38,247,38,2*70
$GAGSV,2,2,05,26,30,287,42,2*4F
$GAGSV,2,1,06,01,26,302,42,08,38,117,43,13,65,001,43,18,20,125,44,7*7D
$GAGSV,2,2,06,21,38,247,38,26,30,287,43,7*7A
$GAGSV,1,1,04,03,24,057,,07,15,169,,15,31,072,,27,16,193,,0*70
$GBGSV,3,1,12,01,43,152,38,02,28,236,30,03,44,206,44,04,35,132,38,1*7E
$GBGSV,3,2,12,07,60,215,41,08,53,269,42,10,62,244,42,13,45,261,39,1*7E
$GBGSV,3,3,12,27,61,328,47,28,54,089,46,33,42,056,24,37,02,211,12,1*71
$GBGSV,2,1,07,01,43,152,41,03,44,206,43,04,35,132,40,07,60,215,42,3*72
$GBGSV,2,2,07,08,53,269,44,10,62,244,42,13,45,261,37,3*43
$GBGSV,1,1,04,05,08,256,,14,18,041,,15,33,191,,30,13,302,,0*7B
$GNRMC,050208.00,A,3726.9498421,N,12639.2541952,E,0.010,,210622,,,R,V*04
$GNVTG,,T,,M,0.010,N,0.018,K,D*30
$GNGNS,050208.00,3726.9498421,N,12639.2541952,E,RRRR,28,0.70,21.247,17.838,2.0,4095,V*0B
$GNGGA,050208.00,3726.9498421,N,12639.2541952,E,4,12,0.70,21.247,M,17.838,M,2.0,4095*57
$GNGSA,A,3,17,09,02,12,19,20,11,06,14,,,,1.29,0.70,1.08,1*02
$GNGSA,A,3,76,87,77,72,71,,,,,,,,1.29,0.70,1.08,2*0B
$GNGSA,A,3,01,08,26,21,13,,,,,,,,1.29,0.70,1.08,3*0B
$GNGSA,A,3,28,08,07,13,03,27,04,01,10,,,,1.29,0.70,1.08,4*05
$GPGSV,4,1,13,02,21,281,38,03,23,044,08,04,27,081,22,06,58,312,47,1*68
$GPGSV,4,2,13,09,31,119,45,11,25,276,37,12,19,314,35,14,16,184,39,1*6D
$GPGSV,4,3,13,17,68,114,42,19,81,009,46,20,16,227,32,28,,,43,1*5F
$GPGSV,4,4,13,50,47,179,32,1*5E
$GPGSV,1,1,01,03,23,044,11,5*53
$GPGSV,2,1,07,04,27,081,18,06,58,312,42,09,31,119,37,11,25,276,34,6*6E
$GPGSV,2,2,07,12,19,314,30,14,16,184,37,17,68,114,40,6*59
$GPGSV,1,1,01,01,01,078,,0*5B
$GLGSV,2,1,06,71,57,083,47,72,39,163,44,76,12,228,25,77,22,277,23,1*74
$GLGSV,2,2,06,85,18,091,25,87,33,318,35,1*76
$GLGSV,2,1,06,71,57,083,39,72,39,163,27,76,12,228,32,77,22,277,28,3*77
$GLGSV,2,2,06,85,18,091,18,87,33,318,09,3*75
$GLGSV,1,1,03,70,21,032,,78,09,331,,86,52,047,,0*42
$GAGSV,2,1,05,01,26,302,41,08,38,117,42,13,65,001,43,21,38,247,37,2*79
$GAGSV,2,2,05,26,30,287,42,2*4F
$GAGSV,2,1,06,01,26,302,42,08,38,117,43,13,65,001,43,18,20,125,43,7*7A
$GAGSV,2,2,06,21,38,247,38,26,30,287,44,7*7D
$GAGSV,1,1,04,03,24,057,,07,15,169,,15,31,072,,27,16,193,,0*70
$GBGSV,3,1,12,01,43,152,37,02,28,236,30,03,44,206,44,04,35,132,36,1*7F
$GBGSV,3,2,12,07,60,215,41,08,53,269,41,10,62,244,41,13,45,261,38,1*7F
$GBGSV,3,3,12,27,61,328,47,28,54,089,46,33,42,056,23,37,02,211,11,1*75
$GNRMC,050209.00,A,3726.9498432,N,12639.2541954,E,0.014,,210622,,,R,V*05
$GNVTG,,T,,M,0.014,N,0.027,K,D*38
$GNGNS,050209.00,3726.9498432,N,12639.2541954,E,RRRR,28,0.70,21.242,17.838,2.0,4095,V*0B
$GNGSA,A,3,17,09,02,12,19,20,11,06,14,,,,1.29,0.70,1.08,1*02
$GNGSA,A,3,76,87,77,72,71,,,,,,,,1.29,0.70,1.08,2*0B
$GNGSA,A,3,01,08,26,21,13,,,,,,,,1.29,0.70,1.08,3*0B
$GNGSA,A,3,28,08,07,13,03,27,04,01,10,,,,1.29,0.70,1.08,4*05
$GPGSV,4,1,13,02,21,281,36,03,23,044,14,04,27,081,21,06,58,312,48,1*67
$GPGSV,4,2,13,09,31,119,45,11,25,276,30,12,19,314,34,14,16,184,36,1*64
$GPGSV,4,3,13,17,68,114,42,19,81,009,46,20,16,227,27,28,,,43,1*5B
$GPGSV,4,4,13,50,47,179,32,1*5E
$GPGSV,1,1,01,03,23,044,10,5*52
$GPGSV,2,1,07,04,27,081,19,06,58,312,43,09,31,119,37,11,25,276,33,6*69
$GPGSV,2,2,07,12,19,314,29,14,16,184,37,17,68,114,39,6*5F
$GPGSV,1,1,01,01,01,078,,0*5B
$GLGSV,2,1,06,71,57,083,47,72,39,163,43,76,12,228,21,77,22,277,22,1*76
$GLGSV,2,2,06,85,18,091,24,87,33,318,35,1*77
$GLGSV,2,1,06,71,57,083,37,72,39,163,29,76,12,228,30,77,22,277,29,3*74
$GLGSV,2,2,06,85,18,091,18,87,33,318,09,3*75
$GLGSV,1,1,03,70,21,032,,78,$GAGSV,2,1,05,01,26,302,41,08,38,117,42,13,65,001,43,21,38,247,38,2*76
$GAGSV,2,2,05,26,30,287,40,2*4D
$GAGSV,2,1,06,01,26,302,43,08,38,117,41,13,65,001,43,18,20,125,43,7*79
$GAGSV,2,2,06,21,38,247,39,26,30,287,43,7*7B
$GAGSV,1,1,04,03,24,057,,07,15,169,,15,31,072,,27,16,193,,0*70
$GBGSV,3,1,12,01,43,152,37,02,28,236,32,03,44,206,44,04,35,132,35,1*7E
$GBGSV,3,2,12,07,60,215,41,08,53,269,41,10,62,244,41,13,45,261,39,1*7E
$GBGSV,3,3,12,27,61,328,48,28,54,089,45,33,42,056,24,37,02,211,09,1*77
$GBGSV,2,1,07,01,43,152,40,03,44,206,43,04,35,132,41,07,60,215,42,3*72
$GBGSV,2,2,07,08,53,269,42,10,62,244,42,13,45,261,38,3*4A
$GBGSV,1,1,04,05,08,256,,14,18,041,,15,33,191,,30,13,302,,0*7B
$GNRMC,050210.00,A,3726.9498402,N,12639.2541956,E,0.015,,210622,,,R,V*0D
$GNVTG,,T,,M,0.015,N,0.028,K,D*36
$GNGNS,050210.00,3726.9498402,N,12639.2541956,E,RRRR,28,0.71,21.252,17.838,2.0,4095,V*02
$GNGGA,050210.00,3726.9498402,N,12639.2541956,E,4,12,0.71,21.252,M,17.838,M,2.0,4095*5E
