$GNRMC,031125.00,A,3726.9408014,N,12639.3711055,E,0.015,,210622,,,A,V*1A
$GNVTG,,T,,M,0.015,N,0.027,K,A*3C
$GNGNS,031125.00,3726.9408014,N,12639.3711055,E,AAAA,25,0.53,24.978,17.842,,,V*24
$GNGGA,031125.00,3726.9408014,N,12639.3711055,E,1,12,0.53,24.978,M,17.842,M,,*70
$GNGSA,A,3,03,17,01,06,14,19,,,,,,,1.04,0.53,0.89,1*0C
$GNGSA,A,3,71,75,76,69,85,,,,,,,,1.04,0.53,0.89,2*07
$GNGSA,A,3,03,13,30,21,15,27,,,,,,,1.04,0.53,0.89,3*01
$GNGSA,A,3,33,07,04,37,28,10,27,14,08,,,,1.04,0.53,0.89,4*02
$GPGSV,2,1,07,01,38,046,23,03,58,092,43,06,26,251,42,08,05,108,14,1*68
$GPGSV,2,2,07,17,58,327,46,19,36,305,43,28,,,45,1*6B
$GPGSV,2,1,06,01,38,046,16,03,58,092,39,06,26,251,32,08,05,108,12,6*64
$GPGSV,2,2,06,14,67,213,23,17,58,327,39,6*67
$GPGSV,1,1,04,04,02,126,,21,15,059,,30,04,210,,50,47,179,,0*64
$GLGSV,2,1,06,69,14,032,33,70,34,095,23,71,15,146,27,75,34,212,19,1*73
$GLGSV,2,2,06,76,45,289,46,85,47,027,47,1*77
$GLGSV,2,1,05,69,14,032,22,71,15,146,12,75,34,212,13,76,45,289,39,3*7A
$GLGSV,2,2,05,85,47,027,39,3*4E
$GLGSV,1,1,04,77,12,332,,84,02,069,,86,46,311,,87,01,268,,0*70
$GAGSV,2,1,07,03,14,098,33,13,54,277,39,15,58,032,49,18,73,050,50,2*76
$GAGSV,2,2,07,21,43,303,45,27,59,210,20,30,15,164,22,2*48
$GAGSV,2,1,06,03,14,098,31,13,54,277,39,15,58,032,44,18,73,050,51,7*7C
$GAGSV,2,2,06,21,43,303,44,27,59,210,29,7*70
$GAGSV,2,1,05,01,02,327,,05,06,049,,08,05,145,,26,06,251,,0*70
$GAGSV,2,2,05,26,06,251,,0*45
$GNRMC,031126.00,A,3726.9407858,N,12639.3710894,E,0.004,,210622,,,A,V*12
$GNVTG,,T,,M,0.004,N,0.007,K,A*3E
$GNGNS,031126.00,3726.9407858,N,12639.3710894,E,AAAA,25,0.53,24.979,17.842,,,V*2D
$GNGGA,031126.00,3726.9407858,N,12639.3710894,E,1,12,0.53,24.979,M,17.842,M,,*79
$GNGSA,A,3,03,17,01,06,14,19,,,,,,,1.04,0.53,0.89,1*0C
$GNGSA,A,3,71,75,76,69,85,,,,,,,,1.04,0.53,0.89,2*07
$GNGSA,A,3,03,13,30,21,15,27,,,,,,,1.04,0.53,0.89,3*01
$GNGSA,A,3,33,07,04,37,28,10,27,14,08,,,,1.04,0.53,0.89,4*02
$GPGSV,2,1,07,01,38,046,23,03,58,092,43,06,26,251,42,08,05,108,15,1*69
$GPGSV,2,2,07,17,58,327,46,19,36,305,43,28,,,45,1*6B
$GPGSV,2,1,06,01,38,046,17,03,58,092,39,06,26,251,33,08,05,108,13,6*65
$GPGSV,2,2,06,14,67,213,23,17,58,327,39,6*67
$GPGSV,1,1,04,04,02,126,,21,15,059,,30,04,210,,50,47,179,,0*64
$GLGSV,2,1,06,69,14,032,33,70,34,095,23,71,15,146,27,75,34,212,19,1*73
$GLGSV,2,2,06,76,45,289,45,85,47,027,47,1*74
$GLGSV,2,1,05,69,14,032,22,71,15,146,10,75,34,212,14,76,45,289,40,3*71
$GLGSV,2,2,05,85,47,027,39,3*4E
$GLGSV,1,1,04,77,12,332,,84,02,069,,86,46,311,,87,01,268,,0*70
$GAGSV,2,1,07,03,14,098,33,13,54,277,39,15,58,032,49,18,73,050,50,2*76
$GAGSV,2,2,07,21,43,303,45,27,59,210,21,30,15,164,22,2*49
$GAGSV,2,1,06,03,14,098,31,13,54,277,39,15,58,032,44,18,73,050,51,7*7C
$GAGSV,2,2,06,21,43,303,44,27,59,210,29,7*70
$GAGSV,2,1,05,01,02,327,,05,06,049,,08,05,145,,26,06,251,,0*70
$GAGSV,2,2,05,26,06,251,,0*45
$GBGSV,3,1,09,04,35,132,41,07,80,254,42,08,46,224,17,10,70,291,42,1*72
$GBGSV,3,2,09,14,36,083,40,27,28,287,44,28,67,349,48,33,39,119,42,1*7F
$GBGSV,3,3,09,37,35,243,44,1*48
$GBGSV,2,1,05,04,35,132,43,07,80,254,43,08,46,224,31,10,70,291,41,3*79
$GBGSV,2,2,05,14,36,083,46,3*48
$GBGSV,1,1,04,01,43,152,,03,43,205,,13,36,225,,23,14,192,,0*7C
$GNRMC,031127.00,A,3726.9407691,N,12639.3710729,E,0.008,,210622,,,A,V*1D
$GNVTG,,T,,M,0.008,N,0.015,K,A*31
$GNGNS,031127.00,3726.9407691,N,12639.3710729,E,AAAA,23,0.53,24.988,17.842,,,V*26
$GNGGA,031127.00,3726.9407691,N,12639.3710729,E,1,12,0.53,24.988,M,17.842,M,,*74
$GNGSA,A,3,03,17,01,06,14,19,,,,,,,1.04,0.53,0.89,1*0C
$GNGSA,A,3,71,75,76,69,85,,,,,,,,1.04,0.53,0.89,2*07
$GNGSA,A,3,03,13,30,21,15,27,,,,,,,1.04,0.53,0.89,3*01
$GNGSA,A,3,33,07,04,37,28,10,27,14,08,,,,1.04,0.53,0.89,4*02
$GPGSV,2,1,07,01,38,046,25,03,58,092,43,06,26,251,43,08,05,108,16,1*6D
$GPGSV,2,2,07,17,58,327,48,19,36,305,44,28,,,46,1*61
$GPGSV,2,1,06,01,38,046,18,03,58,092,39,06,26,251,32,08,05,108,12,6*6A
$GPGSV,2,2,06,14,67,213,23,17,58,327,39,6*67
$GPGSV,1,1,04,04,02,126,,21,15,059,,30,04,210,,50,47,179,,0*64
$GLGSV,2,1,06,69,14,032,36,70,34,095,23,71,15,146,26,75,34,212,18,1*76
$GLGSV,2,2,06,76,45,289,47,85,47,027,49,1*78
$GLGSV,2,1,05,69,14,032,22,71,15,146,13,75,34,212,13,76,45,289,41,3*74
$GLGSV,2,2,05,85,47,027,40,3*40
$GLGSV,1,1,04,77,12,332,,84,02,069,,86,46,311,,87,01,268,,0*70
$GAGSV,2,1,07,03,14,098,33,13,54,277,39,15,58,032,49,18,73,050,50,2*76
$GAGSV,2,2,07,21,43,303,45,27,59,210,21,30,15,164,21,2*4A
$GAGSV,2,1,06,03,14,098,31,13,54,277,40,15,58,032,45,18,73,050,51,7*73
$GAGSV,2,2,06,21,43,303,44,27,59,210,28,7*71
$GAGSV,2,1,05,01,02,327,,05,06,049,,08,05,145,,26,06,251,,0*70
$GAGSV,2,2,05,26,06,251,,0*45
$GBGSV,3,1,09,04,35,132,42,07,80,254,43,08,46,224,17,10,70,291,42,1*70
$GBGSV,3,2,09,14,36,083,41,27,28,287,45,28,67,349,49,33,39,119,43,1*7F
$GBGSV,3,3,09,37,35,243,45,1*49
$GBGSV,2,1,05,04,35,132,43,07,80,254,43,08,46,224,31,10,70,291,41,3*79
$GBGSV,2,2,05,14,36,083,47,3*49
$GBGSV,1,1,04,01,43,152,,03,43,205,,13,36,225,,23,14,192,,0*7C
$GNRMC,031128.00,A,3726.9393148,N,12639.3706610,E,0.120,,210622,,,F,V*1B
$GNVTG,,T,,M,0.120,N,0.223,K,D*38
$GNGNS,031128.00,3726.9393148,N,12639.3706610,E,FFFF,24,0.62,23.508,17.842,2.0,4095,V*0E
$GNGGA,031128.00,3726.9393148,N,12639.3706610,E,5,12,0.62,23.508,M,17.842,M,2.0,4095*5F
$GNGSA,A,3,03,17,01,06,14,19,,,,,,,1.19,0.62,1.01,1*03
$GNGSA,A,3,71,75,76,69,85,,,,,,,,1.19,0.62,1.01,2*08
$GNGSA,A,3,03,13,30,21,15,27,,,,,,,1.19,0.62,1.01,3*0E
$GNGSA,A,3,33,07,04,37,28,10,27,14,08,,,,1.19,0.62,1.01,4*0D
$GPGSV,2,1,07,01,38,046,26,03,58,092,43,06,26,251,43,08,05,108,16,1*6E
$GPGSV,2,2,07,17,58,327,47,19,36,305,44,28,,,46,1*6E
$GPGSV,2,1,06,01,38,046,19,03,58,092,39,06,26,251,33,08,05,108,11,6*69
$GPGSV,2,2,06,14,67,213,23,17,58,327,39,6*67
$GPGSV,1,1,04,04,02,126,,21,15,059,,30,04,210,,50,47,179,,0*64
$GLGSV,2,1,06,69,14,031,34,70,34,095,23,71,15,146,27,75,34,212,19,1*77
$GLGSV,2,2,06,76,45,289,46,85,47,027,48,1*78
$GLGSV,2,1,05,69,14,031,21,71,15,146,17,75,34,212,12,76,45,289,41,3*71
$GLGSV,2,2,05,85,47,027,40,3*40
$GLGSV,1,1,04,77,12,332,,84,02,069,,86,46,311,,87,01,268,,0*70
$GAGSV,2,1,07,03,14,098,33,13,54,277,39,15,58,032,49,18,73,050,50,2*76
$GAGSV,2,2,07,21,43,303,45,27,59,210,21,30,15,164,21,2*4A
$GAGSV,2,1,06,03,14,098,32,13,54,277,39,15,58,032,45,18,73,050,51,7*7E
$GAGSV,2,2,06,21,43,303,44,27,59,210,28,7*71
$GAGSV,2,1,05,01,02,327,,05,06,049,,08,05,145,,26,06,251,,0*70
$GAGSV,2,2,05,26,06,251,,0*45
$GBGSV,3,1,09,04,35,132,41,07,80,254,42,08,46,224,17,10,70,291,42,1*72
$GBGSV,3,2,09,14,36,083,40,27,28,287,44,28,67,349,48,33,39,119,42,1*7F
$GBGSV,3,3,09,37,35,243,44,1*48
$GBGSV,2,1,05,04,35,132,43,07,80,254,43,08,46,224,30,10,70,291,41,3*78
$GBGSV,2,2,05,14,36,083,46,3*48
$GBGSV,1,1,04,01,43,152,,03,43,205,,13,36,225,,23,14,192,,0*7C
$GNRMC,031129.00,A,3726.9392644,N,12639.3706359,E,0.020,,210622,,,F,V*19
$GNVTG,,T,,M,0.020,N,0.037,K,D*3E
$GNGNS,031129.00,3726.9392644,N,12639.3706359,E,FFFF,25,0.62,23.473,17.842,2.0,4095,V*01
$GNGGA,031129.00,3726.9392644,N,12639.3706359,E,5,12,0.62,23.473,M,17.842,M,2.0,4095*51
$GNGSA,A,3,03,17,01,06,14,19,,,,,,,1.19,0.62,1.01,1*03
$GNGSA,A,3,71,75,76,69,85,,,,,,,,1.19,0.62,1.01,2*08
$GNGSA,A,3,03,13,30,21,15,27,,,,,,,1.19,0.62,1.01,3*0E
$GNGSA,A,3,33,07,04,37,28,10,27,14,08,,,,1.19,0.62,1.01,4*0D
$GPGSV,2,1,07,01,38,046,26,03,58,092,43,06,26,251,42,08,05,108,16,1*6F
$GPGSV,2,2,07,17,58,327,47,19,36,305,43,28,,,46,1*69
$GPGSV,2,1,06,01,38,046,21,03,58,092,39,06,26,251,32,08,05,108,11,6*63
$GPGSV,2,2,06,14,67,213,25,17,58,327,39,6*61
$GPGSV,1,1,04,04,02,126,,21,15,059,,30,04,210,,50,47,179,,0*64
$GLGSV,2,1,06,69,14,031,35,70,34,094,23,71,15,146,27,75,34,212,21,1*7C
$GLGSV,2,2,06,76,45,289,46,85,47,027,48,1*78
$GLGSV,2,1,05,69,14,031,21,71,15,146,17,75,34,212,10,76,45,289,41,3*73
$GLGSV,2,2,05,85,47,027,40,3*40
$GLGSV,1,1,04,77,12,332,,84,02,069,,86,46,311,,87,01,268,,0*70
$GAGSV,2,1,07,03,14,098,33,13,54,277,39,15,58,032,49,18,73,050,50,2*76
$GAGSV,2,2,07,21,43,303,45,27,59,210,21,30,15,164,21,2*4A
$GAGSV,2,1,06,03,14,098,33,13,54,277,40,15,58,032,45,18,73,050,51,7*71
$GAGSV,2,2,06,21,43,303,44,27,59,210,28,7*71
$GAGSV,2,1,05,01,02,327,,05,06,049,,08,05,145,,26,06,251,,0*70
$GAGSV,2,2,05,26,06,251,,0*45
$GBGSV,3,1,09,04,35,132,41,07,80,254,42,08,46,224,16,10,70,291,41,1*70
$GBGSV,3,2,09,14,36,083,40,27,28,287,43,28,67,349,48,33,39,119,42,1*78
$GBGSV,3,3,09,37,35,243,44,1*48
$GBGSV,2,1,05,04,35,132,43,07,80,254,43,08,46,224,31,10,70,291,41,3*79
$GBGSV,2,2,05,14,36,083,47,3*49
$GBGSV,1,1,04,01,43,152,,03,43,205,,13,36,225,,23,14,192,,0*7C
$GNRMC,031130.00,A,3726.9406070,N,12639.3711274,E,0.009,,210622,,,R,V*0D
$GNVTG,,T,,M,0.009,N,0.017,K,D*37
$GNGNS,031130.00,3726.9406070,N,12639.3711274,E,RRRR,24,0.62,22.238,17.842,2.0,4095,V*03
$GNGGA,031130.00,3726.9406070,N,12639.3711274,E,4,12,0.62,22.238,M,17.842,M,2.0,4095*53
$GNGSA,A,3,71,75,76,69,85,,,,,,,,1.19,0.62,1.01,2*08
$GNGSA,A,3,03,13,30,21,15,27,,,,,,,1.19,0.62,1.01,3*0E
$GNGSA,A,3,33,07,04,37,28,10,27,14,08,,,,1.19,0.62,1.01,4*0D
$GPGSV,2,1,07,01,38,046,27,03,58,092,43,06,26,251,42,08,05,108,16,1*6E
$GPGSV,2,2,07,17,58,327,46,19,36,305,43,28,,,45,1*6B
$GPGSV,2,1,06,01,38,046,22,03,58,092,39,06,26,251,32,08,05,108,10,6*61
$GPGSV,2,2,06,14,67,213,24,17,58,327,39,6*60
$GPGSV,1,1,04,04,02,126,,21,15,059,,30,04,210,,50,47,179,,0*64
$GLGSV,2,1,06,69,14,031,36,70,34,094,23,71,16,145,26,75,34,212,22,1*7D
$GLGSV,2,2,06,76,45,289,46,85,47,027,48,1*78
$GLGSV,2,1,05,69,14,031,22,71,16,145,15,75,34,212,12,76,45,289,40,3*71
$GLGSV,2,2,05,85,47,027,40,3*40
$GLGSV,1,1,04,77,12,332,,84,02,069,,86,46,311,,87,01,268,,0*70
$GAGSV,2,1,07,03,14,098,34,13,54,277,39,15,58,032,49,18,73,050,50,2*71
$GAGSV,2,2,07,21,43,303,45,27,59,210,21,30,15,164,21,2*4A
$GAGSV,2,1,06,03,14,098,32,13,54,277,40,15,58,032,45,18,73,050,51,7*70$GAGSV,2,2,06,21,43,303,44,27,59,210,29,7*70
$GAGSV,2,1,05,01,02,327,,05,06,049,,08,05,145,,26,06,251,,0*70
$GAGSV,2,2,05,26,06,251,,0*45
$GBGSV,3,1,09,04,35,132,41,07,80,254,42,08,46,224,17,10,70,291,41,1*71
$GNRMC,031131.00,A,3726.9406075,N,12639.3711282,E,0.010,,210622,,,R,V*08
$GNVTG,,T,,M,0.010,N,0.019,K,D*31
$GNGNS,031131.00,3726.9406075,N,12639.3711282,E,RRRR,24,0.65,22.228,17.842,2.0,4095,V*08
$GNGGA,031131.00,3726.9406075,N,12639.3711282,E,4,12,0.65,22.228,M,17.842,M,2.0,4095*58
$GNGSA,A,3,03,17,01,06,14,19,,,,,,,1.20,0.65,1.01,1*0E
$GNGSA,A,3,71,75,76,69,85,,,,,,,,1.20,0.65,1.01,2*05
$GNGSA,A,3,03,13,30,21,15,27,,,,,,,1.20,0.65,1.01,3*03
$GNGSA,A,3,33,07,04,37,28,10,27,14,08,,,,1.20,0.65,1.01,4*00
$GPGSV,2,1,07,01,38,046,27,03,58,092,42,06,26,251,42,08,05,108,16,1*6F
$GPGSV,2,2,07,17,58,327,46,19,36,305,43,28,,,45,1*6B
$GPGSV,2,1,06,01,38,046,22,03,58,092,39,06,26,251,32,08,05,108,10,6*61
$GPGSV,2,2,06,14,67,213,25,17,58,327,39,6*61
$GPGSV,1,1,04,04,02,126,,21,15,059,,30,04,210,,50,47,179,,0*64
$GLGSV,2,1,06,69,14,031,36,70,34,094,23,71,16,145,26,75,34,212,23,1*7C
$GLGSV,2,2,06,76,45,289,46,85,47,027,48,1*78
$GLGSV,2,1,05,69,14,031,21,71,16,145,15,75,34,212,14,76,45,289,40,3*74
$GLGSV,2,2,05,85,47,027,40,3*40
$GLGSV,1,1,04,77,12,332,,84,02,069,,86,46,311,,87,01,268,,0*70
$GAGSV,2,1,07,03,14,098,33,13,54,277,39,15,58,032,49,18,73,050,50,2*76
$GAGSV,2,2,07,21,43,303,45,27,59,210,21,30,15,164,20,2*4B
$GAGSV,2,1,06,03,14,098,32,13,54,277,40,15,58,032,45,18,73,050,51,7*70
$GAGSV,2,2,06,21,43,303,44,27,59,210,29,7*70
$GAGSV,2,1,05,01,02,327,,05,06,049,,08,05,145,,26,06,251,,0*70
$GAGSV,2,2,05,26,06,251,,0*45
$GBGSV,3,1,09,04,35,132,41,07,80,254,42,08,46,224,18,10,70,291,41,1*7E
$GBGSV,3,2,09,14,36,083,39,27,28,287,43,28,67,349,48,33,39,119,41,1*75
$GBGSV,3,3,09,37,35,243,44,1*48
$GBGSV,2,1,05,04,35,132,42,07,80,254,43,08,46,224,30,10,70,291,41,3*79
$GBGSV,2,2,05,14,36,083,46,3*48
$GBGSV,1,1,04,01,43,152,,03,43,205,,13,36,225,,23,14,192,,0*7C
$GNRMC,031132.00,A,3726.9406064,N,12639.3711287,E,0.016,,210622,,,R,V*08
$GNVTG,,T,,M,0.016,N,0.029,K,D*34
$GNGNS,031132.00,3726.9406064,N,12639.3711287,E,RRRR,25,0.62,22.231,17.842,2.0,4095,V*00
$GNGGA,031132.00,3726.9406064,N,12639.3711287,E,4,12,0.62,22.231,M,17.842,M,2.0,4095*51
$GNGSA,A,3,03,17,01,06,14,19,,,,,,,1.19,0.62,1.01,1*03
$GNGSA,A,3,71,75,76,69,85,,,,,,,,1.19,0.62,1.01,2*08
$GNGSA,A,3,03,13,30,21,15,27,,,,,,,1.19,0.62,1.01,3*0E
$GNGSA,A,3,33,07,04,37,28,10,27,14,08,,,,1.19,0.62,1.01,4*0D
$GPGSV,2,1,07,01,38,046,27,03,58,090,42,06,26,251,42,08,05,108,16,1*6D
$GPGSV,2,2,07,17,58,327,46,19,36,305,43,28,,,45,1*6B
$GPGSV,2,1,05,01,38,046,22,03,58,090,38,06,26,251,32,14,67,213,24,6*66
$GPGSV,2,2,05,17,58,327,39,6*51
$GPGSV,1,1,04,04,02,126,,21,15,059,,30,04,210,,50,47,179,,0*64
$GLGSV,2,1,06,69,14,031,36,70,34,094,23,71,16,145,24,75,34,212,24,1*79
$GLGSV,2,2,06,76,45,289,46,85,47,027,48,1*78
$GLGSV,2,1,05,69,14,031,23,71,16,145,16,75,34,212,11,76,45,289,40,3*70
$GLGSV,2,2,05,85,47,027,40,3*40
$GLGSV,1,1,04,77,12,332,,84,02,069,,86,46,311,,87,01,268,,0*70
$GAGSV,2,1,07,03,14,098,33,13,54,277,39,15,58,032,49,18,73,050,50,2*76
$GAGSV,2,2,07,21,43,303,45,27,59,210,22,30,15,164,20,2*48
$GAGSV,2,1,06,03,14,098,32,13,54,277,40,15,58,032,45,18,73,050,51,7*70
$GAGSV,2,2,06,21,43,303,44,27,59,210,29,7*70
$GAGSV,2,1,05,01,02,327,,05,06,049,,08,05,145,,26,06,251,,0*70
$GAGSV,2,2,05,26,06,251,,0*45
$GBGSV,3,1,09,04,35,132,41,07,80,254,42,08,46,224,18,10,70,291,41,1*7E
$GBGSV,3,2,09,14,36,083,39,27,28,287,43,28,67,349,48,33,39,119,41,1*75
$GBGSV,3,3,09,37,35,243,44,1*48
$GBGSV,2,1,05,04,35,132,42,07,80,254,43,08,46,224,31,10,70,291,41,3*78
$GBGSV,2,2,05,14,36,083,46,3*48
$GBGSV,1,1,04,01,43,152,,03,43,205,,13,36,225,,23,14,192,,0*7C
$GNRMC,031133.00,A,3726.9406049,N,12639.3711301,E,0.008,,210622,,,R,V*06
$GNVTG,,T,,M,0.008,N,0.015,K,D*34
$GNGNS,031133.00,3726.9406049,N,12639.3711301,E,RRRR,24,0.62,22.223,17.842,1.0,4095,V*00
$GNGGA,031133.00,3726.9406049,N,12639.3711301,E,4,12,0.62,22.223,M,17.842,M,1.0,4095*50
$GNGSA,A,3,03,17,01,06,14,19,,,,,,,1.19,0.62,1.01,1*03
$GNGSA,A,3,71,75,76,69,85,,,,,,,,1.19,0.62,1.01,2*08
$GNGSA,A,3,03,13,30,21,15,27,,,,,,,1.19,0.62,1.01,3*0E
$GNGSA,A,3,33,07,04,37,28,10,27,14,08,,,,1.19,0.62,1.01,4*0D
$GPGSV,2,1,07,01,38,046,28,03,58,090,42,06,26,251,42,08,05,108,15,1*61
$GPGSV,2,2,07,17,58,327,46,19,36,305,43,28,,,45,1*6B
$GPGSV,2,1,05,01,38,046,23,03,58,090,38,06,26,251,32,14,67,213,25,6*66
$GPGSV,2,2,05,17,58,327,39,6*51
$GPGSV,1,1,04,04,02,126,,21,15,059,,30,04,210,,50,47,179,,0*64
$GLGSV,2,1,06,69,14,031,35,70,34,094,23,71,16,145,25,75,34,212,25,1*7A
$GLGSV,2,2,06,76,45,289,46,85,47,027,48,1*78
$GLGSV,2,1,05,69,14,031,23,71,16,145,18,75,34,212,10,76,45,289,40,3*7F
$GLGSV,2,2,05,85,47,027,41,3*41
$GLGSV,1,1,04,77,12,332,,84,02,069,,86,46,311,,87,01,268,,0*70
$GAGSV,2,1,07,03,14,098,33,13,54,277,39,15,58,032,49,18,73,050,50,2*76
$GAGSV,2,2,07,21,43,303,45,27,59,210,22,30,15,164,20,2*48
$GAGSV,2,1,06,03,14,098,32,13,54,277,40,15,58,032,45,18,73,050,51,7*70
$GAGSV,2,2,06,21,43,303,44,27,59,210,29,7*70
$GAGSV,2,1,05,01,02,327,,05,06,049,,08,05,145,,26,06,251,,0*70
$GAGSV,2,2,05,26,06,251,,0*45
$GBGSV,3,1,09,04,35,132,41,07,80,254,42,08,46,224,18,10,70,291,42,1*7D
$GBGSV,3,2,09,14,36,083,38,27,28,287,43,28,67,349,48,33,39,119,41,1*74
$GBGSV,3,3,09,37,35,243,44,1*48
$GBGSV,2,1,05,04,35,132,42,07,80,254,43,08,46,224,31,10,70,291,41,3*78
$GBGSV,2,2,05,14,36,083,46,3*48
$GBGSV,1,1,04,01,43,152,,03,43,205,,13,36,225,,23,14,192,,0*7C
$GNRMC,031134.00,A,3726.9406049,N,12639.3711297,E,0.009,,210622,,,R,V*0E
$GNVTG,,T,,M,0.009,N,0.017,K,D*37
$GNGNS,031134.00,3726.9406049,N,12639.3711297,E,RRRR,24,0.65,22.225,17.842,2.0,4095,V*0B
$GNGGA,031134.00,3726.9406049,N,12639.3711297,E,4,12,0.65,22.225,M,17.842,M,2.0,4095*5B
$GNGSA,A,3,03,17,01,06,14,19,,,,,,,1.20,0.65,1.01,1*0E
$GNGSA,A,3,71,75,76,69,85,,,,,,,,1.20,0.65,1.01,2*05
$GNGSA,A,3,03,13,30,21,15,27,,,,,,,1.20,0.65,1.01,3*03
$GNGSA,A,3,33,07,04,37,28,10,27,14,08,,,,1.20,0.65,1.01,4*00
$GPGSV,2,1,08,01,38,046,28,03,58,090,42,06,26,251,42,08,05,108,13,1*68
$GPGSV,2,2,08,14,67,213,26,17,58,327,46,19,36,305,42,28,,,45,1*55
$GPGSV,2,1,05,01,38,046,23,03,58,090,38,06,26,251,32,14,67,213,25,6*66
$GPGSV,2,2,05,17,58,327,39,6*51
$GPGSV,1,1,04,04,02,126,,21,15,059,,30,04,210,,50,47,179,,0*64
$GLGSV,2,1,06,69,14,031,35,70,34,094,23,71,16,145,25,75,33,211,25,1*7E
$GLGSV,2,2,06,76,45,289,46,85,47,027,48,1*78
$GLGSV,2,1,05,69,14,031,25,71,16,145,18,75,33,211,14,76,45,289,40,3*79
$GLGSV,2,2,05,85,47,027,41,3*41
$GLGSV,1,1,04,77,12,332,,84,02,069,,86,46,311,,87,01,268,,0*70
$GAGSV,2,1,07,03,14,098,33,13,54,277,39,15,58,032,49,18,73,050,50,2*76
$GAGSV,2,2,07,21,43,303,45,27,59,210,22,30,15,164,21,2*49
$GAGSV,2,1,06,03,14,098,33,13,54,277,40,15,58,032,45,18,73,050,51,7*71
$GAGSV,2,2,06,21,43,303,44,27,59,210,30,7*78
$GAGSV,2,1,05,01,02,327,,05,06,049,,08,05,145,,26,06,251,,0*70
$GAGSV,2,2,05,26,06,251,,0*45
$GBGSV,3,1,09,04,35,132,41,07,80,254,42,08,46,224,18,10,70,291,42,1*7D
$GBGSV,3,2,09,14,36,083,38,27,28,287,43,28,67,349,48,33,39,119,41,1*74
$GBGSV,3,3,09,37,35,243,44,1*48
$GBGSV,2,1,05,04,35,132,43,07,80,254,43,08,46,224,31,10,70,291,41,3*79
$GBGSV,2,2,05,14,36,083,46,3*48
$GBGSV,1,1,04,01,43,152,,03,43,205,,13,36,225,,23,14,192,,0*7C
$GNRMC,031135.00,A,3726.9406053,N,12639.3711292,E,0.018,,210622,,,R,V*01
$GNVTG,,T,,M,0.018,N,0.034,K,D*36
$GNGNS,031135.00,3726.9406053,N,12639.3711292,E,RRRR,26,0.62,22.216,17.842,2.0,4095,V*01
$GNGGA,031135.00,3726.9406053,N,12639.3711292,E,4,12,0.62,22.216,M,17.842,M,2.0,4095*53
$GNGSA,A,3,03,17,01,06,14,19,,,,,,,1.19,0.62,1.01,1*03
$GNGSA,A,3,71,75,76,69,85,,,,,,,,1.19,0.62,1.01,2*08
$GNGSA,A,3,03,13,30,21,15,27,,,,,,,1.19,0.62,1.01,3*0E
$GNGSA,A,3,33,07,04,37,28,10,27,14,08,,,,1.19,0.62,1.01,4*0D
$GPGSV,2,1,08,01,38,046,28,03,58,090,42,06,26,251,42,08,05,108,13,1*68
$GPGSV,2,2,08,14,67,213,26,17,58,327,46,19,36,305,42,28,,,45,1*55
$GPGSV,2,1,05,01,38,046,25,03,58,090,39,06,26,251,32,14,67,213,25,6*61
$GPGSV,2,2,05,17,58,327,39,6*51
$GPGSV,1,1,04,04,02,126,,21,15,059,,30,04,210,,50,47,179,,0*64
$GLGSV,2,1,06,69,14,031,35,70,34,094,23,71,16,145,25,75,33,211,25,1*7E
$GLGSV,2,2,06,76,45,288,46,85,47,027,48,1*79
$GLGSV,2,1,05,69,14,031,25,71,16,145,19,75,33,211,11,76,45,288,40,3*7C
$GLGSV,2,2,05,85,47,027,41,3*41
$GLGSV,1,1,04,77,12,332,,84,02,069,,86,46,311,,87,01,268,,0*70
$GAGSV,2,1,07,03,14,098,33,13,54,277,39,15,58,032,49,18,73,050,51,2*77
$GAGSV,2,2,07,21,43,303,45,27,59,210,23,30,15,164,20,2*49
$GAGSV,2,1,06,03,14,098,34,13,54,277,41,15,58,032,45,18,73,050,51,7*77
$GAGSV,2,2,06,21,43,303,44,27,59,210,30,7*78
$GAGSV,2,1,05,01,02,327,,05,06,049,,08,05,145,,26,06,251,,0*70
$GAGSV,2,2,05,26,06,251,,0*45
$GBGSV,3,1,09,04,35,132,41,07,80,254,42,08,46,224,19,10,70,291,42,1*7C
$GBGSV,3,2,09,14,36,083,38,27,28,287,43,28,67,349,48,33,39,119,41,1*74
$GBGSV,3,3,09,37,35,243,44,1*48
$GBGSV,2,1,05,04,35,132,43,07,80,254,43,08,46,224,31,10,70,291,41,3*79
$GBGSV,2,2,05,14,36,083,46,3*48
$GBGSV,1,1,04,01,43,152,,03,43,205,,13,36,225,,23,14,192,,0*7C
$GNRMC,031136.00,A,3726.9406059,N,12639.3711304,E,0.005,,210622,,,R,V*0A
$GNVTG,,T,,M,0.005,N,0.010,K,D*3C
$GNGNS,031136.00,3726.9406059,N,12639.3711304,E,RRRR,25,0.62,22.217,17.842,2.0,4095,V*04
$GNGGA,031136.00,3726.9406059,N,12639.3711304,E,4,12,0.62,22.217,M,17.842,M,2.0,4095*55
$GNGSA,A,3,03,17,01,06,14,19,,,,,,,1.19,0.62,1.01,1*03
$GNGSA,A,3,71,75,76,69,85,,,,,,,,1.19,0.62,1.01,2*08
$GNGSA,A,3,03,13,30,21,15,27,,,,,,,1.19,0.62,1.01,3*0E
$GNGSA,A,3,33,07,04,37,28,10,27,14,08,,,,1.19,0.62,1.01,4*0D
$GPGSV,3,1,09,01,38,046,28,03,58,090,42,06,26,251,42,08,05,108,13,1*68
$GPGSV,3,2,09,14,67,213,26,17,58,327,46,19,36,305,42,28,,,45,1*55
$GPGSV,3,3,09,30,04,210,10,1*58
$GPGSV,2,1,05,01,38,046,25,03,58,090,38,06,26,251,32,14,67,213,25,6*60
$GPGSV,2,2,05,17,58,327,40,6*5F
$GAGSV,2,2,07,21,43,303,45,27,59,210,22,30,15,164,21,2*49
$GAGSV,2,1,06,03,14,098,34,13,54,277,41,15,58,032,45,18,73,050,51,7*77
$GAGSV,2,2,06,21,43,303,44,27,59,210,30,7*78
$GAGSV,2,1,05,01,02,327,,05,06,049,,08,05,145,,26,06,251,,0*70
$GAGSV,2,2,05,26,06,251,,0*45
$GBGSV,3,1,09,04,35,132,41,07,80,254,42,08,46,224,19,10,70,291,42,1*7C
$GNRMC,031137.00,A,3726.9406074,N,12639.3711284,E,0.008,,210622,,,R,V*00
$GNVTG,,T,,M,0.008,N,0.016,K,D*37
$GNGNS,031137.00,3726.9406074,N,12639.3711284,E,RRRR,25,0.65,22.221,17.842,2.0,4095,V*01
$GNGGA,031137.00,3726.9406074,N,12639.3711284,E,4,12,0.65,22.221,M,17.842,M,2.0,4095*50
$GNGSA,A,3,03,17,01,06,14,19,,,,,,,1.20,0.65,1.01,1*0E
$GNGSA,A,3,71,75,76,69,85,,,,,,,,1.20,0.65,1.01,2*05
$GNGSA,A,3,03,13,30,21,15,27,,,,,,,1.20,0.65,1.01,3*03
$GNGSA,A,3,33,07,04,37,28,10,27,14,08,,,,1.20,0.65,1.01,4*00
$GPGSV,3,1,09,01,38,046,28,03,58,090,42,06,26,251,42,08,05,108,14,1*6F
$GPGSV,3,2,09,14,67,213,27,17,58,327,46,19,36,305,42,28,,,45,1*54
$GPGSV,3,3,09,30,04,210,17,1*5F
$GPGSV,2,1,05,01,38,046,25,03,58,090,39,06,26,251,32,14,67,213,24,6*60
$GPGSV,2,2,05,17,58,327,39,6*51
$GPGSV,1,1,03,04,02,126,,21,15,059,,50,47,179,,0*57
$GLGSV,2,1,06,69,14,031,34,70,34,094,23,71,16,145,26,75,33,211,25,1*7C
$GLGSV,2,2,06,76,45,288,46,85,47,027,48,1*79
$GLGSV,2,1,05,69,14,031,25,71,16,145,20,75,33,211,09,76,45,288,40,3*7F
$GLGSV,2,2,05,85,47,027,41,3*41
$GLGSV,1,1,04,77,13,332,,84,02,069,,86,46,311,,87,01,268,,0*71
$GAGSV,2,1,07,03,14,098,33,13,54,277,39,15,58,032,49,18,73,050,51,2*77
$GAGSV,2,2,07,21,43,303,45,27,59,210,22,30,15,164,21,2*49
$GAGSV,2,1,06,03,14,098,34,13,54,277,41,15,58,032,46,18,73,050,51,7*74
$GAGSV,2,2,06,21,43,303,43,27,59,210,30,7*7F
$GAGSV,2,1,05,01,02,327,,05,06,049,,08,05,145,,26,06,251,,0*70
$GAGSV,2,2,05,26,06,251,,0*45
$GBGSV,3,1,09,04,35,132,41,07,80,254,42,08,46,224,20,10,70,291,42,1*76
$GBGSV,3,2,09,14,36,083,38,27,28,287,43,28,67,349,48,33,39,119,41,1*74
$GBGSV,3,3,09,37,35,243,44,1*48
$GBGSV,2,1,05,04,35,132,43,07,80,254,43,08,46,224,31,10,70,291,41,3*79
$GBGSV,2,2,05,14,36,083,46,3*48
$GBGSV,1,1,04,01,43,152,,03,43,205,,13,36,225,,23,14,192,,0*7C
$GNRMC,031138.00,A,3726.9406058,N,12639.3711296,E,0.004,,210622,,,R,V*0E
$GNVTG,,T,,M,0.004,N,0.008,K,D*34
$GNGNS,031138.00,3726.9406058,N,12639.3711296,E,RRRR,26,0.62,22.232,17.842,2.0,4095,V*05
$GNGGA,031138.00,3726.9406058,N,12639.3711296,E,4,12,0.62,22.232,M,17.842,M,2.0,4095*57
$GNGSA,A,3,03,17,01,06,14,19,,,,,,,1.19,0.62,1.01,1*03
$GNGSA,A,3,71,75,76,69,85,,,,,,,,1.19,0.62,1.01,2*08
$GNGSA,A,3,03,13,30,21,15,27,,,,,,,1.19,0.62,1.01,3*0E
$GNGSA,A,3,33,07,04,37,28,10,27,14,08,,,,1.19,0.62,1.01,4*0D
$GPGSV,3,1,09,01,38,046,28,03,58,090,42,06,26,251,42,08,05,108,14,1*6F
$GPGSV,3,2,09,14,67,213,27,17,58,327,46,19,36,305,42,28,,,46,1*57
$GPGSV,3,3,09,30,04,210,20,1*5B
$GPGSV,2,1,05,01,38,046,25,03,58,090,38,06,26,251,31,14,67,213,25,6*63
$GPGSV,2,2,05,17,58,327,39,6*51
$GPGSV,1,1,03,04,02,126,,21,15,059,,50,47,179,,0*57
$GLGSV,2,1,06,69,14,031,34,70,34,094,24,71,16,145,25,75,33,211,25,1*78
$GLGSV,2,2,06,76,45,288,45,85,47,027,48,1*7A
$GLGSV,2,1,05,69,14,031,25,71,16,145,21,75,33,211,14,76,45,288,40,3*72
$GLGSV,2,2,05,85,47,027,41,3*41
$GLGSV,1,1,04,77,13,332,,84,02,069,,86,46,311,,87,01,268,,0*71
$GAGSV,2,1,07,03,14,098,33,13,54,277,39,15,58,032,49,18,73,050,51,2*77
$GAGSV,2,2,07,21,43,303,45,27,59,210,22,30,15,164,20,2*48
$GAGSV,2,1,06,03,14,098,34,13,54,277,41,15,58,032,46,18,73,050,51,7*74
$GAGSV,2,2,06,21,43,303,44,27,59,210,30,7*78
$GAGSV,2,1,05,01,02,327,,05,06,049,,08,05,145,,26,06,251,,0*70
$GAGSV,2,2,05,26,06,251,,0*45
$GBGSV,3,1,09,04,35,132,41,07,80,254,42,08,46,224,20,10,70,291,42,1*76
$GBGSV,3,2,09,14,36,083,38,27,28,287,44,28,67,349,48,33,39,119,41,1*73
$GBGSV,3,3,09,37,35,243,44,1*48
$GBGSV,2,1,05,04,35,132,43,07,80,254,43,08,46,224,31,10,70,291,41,3*79
$GBGSV,2,2,05,14,36,083,46,3*48
$GBGSV,1,1,04,01,43,152,,03,43,205,,13,36,225,,23,14,192,,0*7C
$GNRMC,031139.00,A,3726.9406061,N,12639.3711299,E,0.010,,210622,,,R,V*0F
$GNVTG,,T,,M,0.010,N,0.019,K,D*31
$GNGNS,031139.00,3726.9406061,N,12639.3711299,E,RRRR,25,0.62,22.236,17.842,2.0,4095,V*06
$GNGGA,031139.00,3726.9406061,N,12639.3711299,E,4,12,0.62,22.236,M,17.842,M,2.0,4095*57
$GNGSA,A,3,03,17,01,06,14,19,,,,,,,1.19,0.62,1.01,1*03
$GNGSA,A,3,71,75,76,69,85,,,,,,,,1.19,0.62,1.01,2*08
$GNGSA,A,3,03,13,30,21,15,27,,,,,,,1.19,0.62,1.01,3*0E
$GNGSA,A,3,33,07,04,37,28,10,27,14,08,,,,1.19,0.62,1.01,4*0D
$GPGSV,3,1,09,01,38,046,28,03,58,090,41,06,26,251,42,08,05,108,16,1*6E
$GPGSV,3,2,09,14,67,213,28,17,58,327,46,19,36,305,42,28,,,46,1*58
$GPGSV,3,3,09,30,04,210,21,1*5A
$GPGSV,2,1,05,01,38,046,26,03,58,090,38,06,26,251,31,14,67,213,25,6*60
$GPGSV,2,2,05,17,58,327,39,6*51
$GPGSV,1,1,03,04,02,126,,21,15,059,,50,47,179,,0*57
$GLGSV,2,1,06,69,14,031,34,70,34,094,24,71,16,145,25,75,33,211,25,1*78
$GLGSV,2,2,06,76,45,288,45,85,47,027,48,1*7A
$GLGSV,2,1,05,69,14,031,25,71,16,145,21,75,33,211,10,76,45,288,40,3*76
$GLGSV,2,2,05,85,47,027,40,3*40
$GLGSV,1,1,04,77,13,332,,84,02,069,,86,46,311,,87,01,268,,0*71
$GAGSV,2,1,07,03,14,098,33,13,54,277,39,15,58,032,49,18,73,050,51,2*77
$GAGSV,2,2,07,21,43,303,45,27,58,210,22,30,15,164,18,2*42
$GAGSV,2,1,06,03,14,098,34,13,54,277,41,15,58,032,46,18,73,050,51,7*74
$GAGSV,2,2,06,21,43,303,44,27,58,210,30,7*79
$GAGSV,2,1,05,01,02,327,,05,06,049,,08,05,145,,26,06,251,,0*70
$GAGSV,2,2,05,26,06,251,,0*45
$GBGSV,3,1,09,04,35,132,41,07,80,254,42,08,46,224,21,10,70,291,42,1*77
$GBGSV,3,2,09,14,36,083,38,27,28,287,44,28,67,349,48,33,39,119,41,1*73
$GBGSV,3,3,09,37,35,243,43,1*4F
$GBGSV,2,1,05,04,35,132,43,07,80,254,43,08,46,224,31,10,70,291,41,3*79
$GBGSV,2,2,05,14,36,083,46,3*48
$GBGSV,1,1,04,01,43,152,,03,43,205,,13,36,225,,23,14,192,,0*7C
$GNRMC,031140.00,A,3726.9406055,N,12639.3711291,E,0.003,,210622,,,R,V*0C
$GNVTG,,T,,M,0.003,N,0.005,K,D*3E
$GNGNS,031140.00,3726.9406055,N,12639.3711291,E,RRRR,25,0.65,22.237,17.842,2.0,4095,V*01
$GNGGA,031140.00,3726.9406055,N,12639.3711291,E,4,12,0.65,22.237,M,17.842,M,2.0,4095*50
$GNGSA,A,3,03,17,01,06,14,19,,,,,,,1.20,0.65,1.01,1*0E
$GNGSA,A,3,71,75,76,69,85,,,,,,,,1.20,0.65,1.01,2*05
$GNGSA,A,3,03,13,30,21,15,27,,,,,,,1.20,0.65,1.01,3*03
$GNGSA,A,3,33,07,04,37,28,10,27,14,08,,,,1.20,0.65,1.01,4*00
$GPGSV,3,1,09,01,38,046,28,03,58,090,41,06,26,251,42,08,05,108,16,1*6E
$GPGSV,3,2,09,14,67,213,28,17,58,327,46,19,36,305,41,28,,,46,1*5B
$GPGSV,3,3,09,30,04,210,22,1*59
$GPGSV,2,1,05,01,38,046,26,03,58,090,38,06,26,251,31,14,67,213,25,6*60
$GPGSV,2,2,05,17,58,327,39,6*51
$GPGSV,1,1,03,04,02,126,,21,15,059,,50,47,179,,0*57
$GLGSV,2,1,06,69,14,031,35,70,34,094,24,71,16,145,24,75,33,211,25,1*78
$GLGSV,2,2,06,76,45,288,45,85,47,027,48,1*7A
$GLGSV,2,1,05,69,14,031,25,71,16,145,20,75,33,211,11,76,45,288,40,3*76
$GLGSV,2,2,05,85,47,027,40,3*40
$GLGSV,1,1,04,77,13,332,,84,02,069,,86,46,311,,87,01,268,,0*71
$GAGSV,2,1,07,03,14,098,33,13,54,277,39,15,58,032,49,18,73,050,51,2*77
$GAGSV,2,2,07,21,43,303,45,27,58,210,23,30,15,164,18,2*43
$GAGSV,2,1,06,03,14,098,35,13,54,277,41,15,58,032,46,18,73,050,50,7*74
$GAGSV,2,2,06,21,43,303,44,27,58,210,30,7*79
$GAGSV,2,1,05,01,02,327,,05,06,049,,08,05,145,,26,06,251,,0*70
$GAGSV,2,2,05,26,06,251,,0*45
$GBGSV,3,1,09,04,35,132,41,07,80,254,42,08,46,224,20,10,70,291,42,1*76
$GBGSV,3,2,09,14,36,083,38,27,28,287,44,28,67,349,48,33,39,119,41,1*73
$GBGSV,3,3,09,37,35,243,43,1*4F
$GBGSV,2,1,05,04,35,132,43,07,80,254,43,08,46,224,31,10,70,291,41,3*79
$GBGSV,2,2,05,14,36,083,46,3*48
$GBGSV,1,1,04,01,43,152,,03,43,205,,13,36,225,,23,14,192,,0*7C
$GNRMC,031141.00,A,3726.9406050,N,12639.3711298,E,0.010,,210622,,,R,V*03
$GNVTG,,T,,M,0.010,N,0.019,K,D*31
$GNGNS,031141.00,3726.9406050,N,12639.3711298,E,RRRR,26,0.62,22.231,17.842,2.0,4095,V*0E
$GNGSA,A,3,03,17,01,06,14,19,,,,,,,1.19,0.62,1.01,1*03
$GNGSA,A,3,71,75,76,69,85,,,,,,,,1.19,0.62,1.01,2*08
$GNGSA,A,3,03,13,30,21,15,27,,,,,,,1.19,0.62,1.01,3*0E
$GNGSA,A,3,33,07,04,37,28,10,27,14,08,,,,1.19,0.62,1.01,4*0D
$GPGSV,3,1,09,01,38,046,27,03,58,090,41,06,26,251,42,08,05,108,16,1*61
$GPGSV,3,2,09,14,67,213,28,17,58,327,46,19,36,305,41,28,,,46,1*5B
$GPGSV,3,3,09,30,04,210,22,1*59
$GPGSV,2,1,05,01,38,046,26,03,58,090,38,06,26,251,31,14,67,213,25,6*60
$GPGSV,2,2,05,17,58,327,39,6*51
$GPGSV,1,1,03,04,02,126,,21,15,059,,50,47,179,,0*57
$GLGSV,2,1,06,69,14,031,35,70,34,094,26,71,16,145,23,75,33,211,26,1*7E
$GLGSV,2,2,06,76,45,288,45,85,47,027,48,1*7A
$GLGSV,2,1,05,69,14,031,24,71,16,145,21,75,33,211,07,76,45,288,40,3*71
$GLGSV,2,2,05,85,47,027,40,3*40
$GLGSV,1,1,04,77,13,332,,84,02,069,,86,46,311,,87,01,268,,0*71
$GAGSV,2,1,07,03,14,098,33,13,54,277,39,15,58,032,49,18,73,050,51,2*77
$GAGSV,2,2,07,21,4$GAGSV,2,1,06,03,14,098,34,13,54,277,41,15,58,032,46,18,73,050,50,7*75
$GAGSV,2,2,06,21,43,303,44,27,58,210,30,7*79
$GAGSV,2,1,05,01,02,327,,05,06,049,,08,05,145,,26,06,251,,0*70
$GAGSV,2,2,05,26,06,251,,0*45
$GBGSV,3,1,09,04,35,132,41,07,80,254,42,08,46,224,20,10,70,291,42,1*76
$GBGSV,3,2,09,14,36,083,37,27,28,287,44,28,67,349,48,33,39,119,41,1*7C
$GBGSV,3,3,09,37,35,243,43,1*4F
$GBGSV,2,1,05,04,35,132,43,07,80,254,43,08,46,224,31,10,70,291,41,3*79
$GBGSV,2,2,05,14,36,083,45,3*4B
$GBGSV,1,1,04,01,43,152,,03,43,205,,13,36,225,,23,14,192,,0*7C
$GNRMC,031142.00,A,3726.9406039,N,12639.3711282,E,0.014,,210622,,,R,V*00
$GNVTG,,T,,M,0.014,N,0.027,K,D*38
$GNGNS,031142.00,3726.9406039,N,12639.3711282,E,RRRR,25,0.62,22.232,17.842,2.0,4095,V*09
$GNGGA,031142.00,3726.9406039,N,12639.3711282,E,4,12,0.62,22.232,M,17.842,M,2.0,4095*58
$GNGSA,A,3,03,17,01,06,14,19,,,,,,,1.19,0.62,1.01,1*03
$GNGSA,A,3,71,75,76,69,85,,,,,,,,1.19,0.62,1.01,2*08
$GNGSA,A,3,03,13,30,21,15,27,,,,,,,1.19,0.62,1.01,3*0E
$GNGSA,A,3,33,07,04,37,28,10,27,14,08,,,,1.19,0.62,1.01,4*0D
$GNRMC,031143.00,A,3726.9406028,N,12639.3711308,E,0.018,,210622,,,R,V*0E
$GNVTG,,T,,M,0.018,N,0.033,K,D*31
$GNGNS,031143.00,3726.9406028,N,12639.3711308,E,RRRR,25,0.62,22.230,17.842,1.0,4095,V*0A
$GNGGA,031143.00,3726.9406028,N,12639.3711308,E,4,12,0.62,22.230,M,17.842,M,1.0,4095*5B
$GNGSA,A,3,03,17,01,06,14,19,,,,,,,1.19,0.62,1.01,1*03
$GNGSA,A,3,71,75,76,69,85,,,,,,,,1.19,0.62,1.01,2*08
$GNGSA,A,3,03,13,30,21,15,27,,,,,,,1.19,0.62,1.01,3*0E
$GNGSA,A,3,33,07,04,37,28,10,27,14,08,,,,1.19,0.62,1.01,4*0D
$GPGSV,3,1,09,01,38,046,26,03,58,090,41,06,26,251,42,08,05,108,16,1*60
$GPGSV,3,2,09,14,67,213,30,17,58,327,46,19,36,306,41,28,,,46,1*51
$GPGSV,3,3,09,30,04,210,21,1*5A
$GPGSV,2,1,05,01,38,046,27,03,58,090,38,06,26,251,31,14,67,213,24,6*60
$GPGSV,2,2,05,17,58,327,39,6*51
$GPGSV,1,1,03,04,02,126,,21,15,059,,50,47,179,,0*57
$GLGSV,2,1,06,69,14,031,36,70,34,094,26,71,16,145,20,75,33,211,28,1*70
$GLGSV,2,2,06,76,45,288,46,85,47,027,48,1*79
$GLGSV,2,1,05,69,14,031,22,71,16,145,21,75,33,211,11,76,45,288,40,3*70
$GLGSV,2,2,05,85,47,027,40,3*40
$GLGSV,1,1,04,77,13,332,,84,02,070,,86,46,311,,87,01,268,,0*79
$GAGSV,2,1,07,03,14,098,33,13,54,277,39,15,58,032,49,18,73,050,51,2*77
$GAGSV,2,2,07,21,43,303,45,27,58,210,23,30,15,164,19,2*42
$GAGSV,2,1,06,03,14,098,34,13,54,277,41,15,58,032,46,18,73,050,50,7*75
$GAGSV,2,2,06,21,43,303,44,27,58,210,30,7*79
$GAGSV,2,1,05,01,02,327,,05,06,049,,08,05,145,,26,06,251,,0*70
$GAGSV,2,2,05,26,06,251,,0*45
$GBGSV,3,1,09,04,35,132,42,07,80,254,42,08,46,224,20,10,70,291,42,1*75
$GBGSV,3,2,09,14,36,083,37,27,28,287,44,28,67,349,48,33,39,119,41,1*7C
$GBGSV,3,3,09,37,35,243,44,1*48
$GBGSV,2,1,05,04,35,132,43,07,80,254,43,08,46,224,31,10,70,291,41,3*79
$GBGSV,2,2,05,14,36,083,45,3*4B
$GBGSV,1,1,04,01,43,152,,03,43,205,,13,36,225,,23,14,192,,0*7C
$GNRMC,031144.00,A,3726.9406071,N,12639.3711315,E,0.014,,210622,,,R,V*05
$GNVTG,,T,,M,0.014,N,0.025,K,D*3A
$GNGNS,031144.00,3726.9406071,N,12639.3711315,E,RRRR,26,0.62,22.230,17.842,2.0,4095,V*0D
$GNGGA,031144.00,3726.9406071,N,12639.3711315,E,4,12,0.62,22.230,M,17.842,M,2.0,4095*5F
$GNGSA,A,3,03,17,01,06,14,19,,,,,,,1.19,0.62,1.01,1*03
$GNGSA,A,3,71,75,76,69,85,,,,,,,,1.19,0.62,1.01,2*08
$GNGSA,A,3,03,13,30,21,15,27,,,,,,,1.19,0.62,1.01,3*0E
$GNGSA,A,3,33,07,04,37,28,10,27,14,08,,,,1.19,0.62,1.01,4*0D
$GPGSV,3,1,09,01,38,046,26,03,58,090,41,06,26,251,42,08,05,108,16,1*60
$GPGSV,3,2,09,14,67,213,30,17,58,327,46,19,36,306,41,28,,,46,1*51
$GPGSV,3,3,09,30,04,210,21,1*5A
$GPGSV,2,1,05,01,38,046,27,03,58,090,38,06,26,251,31,14,67,213,24,6*60
$GPGSV,2,2,05,17,58,327,39,6*51
$GPGSV,1,1,03,04,02,126,,21,15,059,,50,47,179,,0*57
$GLGSV,2,1,06,69,14,031,36,70,34,094,26,71,16,145,17,75,33,211,28,1*74
$GLGSV,2,2,06,76,45,288,46,85,46,029,48,1*76
$GLGSV,2,1,05,69,14,031,20,71,16,145,22,75,33,211,09,76,45,288,40,3*78
$GLGSV,2,2,05,85,46,029,40,3*4F
$GLGSV,1,1,04,77,13,332,,84,02,070,,86,46,311,,87,01,268,,0*79
$GAGSV,2,1,07,03,14,098,33,13,54,277,39,15,58,032,49,18,73,050,51,2*77
$GAGSV,2,2,07,21,43,303,45,27,58,210,23,30,15,164,19,2*42
$GAGSV,2,1,06,03,14,098,34,13,54,277,41,15,58,032,46,18,73,050,50,7*75
$GAGSV,2,2,06,21,43,303,44,27,58,210,30,7*79
$GAGSV,2,1,05,01,02,327,,05,06,049,,08,05,145,,26,06,251,,0*70
$GAGSV,2,2,05,26,06,251,,0*45
$GBGSV,3,1,09,04,35,132,41,07,80,254,42,08,46,224,21,10,70,291,42,1*77
$GBGSV,3,2,09,14,36,083,36,27,28,287,44,28,67,349,48,33,39,119,41,1*7D
$GBGSV,3,3,09,37,35,243,44,1*48
$GBGSV,2,1,05,04,35,132,43,07,80,254,43,08,46,224,31,10,70,291,41,3*79
$GBGSV,2,2,05,14,36,083,45,3*4B
$GBGSV,1,1,04,01,43,152,,03,43,205,,13,36,225,,23,14,192,,0*7C
$GNRMC,031145.00,A,3726.9406078,N,12639.3711304,E,0.013,,210622,,,R,V*0A
$GNVTG,,T,,M,0.013,N,0.023,K,D*3B
$GNGNS,031145.00,3726.9406078,N,12639.3711304,E,RRRR,25,0.62,22.225,17.842,2.0,4095,V*02
$GNGGA,031145.00,3726.9406078,N,12639.3711304,E,4,12,0.62,22.225,M,17.842,M,2.0,4095*53
$GNGSA,A,3,03,17,01,06,14,19,,,,,,,1.19,0.62,1.01,1*03
$GNGSA,A,3,71,75,76,69,85,,,,,,,,1.19,0.62,1.01,2*08
$GNGSA,A,3,03,13,30,21,15,27,,,,,,,1.19,0.62,1.01,3*0E
$GNGSA,A,3,33,07,04,37,28,10,27,14,08,,,,1.19,0.62,1.01,4*0D
$GPGSV,3,1,09,01,38,046,27,03,58,090,41,06,26,251,42,08,05,108,16,1*61
$GPGSV,3,2,09,14,67,213,30,17,58,327,46,19,36,306,42,28,,,46,1*52
$GPGSV,3,3,09,30,04,210,20,1*5B
$GPGSV,2,1,05,01,38,046,27,03,58,090,37,06,26,251,31,14,67,213,25,6*6E
$GPGSV,2,2,05,17,58,327,39,6*51
$GPGSV,1,1,03,04,02,126,,21,15,059,,50,47,179,,0*57
$GLGSV,2,1,06,69,14,031,36,70,34,094,26,71,16,145,16,75,33,211,28,1*75
$GLGSV,2,2,06,76,45,288,46,85,46,029,48,1*76
$GLGSV,2,1,05,69,14,031,18,71,16,145,22,75,33,211,09,76,45,288,40,3*73
$GLGSV,2,2,05,85,46,029,40,3*4F
$GLGSV,1,1,04,77,13,332,,84,02,070,,86,46,312,,87,01,268,,0*7A
$GAGSV,2,1,07,03,14,098,32,13,54,277,39,15,58,032,49,18,73,050,51,2*76
$GAGSV,2,2,07,21,43,303,45,27,58,210,23,30,15,164,18,2*43
$GAGSV,2,1,06,03,14,098,34,13,54,277,41,15,58,032,46,18,73,050,50,7*75
$GAGSV,2,2,06,21,43,303,44,27,58,210,30,7*79
$GAGSV,2,1,05,01,02,327,,05,06,049,,08,05,145,,26,06,251,,0*70
$GAGSV,2,2,05,26,06,251,,0*45
$GBGSV,3,1,09,04,35,132,41,07,80,254,42,08,46,224,20,10,70,291,42,1*76
$GBGSV,3,2,09,14,36,083,36,27,28,287,44,28,67,349,48,33,39,119,41,1*7D
$GBGSV,3,3,09,37,35,243,44,1*48
$GBGSV,2,1,05,04,35,132,43,07,80,254,43,08,46,224,31,10,70,291,41,3*79
$GBGSV,2,2,05,14,36,083,45,3*4B
$GBGSV,1,1,04,01,43,152,,03,43,205,,13,36,225,,23,14,192,,0*7C
$GNRMC,031146.00,A,3726.9406088,N,12639.3711323,E,0.012,,210622,,,R,V*02
$GNVTG,,T,,M,0.012,N,0.023,K,D*3A
$GNGNS,031146.00,3726.9406088,N,12639.3711323,E,RRRR,25,0.62,22.221,17.842,2.0,4095,V*0F
$GNGGA,031146.00,3726.9406088,N,12639.3711323,E,4,12,0.62,22.221,M,17.842,M,2.0,4095*5E
$GNGSA,A,3,03,17,01,06,14,19,,,,,,,1.19,0.62,1.01,1*03
$GNGSA,A,3,71,75,76,69,85,,,,,,,,1.19,0.62,1.01,2*08
$GNGSA,A,3,03,13,30,21,15,27,,,,,,,1.19,0.62,1.01,3*0E
$GNGSA,A,3,33,07,04,37,28,10,27,14,08,,,,1.19,0.62,1.01,4*0D
$GPGSV,3,1,09,01,38,046,26,03,58,090,41,06,26,251,42,08,05,108,16,1*60
$GPGSV,3,2,09,14,67,213,30,17,58,327,46,19,36,306,41,28,,,46,1*51
$GPGSV,3,3,09,30,04,210,19,1*51
$GPGSV,2,1,05,01,38,046,27,03,58,090,37,06,26,251,31,14,67,213,25,6*6E
$GPGSV,2,2,05,17,58,327,39,6*51
$GPGSV,1,1,03,04,02,126,,21,15,059,,50,47,179,,0*57
$GLGSV,2,1,06,69,14,031,36,70,34,094,27,71,16,145,17,75,33,211,29,1*74
$GLGSV,2,2,06,76,45,288,46,85,46,029,47,1*79
$GLGSV,2,1,05,69,14,031,19,71,16,145,22,75,33,211,11,76,45,288,40,3*7B
$GLGSV,2,2,05,85,46,029,40,3*4F
$GLGSV,1,1,04,77,13,332,,84,02,070,,86,46,312,,87,01,269,,0*7B
$GAGSV,2,1,07,03,14,098,33,13,54,277,39,15,58,032,49,18,73,050,51,2*77
$GAGSV,2,2,07,21,43,303,45,27,58,210,24,30,15,164,19,2*45
$GAGSV,2,1,06,03,14,098,33,13,54,277,41,15,58,032,46,18,73,050,50,7*72
$GAGSV,2,2,06,21,43,303,44,27,58,210,29,7*71
$GAGSV,2,1,05,01,02,327,,05,06,049,,08,05,145,,26,06,251,,0*70
$GAGSV,2,2,05,26,06,251,,0*45
$GBGSV,3,1,09,04,35,132,41,07,80,254,42,08,46,224,20,10,70,291,42,1*76
$GBGSV,3,2,09,14,36,083,36,27,28,287,44,28,67,349,48,33,39,119,41,1*7D
$GBGSV,3,3,09,37,35,243,44,1*48
$GBGSV,2,1,05,04,35,132,43,07,80,254,43,08,46,224,31,10,70,291,41,3*79
$GBGSV,2,2,05,14,36,083,45,3*4B
$GBGSV,1,1,04,01,43,152,,03,43,205,,13,36,225,,23,14,192,,0*7C
$GNRMC,031147.00,A,3726.9406079,N,12639.3711326,E,0.021,,210622,,,R,V*08
$GNVTG,,T,,M,0.021,N,0.040,K,D*3F
$GNGNS,031147.00,3726.9406079,N,12639.3711326,E,RRRR,26,0.62,22.231,17.842,2.0,4095,V*07
$GNGGA,031147.00,3726.9406079,N,12639.3711326,E,4,12,0.62,22.231,M,17.842,M,2.0,4095*55
$GNGSA,A,3,03,17,01,06,14,19,,,,,,,1.19,0.62,1.01,1*03
$GNGSA,A,3,71,75,76,69,85,,,,,,,,1.19,0.62,1.01,2*08
$GNGSA,A,3,03,13,30,21,15,27,,,,,,,1.19,0.62,1.01,3*0E
$GNGSA,A,3,33,07,04,37,28,10,27,14,08,,,,1.19,0.62,1.01,4*0D
$GPGSV,3,1,09,01,38,046,25,03,58,090,40,06,26,251,42,08,05,108,16,1*62
$GPGSV,3,2,09,14,67,213,30,17,58,327,46,19,36,306,42,28,,,46,1*52
$GPGSV,3,3,09,30,04,210,19,1*51
$GPGSV,2,1,05,01,38,046,27,03,58,090,37,06,26,251,31,14,67,213,25,6*6E
$GPGSV,2,2,05,17,58,327,39,6*51
$GPGSV,1,1,03,04,02,126,,21,15,059,,50,47,179,,0*57
$GLGSV,2,1,06,69,14,031,35,70,34,094,26,71,16,145,17,75,33,211,29,1*76
$GLGSV,2,2,06,76,45,288,45,85,46,029,47,1*7A
$GLGSV,2,1,05,69,14,031,19,71,16,145,22,75,33,211,08,76,45,288,40,3*73
$GLGSV,2,2,05,85,46,029,39,3*41
$GLGSV,1,1,04,77,13,332,,84,02,070,,86,46,312,,87,01,269,,0*7B
$GAGSV,2,1,07,03,14,098,34,13,54,277,39,15,58,032,49,18,73,050,51,2*70
$GAGSV,2,2,07,21,43,303,45,27,58,210,24,30,15,164,19,2*45
$GAGSV,2,1,06,03,14,098,34,13,54,277,41,15,58,032,46,18,73,050,50,7*75
$GAGSV,2,2,06,21,43,303,44,27,58,210,29,7*71
$GAGSV,2,1,05,01,02,327,,05,06,049,,08,05,145,,26,06,251,,0*70
$GAGSV,2,2,05,26,06,251,,0*45
$GBGSV,3,1,09,04,35,132,41,07,80,254,42,08,46,224,21,10,70,291,42,1*77
$GBGSV,3,2,09,14,36,083,36,27,28,287,44,28,67,349,48,33,39,119,40,1*7C
$GBGSV,3,3,09,37,35,243,43,1*4F
$GBGSV,2,1,05,04,35,132,43,07,80,254,43,08,46,224,31,10,70,291,41,3*79
$GBGSV,2,2,05,14,36,083,45,3*4B
$GBGSV,1,1,04,01,43,152,,03,43,205,,13,36,225,,23,14,192,,0*7C
$GNRMC,031148.00,A,3726.9406051,N,12639.3711315,E,0.012,,210622,,,R,V*0D
$GNVTG,,T,,M,0.012,N,0.022,K,D*3B
$GNGNS,031148.00,3726.9406051,N,12639.3711315,E,RRRR,25,0.62,22.240,17.842,2.0,4095,V*07
$GNGGA,031148.00,3726.9406051,N,12639.3711315,E,4,12,0.62,22.240,M,17.842,M,2.0,4095*56
$GNGSA,A,3,03,17,01,06,14,19,,,,,,,1.19,0.62,1.01,1*03
$GNGSA,A,3,71,75,76,69,85,,,,,,,,1.19,0.62,1.01,2*08
$GNGSA,A,3,03,13,30,21,15,27,,,,,,,1.19,0.62,1.01,3*0E
$GNGSA,A,3,33,07,04,37,28,10,27,14,08,,,,1.19,0.62,1.01,4*0D
$GPGSV,3,1,09,01,38,046,25,03,58,090,40,06,26,251,42,08,05,108,16,1*62
$GPGSV,3,2,09,14,67,213,30,17,58,327,46,19,36,306,42,28,,,46,1*52
$GPGSV,3,3,09,30,04,210,18,1*50
$GPGSV,2,1,05,01,38,046,27,03,58,090,37,06,26,251,30,14,67,213,25,6*6F
$GPGSV,2,2,05,17,58,327,39,6*51
$GPGSV,1,1,03,04,02,126,,21,15,059,,50,47,179,,0*57
$GLGSV,2,1,06,69,14,031,34,70,34,094,26,71,16,145,17,75,33,211,28,1*76
$GLGSV,2,2,06,76,45,288,45,85,46,029,47,1*7A
$GLGSV,2,1,05,69,14,031,19,71,16,145,22,75,33,211,11,76,45,288,39,3*75
$GLGSV,2,2,05,85,46,029,39,3*41
$GLGSV,1,1,04,77,13,332,,84,02,070,,86,46,312,,87,01,269,,0*7B
$GAGSV,2,1,07,03,14,098,34,13,54,277,39,15,58,032,49,18,73,050,51,2*70
$GAGSV,2,2,07,21,43,303,45,27,58,210,23,30,15,164,19,2*42
$GAGSV,2,1,06,03,14,098,34,13,54,277,40,15,58,032,46,18,73,050,50,7*74
$GAGSV,2,2,06,21,43,303,44,27,58,210,29,7*71
$GAGSV,2,1,05,01,02,327,,05,06,049,,08,05,145,,26,06,251,,0*70
$GAGSV,2,2,05,26,06,251,,0*45
$GBGSV,3,1,09,04,35,132,41,07,80,254,42,08,46,224,21,10,70,291,42,1*77
$GBGSV,3,2,09,14,36,083,37,27,28,287,43,28,67,349,48,33,39,119,40,1*7A
$GBGSV,3,3,09,37,35,243,43,1*4F
$GNRMC,031149.00,A,3726.9406065,N,12639.3711319,E,0.011,,210622,,,R,V*04
$GNVTG,,T,,M,0.011,N,0.021,K,D*3B
$GNGNS,031149.00,3726.9406065,N,12639.3711319,E,RRRR,25,0.62,22.227,17.842,2.0,4095,V*0C
$GNGGA,031149.00,3726.9406065,N,12639.3711319,E,4,12,0.62,22.227,M,17.842,M,2.0,4095*5D
$GNGSA,A,3,03,17,01,06,14,19,,,,,,,1.19,0.62,1.01,1*03
$GNGSA,A,3,71,75,76,69,85,,,,,,,,1.19,0.62,1.01,2*08
$GNGSA,A,3,03,13,30,21,15,27,,,,,,,1.19,0.62,1.01,3*0E
$GNGSA,A,3,33,07,04,37,28,10,27,14,08,,,,1.19,0.62,1.01,4*0D
$GPGSV,3,1,09,01,37,047,25,03,58,090,40,06,26,251,42,08,05,108,16,1*6C
$GPGSV,3,2,09,14,67,213,31,17,58,327,46,19,36,306,42,28,,,46,1*53
$GPGSV,3,3,09,30,04,210,17,1*5F
$GPGSV,2,1,05,01,37,047,27,03,58,090,37,06,26,251,30,14,67,213,24,6*60
$GPGSV,2,2,05,17,58,327,39,6*51
$GPGSV,1,1,03,04,02,126,,21,15,059,,50,47,179,,0*57
$GLGSV,2,1,06,69,14,031,34,70,34,094,26,71,16,145,16,75,33,211,27,1*78
$GLGSV,2,2,06,76,45,288,45,85,46,029,47,1*7A
$GLGSV,2,1,05,69,14,031,20,71,16,145,22,75,33,211,12,76,45,288,39,3*7C
$GLGSV,2,2,05,85,46,029,38,3*40
$GLGSV,1,1,04,77,13,332,,84,02,070,,86,46,312,,87,01,269,,0*7B
$GAGSV,2,1,07,03,14,098,34,13,54,277,39,15,58,032,49,18,73,050,51,2*70
$GAGSV,2,2,07,21,43,303,45,27,58,210,23,30,15,164,20,2*48
$GAGSV,2,1,06,03,14,098,34,13,54,277,41,15,58,032,47,18,73,050,50,7*74
$GAGSV,2,2,06,21,43,303,44,27,58,210,29,7*71
$GAGSV,2,1,05,01,02,327,,05,06,049,,08,05,145,,26,06,251,,0*70
$GAGSV,2,2,05,26,06,251,,0*45
$GBGSV,3,1,09,04,35,132,41,07,80,254,42,08,46,224,22,10,70,291,42,1*74
$GBGSV,3,2,09,14,36,083,36,27,28,287,44,28,67,349,48,33,39,119,40,1*7C
$GBGSV,3,3,09,37,35,243,43,1*4F
$GBGSV,2,1,05,04,35,132,43,07,80,254,43,08,46,224,31,10,70,291,41,3*79
$GBGSV,2,2,05,14,36,083,45,3*4B
$GBGSV,1,1,04,01,43,152,,03,43,205,,13,36,225,,23,14,192,,0*7C
$GNRMC,031150.00,A,3726.9406049,N,12639.3711339,E,0.012,,210622,,,R,V*03
$GNVTG,,T,,M,0.012,N,0.022,K,D*3B
$GNGNS,031150.00,3726.9406049,N,12639.3711339,E,RRRR,26,0.62,22.228,17.842,2.0,4095,V*04
$GNGGA,031150.00,3726.9406049,N,12639.3711339,E,4,12,0.62,22.228,M,17.842,M,2.0,4095*56
$GNGSA,A,3,03,17,01,06,14,19,,,,,,,1.19,0.62,1.01,1*03
$GNGSA,A,3,71,75,76,69,85,,,,,,,,1.19,0.62,1.01,2*08
$GNGSA,A,3,03,13,30,21,15,27,,,,,,,1.19,0.62,1.01,3*0E
$GNGSA,A,3,33,07,04,37,28,10,27,14,08,,,,1.19,0.62,1.01,4*0D
$GPGSV,3,1,09,01,37,047,25,03,58,090,40,06,26,251,42,08,05,108,17,1*6D
$GPGSV,3,2,09,14,67,213,30,17,58,327,46,19,36,306,42,28,,,47,1*53
$GPGSV,3,3,09,30,04,210,16,1*5E
$GPGSV,2,1,05,01,37,047,28,03,58,090,37,06,26,251,29,14,67,213,24,6*67
$GPGSV,2,2,05,17,58,327,39,6*51
$GPGSV,1,1,03,04,02,126,,21,15,059,,50,47,179,,0*57
$GLGSV,2,1,06,69,14,031,33,70,34,094,26,71,16,145,18,75,33,211,27,1*71
$GLGSV,2,2,06,76,45,288,45,85,46,029,47,1*7A
$GLGSV,2,1,05,69,14,031,20,71,16,145,22,75,33,211,13,76,45,288,39,3*7D
$GLGSV,2,2,05,85,46,029,38,3*40
$GLGSV,1,1,04,77,13,332,,84,02,070,,86,46,312,,87,01,269,,0*7B
$GAGSV,2,1,07,03,14,098,35,13,54,277,39,15,58,032,49,18,73,050,51,2*71
$GAGSV,2,2,07,21,43,303,45,27,58,210,23,30,15,164,20,2*48
$GAGSV,2,1,06,03,14,098,35,13,54,277,41,15,58,032,47,18,73,050,50,7*75
$GAGSV,2,2,06,21,43,303,44,27,58,210,29,7*71
$GAGSV,2,1,05,01,02,327,,05,06,049,,08,05,145,,26,06,251,,0*70
$GAGSV,2,2,05,26,06,251,,0*45
$GBGSV,3,1,09,04,35,132,42,07,80,254,42,08,46,224,22,10,70,291,42,1*77
$GBGSV,3,2,09,14,36,083,36,27,28,287,44,28,67,349,48,33,39,119,40,1*7C
$GBGSV,3,3,09,37,35,243,43,1*4F
$GBGSV,2,1,05,04,35,132,43,07,80,254,43,08,46,224,31,10,70,291,41,3*79
$GBGSV,2,2,05,14,36,083,45,3*4B
$GBGSV,1,1,04,01,43,152,,03,43,205,,13,36,225,,23,14,192,,0*7C
$GNRMC,031151.00,A,3726.9406034,N,12639.3711326,E,0.013,,210622,,,R,V*07
$GNVTG,,T,,M,0.013,N,0.025,K,D*3D
$GNGNS,031151.00,3726.9406034,N,12639.3711326,E,RRRR,25,0.62,22.230,17.842,2.0,4095,V*0B
$GNGGA,031151.00,3726.9406034,N,12639.3711326,E,4,12,0.62,22.230,M,17.842,M,2.0,4095*5A
$GNGSA,A,3,03,17,01,06,14,19,,,,,,,1.19,0.62,1.01,1*03
$GNGSA,A,3,71,75,76,69,85,,,,,,,,1.19,0.62,1.01,2*08
$GNGSA,A,3,03,13,30,21,15,27,,,,,,,1.19,0.62,1.01,3*0E
$GNGSA,A,3,33,07,04,37,28,10,27,14,08,,,,1.19,0.62,1.01,4*0D
$GPGSV,3,1,09,01,37,047,25,03,58,090,40,06,26,251,41,08,05,108,17,1*6E
$GPGSV,3,2,09,14,67,213,30,17,58,327,46,19,36,306,43,28,,,47,1*52
$GPGSV,3,3,09,30,04,210,16,1*5E
$GPGSV,2,1,05,01,37,047,28,03,58,090,37,06,26,251,29,14,67,213,24,6*67
$GPGSV,2,2,05,17,58,327,39,6*51
$GPGSV,1,1,03,04,02,126,,21,15,059,,50,47,179,,0*57
$GLGSV,2,1,06,69,14,031,33,70,34,094,26,71,16,145,20,75,33,211,26,1*7B
$GLGSV,2,2,06,76,45,288,43,85,46,029,47,1*7C
$GLGSV,2,1,05,69,14,031,21,71,16,145,25,75,33,211,10,76,45,288,39,3*78
$GLGSV,2,2,05,85,46,029,38,3*40
$GLGSV,1,1,04,77,13,332,,84,02,070,,86,46,312,,87,01,269,,0*7B
$GAGSV,2,1,07,03,14,098,35,13,54,277,39,15,58,032,49,18,73,050,50,2*70
$GAGSV,2,2,07,21,43,303,45,27,58,210,24,30,15,164,20,2*4F
$GAGSV,2,1,06,03,14,098,34,13,54,277,41,15,58,032,47,18,73,050,50,7*74
$GAGSV,2,2,06,21,43,303,44,27,58,210,29,7*71
$GAGSV,2,1,05,01,02,327,,05,06,049,,08,05,145,,26,06,251,,0*70
$GAGSV,2,2,05,26,06,251,,0*45
$GBGSV,3,1,09,04,35,132,41,07,80,254,42,08,46,224,22,10,70,291,42,1*74
$GBGSV,3,2,09,14,36,083,37,27,28,287,43,28,67,349,48,33,39,119,40,1*7A
$GBGSV,3,3,09,37,35,243,43,1*4F
$GBGSV,2,1,05,04,35,132,43,07,80,254,43,08,46,224,31,10,70,291,41,3*79
$GBGSV,2,2,05,14,36,083,45,3*4B
$GBGSV,1,1,04,01,43,152,,03,43,205,,13,36,225,,23,14,192,,0*7C
$GNRMC,031152.00,A,3726.9406011,N,12639.3711334,E,0.006,,210622,,,R,V*04
$GNVTG,,T,,M,0.006,N,0.011,K,D*3E
$GNGNS,031152.00,3726.9406011,N,12639.3711334,E,RRRR,25,0.62,22.229,17.842,2.0,4095,V*04
$GNGGA,031152.00,3726.9406011,N,12639.3711334,E,4,12,0.62,22.229,M,17.842,M,2.0,4095*55
$GNGSA,A,3,03,17,01,06,14,19,,,,,,,1.19,0.62,1.01,1*03
$GNGSA,A,3,71,75,76,69,85,,,,,,,,1.19,0.62,1.01,2*08
$GNGSA,A,3,03,13,30,21,15,27,,,,,,,1.19,0.62,1.01,3*0E
$GNGSA,A,3,33,07,04,37,28,10,27,14,08,,,,1.19,0.62,1.01,4*0D
$GPGSV,3,1,09,01,37,047,26,03,58,090,40,06,26,251,41,08,05,108,18,1*62
$GPGSV,3,2,09,14,67,213,30,17,58,327,46,19,36,306,43,28,,,47,1*52
$GPGSV,3,3,09,30,04,210,17,1*5F
$GPGSV,2,1,05,01,37,047,27,03,58,090,37,06,26,251,29,14,67,213,25,6*69
$GPGSV,2,2,05,17,58,327,39,6*51
$GPGSV,1,1,03,04,02,125,,21,15,059,,50,47,179,,0*54
$GLGSV,2,1,06,69,14,031,32,70,34,094,27,71,16,145,22,75,33,211,26,1*79
$GLGSV,2,2,06,76,45,288,44,85,46,029,47,1*7B
$GLGSV,2,1,05,69,14,031,23,71,16,145,25,75,33,211,13,76,45,288,39,3*79
$GLGSV,2,2,05,85,46,029,38,3*40
$GLGSV,1,1,04,77,13,332,,84,02,070,,86,46,312,,87,01,269,,0*7B
$GAGSV,2,1,07,03,14,098,35,13,54,277,39,15,58,032,49,18,73,050,50,2*70
$GAGSV,2,2,07,21,43,303,45,27,58,210,24,30,15,164,20,2*4F
$GAGSV,2,1,06,03,14,098,34,13,54,277,41,15,58,032,47,18,73,050,50,7*74
$GAGSV,2,2,06,21,43,303,44,27,58,210,29,7*71
$GAGSV,2,1,05,01,02,327,,05,06,049,,08,05,145,,26,06,251,,0*70
$GAGSV,2,2,05,26,06,251,,0*45
$GBGSV,3,1,09,04,35,132,41,07,80,254,42,08,46,224,22,10,70,291,42,1*74
$GBGSV,3,2,09,14,36,083,37,27,28,287,43,28,67,349,48,33,39,119,40,1*7A
$GBGSV,3,3,09,37,35,243,43,1*4F
$GBGSV,2,1,05,04,35,132,43,07,80,254,43,08,46,224,31,10,70,291,41,3*79
$GBGSV,2,2,05,14,36,083,45,3*4B
$GBGSV,1,1,04,01,43,152,,03,43,205,,13,36,225,,23,14,192,,0*7C
$GNRMC,031153.00,A,3726.9406019,N,12639.3711312,E,0.006,,210622,,,R,V*09
$GNVTG,,T,,M,0.006,N,0.010,K,D*3F
$GNGNS,031153.00,3726.9406019,N,12639.3711312,E,RRRR,26,0.62,22.229,17.842,1.0,4095,V*09
$GNGGA,031153.00,3726.9406019,N,12639.3711312,E,4,12,0.62,22.229,M,17.842,M,1.0,4095*5B
$GNGSA,A,3,03,17,01,06,14,19,,,,,,,1.19,0.62,1.01,1*03
$GNGSA,A,3,71,75,76,69,85,,,,,,,,1.19,0.62,1.01,2*08
$GNGSA,A,3,03,13,30,21,15,27,,,,,,,1.19,0.62,1.01,3*0E
$GNGSA,A,3,33,07,04,37,28,10,27,14,08,,,,1.19,0.62,1.01,4*0D
$GPGSV,3,1,09,01,37,047,27,03,58,090,40,06,26,251,42,08,05,108,18,1*60
$GPGSV,3,2,09,14,67,213,30,17,58,327,46,19,36,306,43,28,,,47,1*52
$GPGSV,3,3,09,30,04,210,17,1*5F
$GPGSV,2,1,05,01,37,047,28,03,58,090,37,06,26,251,28,14,67,213,25,6*67
$GPGSV,2,2,05,17,58,327,39,6*51
$GPGSV,1,1,03,04,02,125,,21,15,059,,50,47,179,,0*54
$GLGSV,2,1,06,69,14,031,31,70,34,094,28,71,16,145,23,75,33,211,26,1*74
$GLGSV,2,2,06,76,45,288,44,85,46,029,47,1*7B
$GLGSV,2,1,05,69,14,031,24,71,16,145,26,75,33,211,14,76,45,288,39,3*7A
$GLGSV,2,2,05,85,46,029,38,3*40
$GLGSV,1,1,04,77,13,332,,84,02,070,,86,46,312,,87,01,269,,0*7B
$GAGSV,2,1,07,03,14,098,35,13,54,277,39,15,58,032,49,18,73,050,50,2*70
$GAGSV,2,2,07,21,43,303,45,27,58,210,24,30,15,164,20,2*4F
$GAGSV,2,1,06,03,14,098,34,13,54,277,41,15,58,032,47,18,73,050,50,7*74
$GAGSV,2,2,06,21,43,303,44,27,58,210,29,7*71
$GAGSV,2,1,05,01,02,327,,05,06,049,,08,05,145,,26,06,251,,0*70
$GAGSV,2,2,05,26,06,251,,0*45
$GBGSV,3,1,09,04,35,132,42,07,80,254,42,08,46,224,22,10,70,291,42,1*77
$GBGSV,3,2,09,14,36,083,37,27,28,287,43,28,67,349,48,33,39,119,40,1*7A
$GBGSV,3,3,09,37,35,243,43,1*4F
$GBGSV,2,1,05,04,35,132,43,07,80,254,43,08,46,224,31,10,70,291,41,3*79
$GBGSV,2,2,05,14,36,083,45,3*4B
$GBGSV,1,1,04,01,43,152,,03,43,205,,13,36,225,,23,14,192,,0*7C
$GNRMC,031154.00,A,3726.9406005,N,12639.3711309,E,0.002,,210622,,,R,V*0D
$GNVTG,,T,,M,0.002,N,0.003,K,D*39
$GNGNS,031154.00,3726.9406005,N,12639.3711309,E,RRRR,25,0.62,22.235,17.842,2.0,4095,V*04
$GNGGA,031154.00,3726.9406005,N,12639.3711309,E,4,12,0.62,22.235,M,17.842,M,2.0,4095*55
$GNGSA,A,3,03,17,01,06,14,19,,,,,,,1.19,0.62,1.01,1*03
$GNGSA,A,3,71,75,76,69,85,,,,,,,,1.19,0.62,1.01,2*08
$GNGSA,A,3,03,13,30,21,15,27,,,,,,,1.19,0.62,1.01,3*0E
$GNGSA,A,3,33,07,04,37,28,10,27,14,08,,,,1.19,0.62,1.01,4*0D
$GPGSV,3,1,09,01,37,047,27,03,58,090,41,06,27,252,42,08,05,108,18,1*63
$GPGSV,3,2,09,14,67,213,29,17,58,327,46,19,36,306,43,28,,,47,1*5A
$GPGSV,3,3,09,30,04,210,17,1*5F
$GPGSV,2,1,05,01,37,047,28,03,58,090,37,06,27,252,28,14,67,213,25,6*65
$GPGSV,2,2,05,17,58,327,39,6*51
$GPGSV,1,1,03,04,02,125,,21,15,059,,50,47,179,,0*54
$GLGSV,2,1,06,69,14,031,31,70,34,094,27,71,16,145,24,75,33,211,25,1*7F
$GLGSV,2,2,06,76,45,288,43,85,46,029,47,1*7C
$GLGSV,2,1,05,69,14,031,25,71,16,145,26,75,33,211,10,76,45,288,39,3*7F
$GLGSV,2,2,05,85,46,029,38,3*40
$GBGSV,3,3,09,37,35,243,43,1*4F
$GBGSV,2,1,05,04,35,132,43,07,80,254,43,08,46,224,30,10,70,291,41,3*78
$GBGSV,2,2,05,14,36,083,45,3*4B
$GBGSV,1,1,04,01,43,152,,03,43,205,,13,36,225,,23,14,192,,0*7C
$GNRMC,031155.00,A,3726.9406033,N,12639.3711322,E,0.011,,210622,,,R,V*02
$GNVTG,,T,,M,0.011,N,0.021,K,D*3B
$GNGNS,031155.00,3726.9406033,N,12639.3711322,E,RRRR,25,0.62,22.232,17.842,2.0,4095,V*0E
$GNGGA,031155.00,3726.9406033,N,12639.3711322,E,4,12,0.62,22.232,M,17.842,M,2.0,4095*5F
$GNGSA,A,3,03,17,01,06,14,19,,,,,,,1.19,0.62,1.01,1*03
$GNGSA,A,3,71,75,76,69,85,,,,,,,,1.19,0.62,1.01,2*08
$GNGSA,A,3,03,13,30,21,15,27,,,,,,,1.19,0.62,1.01,3*0E
$GNGSA,A,3,33,07,04,37,28,10,27,14,08,,,,1.19,0.62,1.01,4*0D
$GPGSV,2,1,08,01,37,047,26,03,58,090,41,06,27,252,42,08,05,108,17,1*6D
$GPGSV,2,2,08,14,67,213,28,17,58,327,46,19,36,306,43,28,,,47,1*5B
$GPGSV,2,1,05,01,37,047,28,03,58,090,37,06,27,252,28,14,67,213,25,6*65
$GPGSV,2,2,05,17,58,327,39,6*51
$GPGSV,1,1,04,04,02,125,,21,15,059,,30,04,210,,50,47,179,,0*67
$GLGSV,2,1,06,69,14,031,32,70,34,094,27,71,16,145,24,75,33,211,22,1*7B
$GLGSV,2,2,06,76,45,288,43,85,46,029,47,1*7C
$GLGSV,2,1,05,69,14,031,26,71,16,145,26,75,33,211,16,76,45,288,39,3*7A
$GLGSV,2,2,05,85,46,029,38,3*40
$GLGSV,1,1,04,77,13,332,,84,02,070,,86,46,312,,87,01,269,,0*7B
$GAGSV,2,1,07,03,14,098,34,13,54,277,39,15,58,032,49,18,73,050,50,2*71
$GAGSV,2,2,07,21,43,303,45,27,58,210,24,30,15,164,20,2*4F
$GAGSV,2,1,06,03,14,098,34,13,54,277,41,15,58,032,47,18,73,050,50,7*74
$GAGSV,2,2,06,21,43,303,44,27,58,210,28,7*70
$GAGSV,2,1,05,01,02,327,,05,06,049,,08,05,145,,26,06,251,,0*70
$GAGSV,2,2,05,26,06,251,,0*45
$GBGSV,3,1,09,04,35,132,41,07,80,254,42,08,46,224,22,10,70,291,42,1*74
$GBGSV,3,2,09,14,36,083,36,27,28,287,44,28,67,349,48,33,39,119,40,1*7C
$GBGSV,3,3,09,37,35,243,43,1*4F
$GBGSV,2,1,05,04,35,132,43,07,80,254,43,08,46,224,31,10,70,291,41,3*79
$GBGSV,2,2,05,14,36,083,45,3*4B
$GNRMC,031156.00,A,3726.9405983,N,12639.3711381,E,0.004,,210622,,,R,V*0D
$GNVTG,,T,,M,0.004,N,0.008,K,D*34
$GNGNS,031156.00,3726.9405983,N,12639.3711381,E,RRRR,26,0.62,22.222,17.842,2.0,4095,V*07
$GNGGA,031156.00,3726.9405983,N,12639.3711381,E,4,12,0.62,22.222,M,17.842,M,2.0,4095*55
$GNGSA,A,3,03,17,01,06,14,19,,,,,,,1.19,0.62,1.01,1*03
$GNGSA,A,3,71,75,76,69,85,,,,,,,,1.19,0.62,1.01,2*08
$GNGSA,A,3,03,13,30,21,15,27,,,,,,,1.19,0.62,1.01,3*0E
$GNGSA,A,3,33,07,04,37,28,10,27,14,08,,,,1.19,0.62,1.01,4*0D
$GPGSV,2,1,08,01,37,047,26,03,58,090,41,06,27,252,42,08,05,108,16,1*6C
$GPGSV,2,2,08,14,67,213,29,17,58,327,46,19,36,306,45,28,,,47,1*5C
$GPGSV,2,1,05,01,37,047,28,03,58,090,37,06,27,252,28,14,67,213,24,6*64
$GPGSV,2,2,05,17,58,327,39,6*51
$GPGSV,1,1,04,04,02,125,,21,15,059,,30,04,210,,50,47,179,,0*67
$GLGSV,2,1,06,69,14,031,31,70,34,094,26,71,16,145,25,75,33,211,23,1*79
$GLGSV,2,2,06,76,45,288,39,85,46,029,44,1*72
$GLGSV,2,1,05,69,14,031,26,71,16,145,26,75,33,211,14,76,45,288,39,3*78
$GLGSV,2,2,05,85,46,029,37,3*4F
$GLGSV,1,1,04,77,13,332,,84,02,070,,86,46,312,,87,01,269,,0*7B
$GAGSV,2,1,07,03,14,098,34,13,54,277,39,15,58,032,49,18,73,050,51,2*70
$GAGSV,2,2,07,21,43,303,45,27,58,210,24,30,15,164,21,2*4E
$GAGSV,2,1,06,03,14,098,33,13,54,277,41,15,58,032,47,18,73,050,50,7*73
$GAGSV,2,2,06,21,43,303,44,27,58,210,28,7*70
$GAGSV,2,1,05,01,02,327,,05,06,049,,08,05,145,,26,06,251,,0*70
$GAGSV,2,2,05,26,06,251,,0*45
$GBGSV,3,1,09,04,35,132,41,07,80,254,42,08,46,224,23,10,70,291,42,1*75
$GBGSV,3,2,09,14,36,083,37,27,28,287,41,28,67,349,48,33,39,119,40,1*78
$GBGSV,3,3,09,37,35,243,43,1*4F
$GBGSV,2,1,05,04,35,132,43,07,80,254,43,08,46,224,31,10,70,291,41,3*79
$GBGSV,2,2,05,14,36,083,45,3*4B
$GNRMC,031157.00,A,3726.9405977,N,12639.3711369,E,0.002,,210622,,,R,V*07
$GNVTG,,T,,M,0.002,N,0.004,K,D*3E
$GNGNS,031157.00,3726.9405977,N,12639.3711369,E,RRRR,25,0.62,22.224,17.842,2.0,4095,V*0E
$GNGGA,031157.00,3726.9405977,N,12639.3711369,E,4,12,0.62,22.224,M,17.842,M,2.0,4095*5F
$GNGSA,A,3,03,17,01,06,14,19,,,,,,,1.19,0.62,1.01,1*03
$GNGSA,A,3,71,75,76,69,85,,,,,,,,1.19,0.62,1.01,2*08
$GNGSA,A,3,03,13,30,21,15,27,,,,,,,1.19,0.62,1.01,3*0E
$GNGSA,A,3,33,07,04,37,28,10,27,14,08,,,,1.19,0.62,1.01,4*0D
$GPGSV,2,1,08,01,37,047,26,03,58,090,41,06,27,252,42,08,05,108,16,1*6C
$GPGSV,2,2,08,14,67,213,29,17,58,327,46,19,36,306,44,28,,,47,1*5D
$GPGSV,2,1,05,01,37,047,28,03,58,090,37,06,27,252,27,14,67,213,24,6*6B
$GPGSV,2,2,05,17,58,327,39,6*51
$GPGSV,1,1,04,04,02,125,,21,15,059,,30,04,210,,50,47,179,,0*67
$GLGSV,2,1,06,69,14,031,30,70,34,094,26,71,16,145,25,75,33,211,23,1*78
$GLGSV,2,2,06,76,45,288,39,85,46,029,45,1*73
$GLGSV,2,1,05,69,14,031,27,71,16,145,26,75,33,211,10,76,45,288,39,3*7D
$GLGSV,2,2,05,85,46,029,37,3*4F
$GLGSV,1,1,04,77,13,332,,84,02,070,,86,46,312,,87,01,269,,0*7B
$GAGSV,2,1,07,03,14,098,34,13,54,277,39,15,58,032,49,18,73,050,51,2*70
$GAGSV,2,2,07,21,43,303,45,27,58,210,25,30,15,164,20,2*4E
$GAGSV,2,1,06,03,14,098,33,13,54,277,41,15,58,032,47,18,73,050,50,7*73
$GAGSV,2,2,06,21,43,303,43,27,58,210,27,7*78
$GAGSV,2,1,05,01,02,327,,05,06,049,,08,05,145,,26,06,251,,0*70
$GAGSV,2,2,05,26,06,251,,0*45
$GBGSV,3,1,09,04,35,132,42,07,80,254,42,08,46,224,23,10,70,291,42,1*76
$GBGSV,3,2,09,14,36,083,36,27,28,287,43,28,67,349,48,33,39,119,40,1*7B
$GBGSV,3,3,09,37,35,243,43,1*4F
$GBGSV,2,1,05,04,35,132,43,07,80,254,43,08,46,224,31,10,70,291,41,3*79
$GBGSV,2,2,05,14,36,083,44,3*4A
$GNRMC,031158.00,A,3726.9406008,N,12639.3711367,E,0.006,,210622,,,R,V*00
$GNVTG,,T,,M,0.006,N,0.012,K,D*3D
$GNGNS,031158.00,3726.9406008,N,12639.3711367,E,RRRR,25,0.65,22.219,17.842,2.0,4095,V*04
$GNGGA,031158.00,3726.9406008,N,12639.3711367,E,4,12,0.65,22.219,M,17.842,M,2.0,4095*55
$GNGSA,A,3,03,17,01,06,14,19,,,,,,,1.25,0.65,1.07,1*0D
$GNGSA,A,3,71,75,76,69,85,,,,,,,,1.25,0.65,1.07,2*06
$GNGSA,A,3,03,13,30,21,15,27,,,,,,,1.25,0.65,1.07,3*00
$GNGSA,A,3,33,07,04,37,28,10,27,14,08,,,,1.25,0.65,1.07,4*03
$GPGSV,2,1,08,01,37,047,25,03,58,090,41,06,27,252,42,08,05,108,15,1*6C
$GPGSV,2,2,08,14,67,213,29,17,58,327,46,19,36,306,44,28,,,47,1*5D
$GPGSV,2,1,05,01,37,047,28,03,58,090,37,06,27,252,28,14,67,213,25,6*65
$GPGSV,2,2,05,17,58,327,39,6*51
$GPGSV,1,1,04,04,02,125,,21,15,059,,30,04,210,,50,47,179,,0*67
$GLGSV,2,1,06,69,14,031,31,70,34,094,26,71,16,145,25,75,33,211,24,1*7E
$GLGSV,2,2,06,76,45,288,39,85,46,029,46,1*70
$GLGSV,2,1,05,69,14,031,27,71,16,145,26,75,33,211,17,76,45,288,39,3*7A
$GLGSV,2,2,05,85,46,029,37,3*4F
$GLGSV,1,1,04,77,13,332,,84,02,070,,86,46,312,,87,01,269,,0*7B
$GAGSV,2,1,07,03,14,098,34,13,54,277,39,15,58,032,49,18,73,050,51,2*70
$GAGSV,2,2,07,21,43,303,45,27,58,210,24,30,15,164,20,2*4F
$GAGSV,2,1,06,03,14,098,33,13,54,277,41,15,58,032,47,18,73,050,50,7*73
$GAGSV,2,2,06,21,43,303,43,27,58,210,26,7*79
$GAGSV,2,1,05,01,02,327,,05,06,049,,08,05,145,,26,06,251,,0*70
$GAGSV,2,2,05,26,06,251,,0*45
$GBGSV,3,1,10,03,43,205,27,04,35,132,42,07,80,254,42,08,46,224,22,1*73
$GBGSV,3,2,10,10,70,291,42,14,36,083,36,27,28,287,43,28,67,349,48,1*7E
$GBGSV,3,3,10,33,39,119,41,37,35,243,43,1*71
$GBGSV,2,1,05,04,35,132,43,07,80,254,43,08,46,224,31,10,70,291,41,3*79
$GBGSV,2,2,05,14,36,083,44,3*4A
$GBGSV,1,1,03,01,43,152,,13,36,225,,23,14,192,,0*48
$GNRMC,031159.00,A,3726.9405995,N,12639.3711370,E,0.013,,210622,,,R,V*0D
$GNVTG,,T,,M,0.013,N,0.025,K,D*3D
$GNGNS,031159.00,3726.9405995,N,12639.3711370,E,RRRR,26,0.65,22.214,17.842,2.0,4095,V*03
$GNGGA,031159.00,3726.9405995,N,12639.3711370,E,4,12,0.65,22.214,M,17.842,M,2.0,4095*51
$GNGSA,A,3,03,17,01,06,14,19,,,,,,,1.25,0.65,1.07,1*0D
$GNGSA,A,3,71,75,76,69,85,,,,,,,,1.25,0.65,1.07,2*06
$GNGSA,A,3,03,13,30,21,15,27,,,,,,,1.25,0.65,1.07,3*00
$GNGSA,A,3,33,07,04,37,28,10,27,14,08,,,,1.25,0.65,1.07,4*03
$GPGSV,2,1,08,01,37,047,26,03,58,090,41,06,27,252,42,08,05,108,15,1*6F
$GPGSV,2,2,08,14,67,213,28,17,58,327,46,19,36,306,45,28,,,47,1*5D
$GPGSV,2,1,05,01,37,047,28,03,58,090,36,06,27,252,28,14,67,213,24,6*65
$GPGSV,2,2,05,17,58,327,39,6*51
$GPGSV,1,1,04,04,02,125,,21,15,059,,30,04,210,,50,47,179,,0*67
$GLGSV,2,1,06,69,14,031,32,70,34,094,26,71,16,145,25,75,33,211,24,1*7D
$GLGSV,2,2,06,76,45,288,37,85,46,029,46,1*7E
$GLGSV,2,1,05,69,14,031,27,71,16,145,26,75,33,211,14,76,45,288,39,3*79
$GLGSV,2,2,05,85,46,029,37,3*4F
$GLGSV,1,1,04,77,13,332,,84,02,070,,86,46,312,,87,01,269,,0*7B
$GAGSV,2,1,07,03,14,098,34,13,54,277,39,15,58,032,49,18,73,050,51,2*70
$GAGSV,2,2,07,21,43,303,45,27,58,210,24,30,15,164,19,2*45
$GAGSV,2,1,06,03,14,098,33,13,54,277,41,15,58,032,47,18,73,050,50,7*73
$GAGSV,2,2,06,21,43,303,44,27,58,210,26,7*7E
$GAGSV,2,1,05,01,02,327,,05,06,049,,08,05,145,,26,06,251,,0*70
$GAGSV,2,2,05,26,06,251,,0*45
$GBGSV,3,1,09,04,35,132,42,07,80,254,42,08,46,224,22,10,70,291,42,1*77
$GNRMC,031200.00,A,3726.9405972,N,12639.3711378,E,0.010,,210622,,,R,V*00
$GNVTG,,T,,M,0.010,N,0.018,K,D*30
$GNGNS,031200.00,3726.9405972,N,12639.3711378,E,RRRR,25,0.65,22.221,17.842,2.0,4095,V*08
$GNGGA,031200.00,3726.9405972,N,12639.3711378,E,4,12,0.65,22.221,M,17.842,M,2.0,4095*59
$GNGSA,A,3,03,17,01,06,14,19,,,,,,,1.25,0.65,1.07,1*0D
$GNGSA,A,3,71,75,76,69,85,,,,,,,,1.25,0.65,1.07,2*06
$GNGSA,A,3,03,13,30,21,15,27,,,,,,,1.25,0.65,1.07,3*00
$GNGSA,A,3,33,07,04,37,28,10,27,14,08,,,,1.25,0.65,1.07,4*03
$GPGSV,2,1,08,01,37,047,25,03,58,090,40,06,27,252,40,08,05,108,15,1*6F
$GPGSV,2,2,08,14,67,213,27,17,58,327,44,19,36,306,44,28,,,46,1*50
$GPGSV,2,1,05,01,37,047,29,03,58,090,37,06,27,252,28,14,67,213,24,6*65
$GPGSV,2,2,05,17,58,327,39,6*51
$GPGSV,1,1,04,04,02,125,,21,15,059,,30,04,210,,50,47,179,,0*67
$GLGSV,2,1,05,69,14,031,31,70,34,094,26,75,33,211,23,76,45,288,35,1*78
$GLGSV,2,2,05,85,46,029,45,1*48
$GLGSV,2,1,05,69,14,031,26,71,16,145,26,75,33,211,16,76,45,288,37,3*74
$GLGSV,2,2,05,85,46,029,36,3*4E
$GLGSV,1,1,04,77,13,332,,84,02,070,,86,46,312,,87,01,269,,0*7B
$GAGSV,2,1,07,03,14,098,34,13,54,277,39,15,58,032,49,18,73,050,51,2*70
$GAGSV,2,2,07,21,43,303,44,27,58,210,24,30,15,164,20,2*4E
$GAGSV,2,1,06,03,14,098,31,13,54,277,41,15,58,032,47,18,73,050,50,7*71
$GAGSV,2,2,06,21,43,303,43,27,58,210,27,7*78
$GNRMC,031201.00,A,3726.9405983,N,12639.3711357,E,0.006,,210622,,,R,V*05
$GNVTG,,T,,M,0.006,N,0.012,K,D*3D
$GNGNS,031201.00,3726.9405983,N,12639.3711357,E,RRRR,24,0.65,22.222,17.842,2.0,4095,V*08
