$GNRMC,045651.00,A,3726.9327466,N,12639.3476802,E,0.038,,220622,,,F,V*15
$GNVTG,,T,,M,0.038,N,0.070,K,D*34
$GNGNS,045651.00,3726.9327466,N,12639.3476802,E,FFFF,28,0.72,21.656,17.841,41.0,4095,V*38
$GNGGA,045651.00,3726.9327466,N,12639.3476802,E,5,12,0.72,21.656,M,17.841,M,41.0,4095*65
$GNGSA,A,3,06,02,19,20,17,14,12,11,,,,,1.43,0.72,1.23,1*0C
$GNGSA,A,3,87,88,65,72,78,,,,,,,,1.43,0.72,1.23,2*07
$GNGSA,A,3,05,02,15,36,34,30,,,,,,,1.43,0.72,1.23,3*02
$GNGSA,A,3,07,03,10,28,08,02,14,01,13,,,,1.43,0.72,1.23,4*04
$GPGSV,3,2,12,12,19,315,40,14,16,184,41,17,68,113,46,19,81,007,39,1*61
$GPGSV,3,3,12,20,16,227,34,28,,,42,41,27,238,45,50,47,179,39,1*55
$GPGSV,1,1,01,02,21,281,06,5*5D
$GPGSV,2,1,07,06,58,312,35,09,30,119,09,11,25,276,36,12,19,315,31,6*6F
$GPGSV,2,2,07,14,16,184,33,17,68,113,39,19,81,007,08,6*54
$GPGSV,1,1,03,01,01,078,,04,27,082,,40,06,259,,0*5E
$GLGSV,2,1,08,65,42,162,36,71,19,031,26,72,56,077,47,78,23,281,37,1*7A
$GLGSV,2,2,08,79,10,330,26,86,14,093,26,87,55,033,37,88,38,322,40,1*79
$GLGSV,2,1,05,65,42,162,33,71,19,031,08,72,56,077,33,78,23,281,37,3*7F
$GLGSV,2,2,05,88,38,322,38,3*4C
$GLGSV,1,1,01,77,10,226,,0*4F
$GAGSV,2,1,07,02,27,209,35,05,31,141,22,15,13,280,27,18,66,308,47,2*73
$GAGSV,2,2,07,30,38,270,44,34,57,316,43,36,49,056,36,2*44
$GAGSV,2,1,07,02,27,209,37,09,34,079,24,15,13,280,33,18,66,308,49,7*7A
$GAGSV,2,2,07,30,38,270,43,34,57,316,39,36,49,056,44,7*4E
$GAGSV,1,1,04,03,01,183,,04,06,034,,11,06,083,,27,11,3$GBGSV,3,1,09,01,43,152,39,02,28,236,41,03,44,206,40,07,60,216,27,1*7F
$GBGSV,3,2,09,08,53,268,46,10,62,244,39,13,45,261,44,14,63,104,44,1*70
$GBGSV,3,3,09,28,53,318,45,1*48
$GBGSV,3,1,09,01,43,152,41,02,28,236,31,07,60,216,34,08,53,268,46,3*74
$GBGSV,3,2,09,10,62,244,38,11,33,099,21,13,45,261,33,14,63,104,47,3*73
$GBGSV,3,3,09,21,04,035,25,3*4B
$GBGSV,1,1,04,04,35,132,,05,08,256,,23,04,218,,27,06,298,,0*73
$GNRMC,045652.00,A,3726.9327033,N,12639.3476651,E,0.009,,220622,,,F,V*18
$GNVTG,,T,,M,0.009,N,0.017,K,D*37
$GNGNS,045652.00,3726.9327033,N,12639.3476651,E,FFFF,28,0.71,21.602,17.841,42.0,4095,V*36
$GNGGA,045652.00,3726.9327033,N,12639.3476651,E,5,12,0.71,21.602,M,17.841,M,42.0,4095*6B
$GNGSA,A,3,06,02,19,20,17,14,12,11,,,,,1.40,0.71,1.20,1*0F
$GNGSA,A,3,87,88,65,72,78,,,,,,,,1.40,0.71,1.20,2*04
$GNGSA,A,3,05,02,15,36,34,30,,,,,,,1.40,0.71,1.20,3*01
$GNGSA,A,3,07,03,10,28,08,02,14,01,13,,,,1.40,0.71,1.20,4*07
$GPGSV,3,1,12,02,21,281,31,03,23,044,39,06,58,312,39,11,25,276,39,1*6A
$GPGSV,3,2,12,12,19,315,38,14,16,184,41,17,68,113,46,19,81,007,38,1*6F
$GPGSV,3,3,12,20,16,227,34,28,,,42,41,27,238,45,50,47,179,39,1*55
$GPGSV,2,1,07,02,21,281,07,06,58,312,34,09,30,119,08,11,25,276,37,6*6D
$GPGSV,2,2,07,12,19,315,29,14,16,184,32,17,68,113,38,6*5D
$GPGSV,1,1,03,01,01,078,,04,27,082,,40,06,259,,0*5E
$GLGSV,2,1,07,65,42,162,36,71,19,031,25,72,56,077,46,78,23,281,34,1*74
$GLGSV,2,2,07,86,14,093,08,87,55,033,34,88,38,322,41,1*43
$GLGSV,2,1,05,65,42,162,33,71,19,031,08,72,56,077,31,78,23,281,37,3*7D
$GLGSV,2,2,05,88,38,322,37,3*43
$GLGSV,1,1,02,77,10,226,,79,10,330,,0*73
$GAGSV,2,1,07,02,27,209,34,05,31,141,22,15,13,280,28,18,66,308,46,2*7C
$GAGSV,2,2,07,30,38,270,43,34,57,316,43,36,49,056,37,2*42
$GAGSV,2,1,06,02,27,209,38,15,13,280,34,18,66,308,49,30,38,270,44,7*78
$GAGSV,2,2,06,34,57,316,39,36,49,056,44,7*75
$GAGSV,2,1,05,03,01,183,,04,06,034,,09,34,079,,11,06,083,,0*72
$GAGSV,2,2,05,11,06,083,,0*4C
$GBGSV,3,1,09,01,43,152,38,02,28,236,41,03,44,206,41,07,60,216,26,1*7E
$GBGSV,3,2,09,08,53,268,46,10,62,244,39,13,45,261,44,14,63,104,44,1*70
$GBGSV,3,3,09,28,53,318,45,1*48
$GBGSV,2,1,08,01,43,152,40,02,28,236,32,07,60,216,34,08,53,268,44,3*74
$GBGSV,2,2,08,10,62,244,39,11,33,099,21,13,45,261,27,14,63,104,46,3*76
$GBGSV,2,1,05,04,35,132,,05,08,256,,21,04,035,,23,04,218,,0*70
$GBGSV,2,2,05,23,04,218,,0*4C
$GNRMC,045653.00,A,3726.9326691,N,12639.3476457,E,0.010,,220622,,,F,V*1A
$GNVTG,,T,,M,0.010,N,0.019,K,D*31
$GNGNS,045653.00,3726.9326691,N,12639.3476457,E,FFFF,28,0.71,21.552,17.841,43.0,4095,V*3B
$GNGGA,045653.00,3726.9326691,N,12639.3476457,E,5,12,0.71,21.552,M,17.841,M,43.0,4095*66
$GNGSA,A,3,06,02,19,20,17,14,12,11,,,,,1.40,0.71,1.20,1*0F
$GNGSA,A,3,87,88,65,72,78,,,,,,,,1.40,0.71,1.20,2*04
$GNGSA,A,3,05,02,15,36,34,30,,,,,,,1.40,0.71,1.20,3*01
$GNGSA,A,3,07,03,10,28,08,02,14,01,13,,,,1.40,0.71,1.20,4*07
$GPGSV,3,1,12,02,21,281,31,03,23,044,38,06,58,312,39,11,25,276,39,1*6B
$GPGSV,3,2,12,12,19,315,40,14,16,184,41,17,68,113,46,19,81,007,38,1*60
$GPGSV,3,3,12,20,16,227,35,28,,,42,41,27,238,46,50,47,179,39,1*57
$GPGSV,2,1,05,06,58,312,35,11,25,276,37,12,19,315,30,14,16,184,31,6*6A
$GPGSV,2,2,05,17,68,113,38,6*56
$GPGSV,1,1,04,01,01,078,,04,27,082,,09,30,119,,40,06,259,,0*6A
$GLGSV,2,1,07,65,42,162,37,71,19,031,25,72,56,077,45,78,23,281,35,1*77
$GLGSV,2,2,07,86,14,093,24,87,55,033,34,88,38,322,40,1*4C
$GLGSV,2,1,05,65,42,162,33,71,19,031,07,72,56,077,32,78,23,281,37,3*71
$GLGSV,2,2,05,88,38,322,36,3*42
$GLGSV,1,1,02,77,10,226,,79,10,330,,0*73
$GAGSV,2,1,07,02,27,209,34,05,31,141,22,15,13,280,28,18,66,308,46,2*7C
$GAGSV,2,2,07,30,38,270,43,34,57,316,43,36,49,056,37,2*42
$GAGSV,2,1,07,02,27,209,40,09,34,079,23,15,13,280,34,18,66,308,49,7*7A
$GAGSV,2,2,07,30,38,270,44,34,57,316,39,36,49,056,44,7*49
$GAGSV,1,1,04,03,01,183,,04,06,034,,11,06,083,,27,11,322,,0*76
$GBGSV,3,1,09,01,43,152,38,02,28,236,41,03,44,206,41,07,60,216,26,1*7E
$GBGSV,3,2,09,08,53,268,46,10,62,244,39,13,45,261,44,14,63,104,44,1*70
$GBGSV,3,3,09,28,53,318,45,1*48
$GBGSV,2,1,08,01,43,152,40,02,28,236,32,07,60,216,35,08,53,268,44,3*75
$GBGSV,2,2,08,10,62,244,39,11,33,099,22,13,45,261,30,14,63,104,46,3*73
$GBGSV,2,1,05,04,35,132,,05,08,256,,21,04,035,,23,04,218,,0*70
$GBGSV,2,2,05,23,04,218,,0*4C
$GNRMC,045654.00,A,3726.9326429,N,12639.3476335,E,0.011,,220622,,,F,V*1E
$GNVTG,,T,,M,0.011,N,0.021,K,D*3B
$GNGNS,045654.00,3726.9326429,N,12639.3476335,E,FFFF,28,0.71,21.505,17.841,44.0,4095,V*3B
$GNGGA,045654.00,3726.9326429,N,12639.3476335,E,5,12,0.71,21.505,M,17.841,M,44.0,4095*66
$GNGSA,A,3,06,02,19,20,17,14,12,11,,,,,1.40,0.71,1.20,1*0F
$GNGSA,A,3,87,88,65,72,78,,,,,,,,1.40,0.71,1.20,2*04
$GNGSA,A,3,05,02,15,36,34,30,,,,,,,1.40,0.71,1.20,3*01
$GNGSA,A,3,07,03,10,28,08,02,14,01,13,,,,1.40,0.71,1.20,4*07
$GPGSV,3,1,12,02,21,281,32,03,23,044,38,06,58,312,39,11,25,276,39,1*68
$GPGSV,3,2,12,12,19,315,39,14,16,184,41,17,68,113,46,19,81,007,39,1*6F
$GPGSV,3,3,12,20,16,227,34,28,,,42,41,27,238,45,50,47,179,39,1*55
$GPGSV,2,1,05,06,58,312,36,11,25,276,36,12,19,315,31,14,16,184,32,6*6A
$GPGSV,2,2,05,17,68,113,38,6*56
$GNRMC,045655.00,A,3726.9326193,N,12639.3476234,E,0.018,,220622,,,F,V*12
$GNVTG,,T,,M,0.018,N,0.033,K,D*31
$GNGNS,045655.00,3726.9326193,N,12639.3476234,E,FFFF,28,0.75,21.458,17.841,45.0,4095,V*32
$GNGGA,045655.00,3726.9326193,N,12639.3476234,E,5,12,0.75,21.458,M,17.841,M,45.0,4095*6F
$GNGSA,A,3,06,02,19,20,17,14,12,11,,,,,1.50,0.75,1.30,1*0B
$GNGSA,A,3,71,87,88,65,72,78,,,,,,,1.50,0.75,1.30,2*06
$GNGSA,A,3,02,15,36,34,30,,,,,,,,1.50,0.75,1.30,3*00
$GNGSA,A,3,07,03,10,28,08,02,14,01,13,,,,1.50,0.75,1.30,4*03
$GPGSV,3,1,12,02,21,281,31,03,23,044,39,06,58,312,40,11,25,276,39,1*64
$GPGSV,3,2,12,12,19,315,39,14,16,184,41,17,68,113,46,19,81,007,39,1*6F
$GPGSV,3,3,12,20,16,227,34,28,,,42,41,27,238,45,50,47,179,39,1*55
$GPGSV,2,1,05,06,58,312,37,11,25,276,36,12,19,315,31,14,16,184,32,6*6B
$GPGSV,2,2,05,17,68,113,38,6*56
$GPGSV,1,1,04,01,01,078,,04,27,082,,09,30,119,,40,06,259,,0*6A
$GLGSV,2,1,07,65,42,162,37,71,19,031,32,72,56,077,44,78,23,281,35,1*70
$GLGSV,2,2,07,86,14,093,32,87,55,033,36,88,38,322,42,1*4B
$GLGSV,2,1,05,65,42,162,31,71,19,031,06,72,56,077,32,78,23,281,35,3*70
$GLGSV,2,2,05,88,38,322,32,3*46
$GLGSV,1,1,02,77,10,226,,79,10,330,,0*73
$GAGSV,2,1,07,02,27,209,35,05,31,141,22,15,13,280,27,18,66,308,46,2*72
$GAGSV,2,2,07,30,38,270,43,34,57,316,43,36,49,056,34,2*41
$GAGSV,2,1,06,02,27,209,40,15,13,280,32,18,66,308,49,30,38,270,44,7*71
$GAGSV,2,2,06,34,57,316,40,36,49,056,44,7*7B
$GAGSV,2,1,05,03,01,183,,04,06,034,,09,34,079,,11,06,083,,0*72
$GAGSV,2,2,05,11,06,083,,0*4C
$GBGSV,3,1,09,01,43,152,38,02,28,236,40,03,44,206,40,07,60,216,26,1*7E
$GBGSV,3,2,09,08,53,268,46,10,62,244,38,13,45,261,43,14,63,104,44,1*76
$GBGSV,3,3,09,28,53,318,45,1*48
$GBGSV,2,1,08,01,43,152,40,02,28,236,29,07,60,216,35,08,53,268,44,3*7F
$GBGSV,2,2,08,10,62,244,39,11,33,099,19,13,45,261,31,14,63,104,46,3*7A
$GBGSV,2,1,05,04,35,132,,05,08,256,,21,04,035,,23,04,218,,0*70
$GBGSV,2,2,05,23,04,218,,0*4C
$GNRMC,045656.00,A,3726.9326001,N,12639.3476146,E,0.016,,220622,,,F,V*13
$GNVTG,,T,,M,0.016,N,0.030,K,D*3C
$GNGNS,045656.00,3726.9326001,N,12639.3476146,E,FFFF,28,0.63,21.420,17.841,46.0,4095,V*36
$GNGGA,045656.00,3726.9326001,N,12639.3476146,E,5,12,0.63,21.420,M,17.841,M,46.0,4095*6B
$GNGSA,A,3,06,02,19,20,17,14,12,11,,,,,1.21,0.63,1.04,1*0D
$GNGSA,A,3,71,87,88,65,72,78,,,,,,,1.21,0.63,1.04,2*00
$GNGSA,A,3,02,15,36,34,30,,,,,,,,1.21,0.63,1.04,3*06
$GNGSA,A,3,07,03,10,28,08,02,14,01,13,,,,1.21,0.63,1.04,4*05
$GPGSV,3,1,12,02,21,281,31,03,23,044,35,06,58,312,40,11,25,276,39,1*68
$GPGSV,3,2,12,12,19,315,39,14,16,184,41,17,68,113,46,19,81,007,40,1*61
$GPGSV,3,3,12,20,16,227,35,28,,,42,41,27,238,45,50,47,179,39,1*54
$GPGSV,2,1,05,06,58,312,37,11,25,276,36,12,19,315,31,14,16,184,33,6*6A
$GPGSV,2,2,05,17,68,113,38,6*56
$GPGSV,1,1,04,01,01,078,,04,27,082,,09,30,119,,40,06,259,,0*6A
$GLGSV,2,1,07,65,42,162,38,71,19,031,31,72,56,077,44,78,23,281,34,1*7D
$GLGSV,2,2,07,86,14,093,24,87,55,033,36,88,38,322,42,1*4C
$GLGSV,2,1,05,65,42,162,32,71,19,031,07,72,56,077,33,78,23,281,36,3*70
$GLGSV,2,2,05,88,38,322,31,3*45
$GLGSV,1,1,02,77,10,226,,79,10,330,,0*73
$GAGSV,2,1,07,02,27,209,34,05,31,141,22,15,13,280,27,18,66,308,46,2*73
$GAGSV,2,2,07,30,38,270,43,34,57,316,43,36,49,056,34,2*41
$GAGSV,2,1,06,02,27,209,40,15,13,280,32,18,66,308,49,30,38,270,44,7*71
$GAGSV,2,2,06,34,57,316,40,36,49,056,44,7*7B
$GAGSV,2,1,05,03,01,183,,04,06,034,,09,34,079,,11,06,083,,0*72
$GAGSV,2,2,05,11,06,083,,0*4C
$GBGSV,3,1,09,01,43,152,38,02,28,236,40,03,44,206,40,07,60,216,26,1*7E
$GBGSV,3,2,09,08,53,268,46,10,62,244,38,13,45,261,44,14,63,104,44,1*71
$GBGSV,3,3,09,28,53,318,45,1*48
$GBGSV,2,1,08,01,43,152,40,02,28,236,30,07,60,216,35,08,53,268,44,3*77
$GBGSV,2,2,08,10,62,244,39,11,33,099,20,13,45,261,30,14,63,104,46,3*71
$GBGSV,2,1,05,04,35,132,,05,08,256,,21,04,035,,23,04,218,,0*70
$GBGSV,2,2,05,23,04,218,,0*4C
$GNRMC,045657.00,A,3726.9325761,N,12639.3475909,E,0.024,,220622,,,F,V*11
$GNVTG,,T,,M,0.024,N,0.045,K,D*3F
$GNGNS,045657.00,3726.9325761,N,12639.3475909,E,FFFF,27,0.72,21.448,17.841,47.0,4095,V*35
$GNGGA,045657.00,3726.9325761,N,12639.3475909,E,5,12,0.72,21.448,M,17.841,M,47.0,4095*67
$GNGSA,A,3,06,19,20,17,14,12,11,,,,,,1.43,0.72,1.24,1*09
$GNGSA,A,3,87,88,65,72,78,,,,,,,,1.43,0.72,1.24,2*00
$GNGSA,A,3,05,02,15,36,34,30,,,,,,,1.43,0.72,1.24,3*05
$GNGSA,A,3,07,03,10,28,08,02,14,01,13,,,,1.43,0.72,1.24,4*03
$GPGSV,3,1,12,02,21,281,31,03,23,044,31,06,58,312,38,11,25,276,41,1*6C
$GPGSV,3,2,12,12,19,315,38,14,16,184,41,17,68,113,46,19,81,007,35,1*62
$GPGSV,3,3,12,20,16,227,36,28,,,42,41,27,238,46,50,47,179,39,1*54
$GPGSV,1,1,01,09,30,119,16,5*55
$GPGSV,2,1,05,06,58,312,33,11,25,276,39,12,19,315,30,14,16,184,32,6*61
$GPGSV,2,2,05,17,68,113,38,6*56
$GPGSV,1,1,03,01,01,078,,04,27,082,,40,06,259,,0*5E
$GLGSV,2,1,06,65,42,162,38,72,56,077,45,78,23,281,34,86,14,093,20,1*70
$GLGSV,2,2,06,87,55,033,32,88,38,322,41,1*7D
$GLGSV,2,1,05,65,42,162,31,71,19,031,28,72,56,077,33,78,23,281,36,3*7E
$GLGSV,2,2,05,88,38,322,34,3*40
$GLGSV,1,1,02,77,10,226,,79,10,330,,0*73
$GAGSV,2,1,07,02,27,209,34,05,31,141,22,15,13,280,27,18,66,308,48,2*7D
$GAGSV,2,2,07,30,38,270,43,34,57,316,42,36,49,056,29,2*4C
$GAGSV,2,1,06,02,27,209,40,15,13,280,32,18,66,308,50,30,38,270,44,7*79
$GAGSV,2,2,06,34,57,316,38,36,49,056,43,7*73
$GAGSV,2,1,05,03,01,183,,04,06,034,,09,34,079,,11,06,083,,0*72
$GAGSV,2,2,05,11,06,083,,0*4C
$GBGSV,3,1,09,01,43,152,38,02,28,236,40,03,44,206,40,07,60,216,27,1*7F
$GBGSV,3,2,09,08,53,268,45,10,62,244,38,13,45,261,44,14,63,104,44,1*72
$GBGSV,3,3,09,28,53,318,45,1*48
$GBGSV,2,1,08,01,43,152,40,02,28,236,31,07,60,216,35,08,53,268,44,3*76
$GBGSV,2,2,08,10,62,244,40,11,33,099,20,13,45,261,30,14,63,104,47,3*7E
$GBGSV,2,1,05,04,35,132,,05,08,256,,21,04,035,,23,04,218,,0*70
$GBGSV,2,2,05,23,04,218,,0*4C
$GNRMC,045658.00,A,3726.9325403,N,12639.3475667,E,0.047,,220622,,,F,V*1B
$GNVTG,,T,,M,0.047,N,0.086,K,D*35
$GNGNS,045658.00,3726.9325403,N,12639.3475667,E,FFFF,28,0.63,21.468,17.841,48.0,4095,V*38
$GNGGA,045658.00,3726.9325403,N,12639.3475667,E,5,12,0.63,21.468,M,17.841,M,48.0,4095*65
$GNGSA,A,3,02,06,19,20,17,14,12,11,,,,,1.21,0.63,1.04,1*0D
$GNGSA,A,3,71,87,88,65,72,78,,,,,,,1.21,0.63,1.04,2*00
$GNGSA,A,3,02,15,36,34,30,,,,,,,,1.21,0.63,1.04,3*06
$GNGSA,A,3,07,03,10,28,08,02,14,01,13,,,,1.21,0.63,1.04,4*05
$GPGSV,3,1,12,02,21,281,25,03,23,044,24,06,58,312,41,11,25,276,40,1*62
$GPGSV,3,2,12,12,19,315,39,14,16,184,41,17,68,113,46,19,81,007,39,1*6F
$GPGSV,3,3,12,20,16,227,36,28,,,42,41,27,238,45,50,47,179,39,1*57
$GPGSV,1,1,01,04,27,082,21,5*59
$GPGSV,2,1,06,06,58,312,36,09,30,119,15,11,25,276,37,12,19,315,30,6*60
$GPGSV,2,2,06,14,16,184,32,17,68,113,38,6*6B
$GPGSV,1,1,02,01,01,078,,40,06,259,,0*64
$GLGSV,2,1,08,65,42,162,38,71,19,031,28,72,56,077,46,78,23,281,31,1*7D
$GLGSV,2,2,08,79,10,330,35,86,14,093,31,87,55,033,32,88,38,322,41,1*79
$GLGSV,2,1,05,65,42,162,32,71,19,031,27,72,56,077,34,78,23,281,37,3*74
$GLGSV,2,2,05,88,38,322,33,3*47
$GLGSV,1,1,01,77,10,226,,0*4F
$GAGSV,2,1,07,02,27,209,34,05,31,141,21,15,13,280,29,18,66,308,47,2*7F
$GAGSV,2,2,07,30,38,270,44,34,57,316,42,36,49,056,29,2*4B
$GAGSV,2,1,06,02,27,209,40,15,13,280,31,18,66,308,49,30,38,270,43,7*75
$GAGSV,2,2,06,34,57,316,38,36,49,056,43,7*73
$GAGSV,2,1,05,03,01,183,,04,06,034,,09,34,079,,11,06,083,,0*72
$GAGSV,2,2,05,11,06,083,,0*4C
$GBGSV,3,1,09,01,43,152,38,02,28,236,40,03,44,206,40,07,60,216,27,1*7F
$GBGSV,3,2,09,08,53,268,45,10,62,244,37,13,45,261,43,14,63,104,45,1*7B
$GBGSV,3,3,09,28,53,318,46,1*4B
$GBGSV,2,1,08,01,43,152,40,02,28,236,31,07,60,216,34,08,53,268,44,3*77
$GBGSV,2,2,08,10,62,244,40,11,33,099,20,13,45,261,33,14,63,104,47,3*7D
$GNRMC,045659.00,A,3726.9325108,N,12639.3475466,E,0.029,,220622,,,F,V*1F
$GNVTG,,T,,M,0.029,N,0.054,K,D*32
$GNGNS,045659.00,3726.9325108,N,12639.3475466,E,FFFF,28,0.61,21.471,17.841,49.0,4095,V*3F
$GNGGA,045659.00,3726.9325108,N,12639.3475466,E,5,12,0.61,21.471,M,17.841,M,49.0,4095*62
$GNGSA,A,3,06,19,20,17,14,12,11,,,,,,1.19,0.61,1.03,1*01
$GNGSA,A,3,71,87,88,65,72,78,,,,,,,1.19,0.61,1.03,2*0E
$GNGSA,A,3,05,02,15,36,34,30,,,,,,,1.19,0.61,1.03,3*0D
$GNGSA,A,3,07,03,10,28,08,02,14,01,13,,,,1.19,0.61,1.03,4*0B
$GPGSV,3,1,12,02,21,281,27,03,23,044,31,06,58,312,41,11,25,276,39,1*6A
$GPGSV,3,2,12,12,19,315,40,14,16,184,41,17,68,113,46,19,81,007,39,1*61
$GPGSV,3,3,12,20,16,227,37,28,,,43,41,27,238,45,50,47,179,39,1*57
$GPGSV,2,1,07,04,27,082,20,06,58,312,33,09,30,119,15,11,25,276,37,6*62
$GPGSV,2,2,07,12,19,315,29,14,16,184,33,17,68,113,39,6*5D
$GPGSV,1,1,02,01,01,078,,40,06,259,,0*64
$GLGSV,2,1,08,65,42,162,38,71,19,031,25,72,56,077,45,78,23,281,30,1*72
$GLGSV,2,2,08,79,10,330,35,86,14,093,30,87,55,033,36,88,38,322,41,1*7C
$GLGSV,2,1,05,65,42,162,31,71,19,031,27,72,56,077,33,78,23,281,37,3*70
$GLGSV,2,2,05,88,38,322,31,3*45
$GLGSV,1,1,01,77,10,226,,0*4F
$GAGSV,2,1,07,02,27,209,34,05,31,141,22,15,13,280,28,18,66,308,47,2*7D
$GAGSV,2,2,07,30,38,270,43,34,57,316,43,36,49,056,33,2*46
$GAGSV,2,1,06,02,27,209,40,15,13,280,31,18,66,308,49,30,38,270,44,7*72
$GAGSV,2,2,06,34,57,316,38,36,49,056,43,7*73
$GAGSV,2,1,05,03,01,183,,04,06,034,,09,34,079,,11,06,083,,0*72
$GAGSV,2,2,05,11,06,083,,0*4C
$GBGSV,3,1,09,01,43,152,38,02,28,236,40,03,44,206,40,07,60,216,26,1*7E
$GBGSV,3,2,09,08,53,268,46,10,62,244,37,13,45,261,43,14,63,104,44,1*79
$GBGSV,3,3,09,28,53,318,46,1*4B
$GBGSV,2,1,08,01,43,152,40,02,28,236,30,07,60,216,35,08,53,268,44,3*77
$GBGSV,2,2,08,10,62,244,39,11,33,099,18,13,45,261,31,14,63,104,47,3*7A
$GBGSV,2,1,05,04,35,132,,05,08,256,,21,04,035,,23,04,218,,0*70
$GBGSV,2,2,05,23,04,218,,0*4C
$GNRMC,045700.00,A,3726.9324890,N,12639.3475282,E,0.021,,220622,,,F,V*1F
$GNVTG,,T,,M,0.021,N,0.040,K,D*3F
$GNGNS,045700.00,3726.9324890,N,12639.3475282,E,FFFF,28,0.63,21.472,17.841,50.0,4095,V*3E
$GNGGA,045700.00,3726.9324890,N,12639.3475282,E,5,12,0.63,21.472,M,17.841,M,50.0,4095*63
$GNGSA,A,3,09,06,19,20,17,14,12,11,,,,,1.23,0.63,1.06,1*06
$GNGSA,A,3,71,87,88,65,72,78,,,,,,,1.23,0.63,1.06,2*00
$GNGSA,A,3,02,15,36,34,30,,,,,,,,1.23,0.63,1.06,3*06
$GNGSA,A,3,07,03,10,28,08,02,14,01,13,,,,1.23,0.63,1.06,4*05
$GPGSV,3,1,12,02,21,281,26,03,23,044,35,06,58,312,42,11,25,276,38,1*6D
$GPGSV,3,2,12,12,19,315,39,14,16,184,41,17,68,113,46,19,81,007,40,1*61
$GPGSV,3,3,12,20,16,227,37,28,,,42,41,27,238,46,50,47,179,39,1*55
$GPGSV,2,1,07,04,27,082,17,06,58,312,33,09,30,119,16,11,25,276,37,6*65
$GPGSV,2,2,07,12,19,315,29,14,16,184,33,17,68,113,39,6*5D
$GPGSV,1,1,02,01,01,078,,40,06,259,,0*64
$GLGSV,2,1,08,65,42,162,38,71,19,031,25,72,56,077,45,78,23,281,31,1*73
$GLGSV,2,2,08,79,10,330,34,86,14,093,28,87,55,033,36,88,38,322,41,1*74
$GLGSV,2,1,05,65,42,162,31,71,19,031,26,72,56,077,32,78,23,281,37,3*70
$GLGSV,2,2,05,88,38,322,32,3*46
$GLGSV,1,1,01,77,10,226,,0*4F
$GAGSV,2,1,07,02,27,209,34,05,31,141,22,15,13,280,26,18,66,308,47,2*73
$GAGSV,2,2,07,30,38,270,43,34,57,316,43,36,49,056,35,2*40
$GNRMC,045701.00,A,3726.9324663,N,12639.3475067,E,0.015,,220622,,,F,V*12
$GNVTG,,T,,M,0.015,N,0.027,K,D*39
$GNGNS,045701.00,3726.9324663,N,12639.3475067,E,FFFF,28,0.63,21.485,17.841,51.0,4095,V*3D
$GNGGA,045701.00,3726.9324663,N,12639.3475067,E,5,12,0.63,21.485,M,17.841,M,51.0,4095*60
$GNGSA,A,3,09,06,19,20,17,14,12,11,,,,,1.23,0.63,1.06,1*06
$GNGSA,A,3,71,87,88,65,72,78,,,,,,,1.23,0.63,1.06,2*00
$GNGSA,A,3,02,15,36,34,30,,,,,,,,1.23,0.63,1.06,3*06
$GNGSA,A,3,07,03,10,28,08,02,14,01,13,,,,1.23,0.63,1.06,4*05
$GPGSV,3,1,12,02,21,281,26,03,23,044,35,06,58,312,42,11,25,276,38,1*6D
$GPGSV,3,2,12,12,19,315,39,14,16,184,41,17,68,113,46,19,81,007,39,1*6F
$GPGSV,3,3,12,20,16,227,36,28,,,42,41,27,238,46,50,47,179,40,1*5A
$GPGSV,1,1,01,03,23,044,39,5*59
$GPGSV,2,1,07,04,27,082,15,06,58,312,33,09,30,119,16,11,25,276,37,6*67
$GPGSV,2,2,07,12,19,315,29,14,16,184,33,17,68,113,39,6*5D
$GPGSV,1,1,02,01,01,078,,40,06,259,,0*64
$GLGSV,2,1,08,65,42,162,38,71,19,031,25,72,56,077,45,78,23,281,30,1*72
$GLGSV,2,2,08,79,10,330,33,86,14,093,11,87,55,033,36,88,38,322,42,1*7A
$GLGSV,2,1,05,65,42,162,31,71,19,031,28,72,56,077,32,78,23,281,37,3*7E
$GLGSV,2,2,05,88,38,322,32,3*46
$GLGSV,1,1,01,77,10,226,,0*4F
$GAGSV,2,1,07,02,27,209,34,05,31,141,22,15,13,280,27,18,66,308,48,2*7D
$GAGSV,2,2,07,30,38,270,44,34,57,316,43,36,49,056,31,2*43
$GAGSV,2,1,06,02,27,209,40,15,13,280,31,18,66,308,49,30,38,270,44,7*72
$GAGSV,2,2,06,34,57,316,38,36,49,056,43,7*73
$GAGSV,2,1,05,03,01,183,,04,06,034,,09,34,079,,11,06,083,,0*72
$GAGSV,2,2,05,11,06,083,,0*4C
$GBGSV,3,1,09,01,43,152,38,02,28,236,40,03,44,206,40,07,60,216,26,1*7E
$GBGSV,3,2,09,08,53,268,46,10,62,244,37,13,45,261,44,14,63,104,44,1*7E
$GBGSV,3,3,09,28,53,318,46,1*4B
$GBGSV,2,1,08,01,43,152,40,02,28,236,30,07,60,216,35,08,53,268,44,3*77
$GBGSV,2,2,08,10,62,244,39,11,33,099,19,13,45,261,32,14,63,104,47,3*78
$GBGSV,2,1,05,04,35,132,,05,08,256,,21,04,035,,23,04,218,,0*70
$GBGSV,2,2,05,23,04,218,,0*4C
$GNRMC,045702.00,A,3726.9324517,N,12639.3474916,E,0.010,,220622,,,F,V*1A
$GNVTG,,T,,M,0.010,N,0.019,K,D*31
$GNGNS,045702.00,3726.9324517,N,12639.3474916,E,FFFF,28,0.63,21.479,17.841,52.0,4095,V*30
$GNGGA,045702.00,3726.9324517,N,12639.3474916,E,5,12,0.63,21.479,M,17.841,M,52.0,4095*6D
$GNGSA,A,3,09,06,19,20,17,14,12,11,,,,,1.23,0.63,1.06,1*06
$GNGSA,A,3,71,87,88,65,72,78,,,,,,,1.23,0.63,1.06,2*00
$GNGSA,A,3,02,15,36,34,30,,,,,,,,1.23,0.63,1.06,3*06
$GNGSA,A,3,07,03,10,28,08,02,14,01,13,,,,1.23,0.63,1.06,4*05
$GPGSV,3,1,11,03,23,044,38,06,58,312,41,11,25,276,38,12,19,315,39,1*68
$GPGSV,3,2,11,14,16,184,41,17,68,113,46,19,81,007,40,20,16,227,36,1*63
$GPGSV,3,3,11,28,,,42,41,27,238,46,50,47,179,40,1*6E
$GPGSV,1,1,01,03,23,044,41,5*56
$GPGSV,2,1,07,04,27,082,14,06,58,312,34,09,30,119,17,11,25,276,36,6*61
$GPGSV,2,2,07,12,19,315,31,14,16,184,33,17,68,113,39,6*54
$GPGSV,1,1,03,01,01,078,,02,21,281,,40,06,259,,0*5F
$GLGSV,2,1,08,65,42,162,38,71,19,031,26,72,56,077,45,78,23,281,29,1*79
$GLGSV,2,2,08,79,10,330,34,86,14,093,23,87,55,033,38,88,38,322,42,1*72
$GLGSV,2,1,05,65,42,162,31,71,19,031,28,72,56,077,32,78,23,281,37,3*7E
$GLGSV,2,2,05,88,38,322,32,3*46
$GLGSV,1,1,01,77,10,226,,0*4F
$GNRMC,045703.00,A,3726.9324379,N,12639.3474769,E,0.019,,220622,,,F,V*1A
$GNVTG,,T,,M,0.019,N,0.034,K,D*37
$GNGNS,045703.00,3726.9324379,N,12639.3474769,E,FFFF,28,0.63,21.471,17.841,53.0,4095,V*30
$GNGGA,045703.00,3726.9324379,N,12639.3474769,E,5,12,0.63,21.471,M,17.841,M,53.0,4095*6D
$GNGSA,A,3,09,06,19,20,17,14,12,11,,,,,1.23,0.63,1.06,1*06
$GNGSA,A,3,71,87,88,65,72,78,,,,,,,1.23,0.63,1.06,2*00
$GNGSA,A,3,02,15,36,34,30,,,,,,,,1.23,0.63,1.06,3*06
$GNGSA,A,3,07,03,10,28,08,02,14,01,13,,,,1.23,0.63,1.06,4*05
$GPGSV,3,1,11,03,23,044,39,06,58,312,41,11,25,276,38,12,19,315,38,1*68
$GPGSV,3,2,11,14,16,184,41,17,68,113,46,19,81,007,40,20,16,227,36,1*63
$GPGSV,3,3,11,28,,,42,41,27,238,46,50,47,179,40,1*6E
$GPGSV,1,1,01,03,23,044,41,5*56
$GPGSV,2,1,07,04,27,082,11,06,58,312,35,09,30,119,17,11,25,276,36,6*65
$GPGSV,2,2,07,12,19,315,30,14,16,184,33,17,68,113,39,6*55
$GPGSV,1,1,03,01,01,078,,02,21,281,,40,06,259,,0*5F
$GLGSV,2,1,08,65,42,162,38,71,19,031,32,72,56,077,44,78,23,281,28,1*7C
$GLGSV,2,2,08,79,10,330,34,86,14,093,05,87,55,033,37,88,38,322,40,1*7B
$GLGSV,2,1,05,65,42,162,31,71,19,031,28,72,56,077,31,78,23,281,38,3*72
$GLGSV,2,2,05,88,38,322,33,3*47
$GLGSV,1,1,01,77,10,226,,0*4F
$GAGSV,2,1,07,02,27,209,34,05,31,141,23,15,13,280,27,18,66,308,48,2*7C
$GAGSV,2,2,07,30,38,270,43,34,57,316,42,36,49,056,32,2*46
$GAGSV,2,1,06,02,27,209,39,15,13,280,32,18,66,308,49,30,38,270,44,7*7F
$GAGSV,2,2,06,34,57,316,39,36,49,056,43,7*72
$GAGSV,2,1,05,03,01,183,,04,06,034,,09,34,079,,11,06,083,,0*72
$GAGSV,2,2,05,11,06,083,,0*4C
$GBGSV,3,1,09,01,43,152,39,02,28,236,41,03,44,206,40,07,60,216,26,1*7E
$GBGSV,3,2,09,08,53,268,46,10,62,244,37,13,45,261,44,14,63,104,44,1*7E
$GBGSV,3,3,09,28,53,318,45,1*48
$GBGSV,2,1,07,01,43,152,40,02,28,236,30,07,60,216,35,08,53,268,44,3*78
$GBGSV,2,2,07,10,62,244,39,13,45,261,32,14,63,104,47,3*4F
$GBGSV,2,1,06,04,35,132,,05,08,256,,11,33,099,,21,04,035,,0*7D
$GBGSV,2,2,06,21,04,035,,23,04,218,,0*7E
$GNRMC,045704.00,A,3726.9324255,N,12639.3474689,E,0.011,,220622,,,F,V*15
$GNVTG,,T,,M,0.011,N,0.021,K,D*3B
$GNGNS,045704.00,3726.9324255,N,12639.3474689,E,FFFF,27,0.63,21.469,17.841,54.0,4095,V*36
$GNGGA,045704.00,3726.9324255,N,12639.3474689,E,5,12,0.63,21.469,M,17.841,M,54.0,4095*64
$GNGSA,A,3,06,19,20,17,14,12,11,,,,,,1.23,0.63,1.06,1*0F
$GNGSA,A,3,71,87,88,65,72,78,,,,,,,1.23,0.63,1.06,2*00
$GNGSA,A,3,02,15,36,34,30,,,,,,,,1.23,0.63,1.06,3*06
$GNGSA,A,3,07,03,10,28,08,02,14,01,13,,,,1.23,0.63,1.06,4*05
$GPGSV,3,1,11,03,23,044,39,06,58,312,41,11,25,276,38,12,19,315,38,1*68
$GPGSV,3,2,11,14,16,184,41,17,68,113,45,19,81,007,40,20,16,227,36,1*60
$GPGSV,3,3,11,28,,,42,41,27,238,46,50,47,179,40,1*6E
$GPGSV,1,1,01,03,23,044,41,5*56
$GPGSV,2,1,06,06,58,312,35,09,30,119,15,11,25,276,36,12,19,315,30,6*62
$GPGSV,2,2,06,14,16,184,33,17,68,113,39,6*6B
$GPGSV,1,1,04,01,01,078,,02,21,281,,04,27,082,,40,06,259,,0*63
$GLGSV,2,1,08,65,42,162,39,71,19,031,30,72,56,077,44,78,23,281,28,1*7F
$GLGSV,2,2,08,79,10,330,34,86,14,093,09,87,55,033,37,88,38,322,41,1*76
$GLGSV,2,1,05,65,42,162,31,71,19,031,27,72,56,077,32,78,23,281,38,3*7E
$GLGSV,2,2,05,88,38,322,33,3*47
$GLGSV,1,1,01,77,10,226,,0*4F
$GAGSV,2,1,07,02,27,209,34,05,31,141,23,15,13,280,27,18,66,308,48,2*7C
$GAGSV,2,2,07,30,38,270,44,34,57,316,43,36,49,056,31,2*43
$GAGSV,2,1,06,02,27,209,39,15,13,280,34,18,66,308,49,30,38,270,44,7*79
$GAGSV,2,2,06,34,57,316,39,36,49,056,43,7*72
$GAGSV,2,1,05,03,01,183,,04,06,034,,09,34,079,,11,06,083,,0*72
$GAGSV,2,2,05,11,06,083,,0*4C
$GBGSV,3,1,09,01,43,152,39,02,28,236,41,03,44,206,40,07,60,216,26,1*7E
$GBGSV,3,2,09,08,53,268,46,10,62,244,37,13,45,261,44,14,63,104,44,1*7E
$GBGSV,3,3,09,28,53,318,45,1*48
$GBGSV,2,1,08,01,43,152,40,02,28,236,29,03,44,206,37,07,60,216,35,3*7E
$GBGSV,2,2,08,08,53,268,44,10,62,244,39,13,45,261,32,14,63,104,47,3*72
$GNRMC,045705.00,A,3726.9324123,N,12639.3474598,E,0.005,,220622,,,F,V*10
$GNVTG,,T,,M,0.005,N,0.010,K,D*3C
$GNGNS,045705.00,3726.9324123,N,12639.3474598,E,FFFF,27,0.63,21.472,17.841,55.0,4095,V*3D
$GNGGA,045705.00,3726.9324123,N,12639.3474598,E,5,12,0.63,21.472,M,17.841,M,55.0,4095*6F
$GNGSA,A,3,06,19,20,17,14,12,11,,,,,,1.23,0.63,1.06,1*0F
$GNGSA,A,3,71,87,88,65,72,78,,,,,,,1.23,0.63,1.06,2*00
$GNGSA,A,3,02,15,36,34,30,,,,,,,,1.23,0.63,1.06,3*06
$GNGSA,A,3,07,03,10,28,08,02,14,01,13,,,,1.23,0.63,1.06,4*05
$GPGSV,3,1,11,03,23,044,36,06,58,312,41,11,25,276,38,12,19,315,38,1*67
$GPGSV,3,2,11,14,16,184,41,17,68,113,45,19,81,007,40,20,16,227,36,1*60
$GPGSV,3,3,11,28,,,42,41,27,238,46,50,47,179,40,1*6E
$GPGSV,1,1,01,03,23,044,40,5*57
$GPGSV,2,1,06,06,58,312,35,09,30,119,14,11,25,276,36,12,19,315,29,6*6B
$GPGSV,2,2,06,14,16,184,33,17,68,113,39,6*6B
$GPGSV,1,1,04,01,01,078,,02,21,281,,04,27,082,,40,06,259,,0*63
$GLGSV,2,1,08,65,42,162,39,71,19,031,26,72,56,077,44,78,23,281,28,1*78
$GLGSV,2,2,08,79,10,330,32,86,14,093,06,87,55,033,38,88,38,322,41,1*70
$GLGSV,2,1,05,65,42,162,31,71,19,031,26,72,56,077,33,78,23,281,38,3*7E
$GLGSV,2,2,05,88,38,322,33,3*47
$GLGSV,1,1,01,77,10,226,,0*4F
$GAGSV,2,1,07,02,27,209,34,05,31,141,23,15,13,280,26,18,66,308,48,2*7D
$GAGSV,2,2,07,30,38,270,43,34,57,316,42,36,49,056,31,2*45
$GAGSV,2,1,06,02,27,209,39,15,13,280,34,18,66,308,49,30,38,270,43,7*7E
$GAGSV,2,2,06,34,57,316,39,36,49,056,43,7*72
$GAGSV,2,1,05,03,01,183,,04,06,034,,09,34,079,,11,06,083,,0*72
$GAGSV,2,2,05,11,06,083,,0*4C
$GBGSV,3,1,09,01,43,152,39,02,28,236,41,03,44,206,40,07,60,216,25,1*7D
$GBGSV,3,2,09,08,53,268,46,10,62,244,37,13,45,261,44,14,63,104,44,1*7E
$GBGSV,3,3,09,28,53,318,45,1*48
$GBGSV,2,1,08,01,43,152,40,02,28,236,29,03,44,206,36,07,60,216,35,3*7F
$GBGSV,2,2,08,08,53,268,44,10,62,244,39,13,45,261,32,14,63,104,47,3*72
$GBGSV,2,1,06,04,35,132,,05,08,256,,11,33,099,,21,04,035,,0*7D
$GBGSV,2,2,06,21,04,035,,23,04,218,,0*7E
$GNRMC,045706.00,A,3726.9323996,N,12639.3474500,E,0.008,,220622,,,F,V*1E
$GNVTG,,T,,M,0.008,N,0.015,K,D*34
$GNGNS,045706.00,3726.9323996,N,12639.3474500,E,FFFF,27,0.63,21.489,17.841,56.0,4095,V*39
$GNGGA,045706.00,3726.9323996,N,12639.3474500,E,5,12,0.63,21.489,M,17.841,M,56.0,4095*6B
$GNGSA,A,3,06,19,20,17,14,12,11,,,,,,1.23,0.63,1.06,1*0F
$GNGSA,A,3,71,87,88,65,72,78,,,,,,,1.23,0.63,1.06,2*00
$GNGSA,A,3,02,15,36,34,30,,,,,,,,1.23,0.63,1.06,3*06
$GNGSA,A,3,07,03,10,28,08,02,14,01,13,,,,1.23,0.63,1.06,4*05
$GPGSV,3,1,12,02,21,281,28,03,23,044,37,06,58,312,41,11,25,276,38,1*62
$GPGSV,3,2,12,12,19,315,40,14,16,184,41,17,68,113,46,19,81,007,40,1*6F
$GPGSV,3,3,12,20,16,227,36,28,,,42,41,27,238,46,50,47,179,40,1*5A
$GPGSV,1,1,01,03,23,044,39,5*59
$GPGSV,2,1,06,06,58,312,34,09,30,119,14,11,25,276,35,12,19,315,29,6*69
$GPGSV,2,2,06,14,16,184,33,17,68,113,38,6*6A
$GPGSV,1,1,03,01,01,078,,04,27,082,,40,06,259,,0*5E
$GLGSV,2,1,08,65,42,162,39,71,19,031,30,72,56,077,44,78,23,281,28,1*7F
$GLGSV,2,2,08,79,10,330,32,86,14,093,10,87,55,033,38,88,38,322,40,1*76
$GLGSV,2,1,05,65,42,162,31,71,19,031,26,72,56,077,32,78,23,281,37,3*70
$GLGSV,2,2,05,88,38,322,33,3*47
$GLGSV,1,1,01,77,10,226,,0*4F
$GAGSV,2,1,07,02,27,209,33,05,31,141,22,15,13,280,25,18,66,308,48,2*78
$GAGSV,2,2,07,30,38,270,43,34,57,316,41,36,49,056,31,2*46
$GAGSV,2,1,07,02,27,209,39,05,31,141,24,15,13,280,35,18,66,308,48,7*70
$GAGSV,2,2,07,30,38,270,43,34,57,316,39,36,49,056,43,7*49
$GAGSV,2,1,05,03,01,183,,04,06,034,,09,34,079,,11,06,083,,0*72
$GAGSV,2,2,05,11,06,083,,0*4C
$GBGSV,3,1,09,01,43,152,39,02,28,236,41,03,44,206,40,07,60,216,26,1*7E
$GBGSV,3,2,09,08,53,268,46,10,62,244,37,13,45,261,44,14,63,104,44,1*7E
$GBGSV,3,3,09,28,53,318,45,1*48
$GBGSV,2,1,07,01,43,152,40,03,44,206,37,07,60,216,35,08,53,268,44,3*77
$GBGSV,2,2,07,10,62,244,40,13,45,261,33,14,63,104,47,3*40
$GBGSV,2,1,06,04,35,132,,05,08,256,,11,33,099,,21,04,035,,0*7D
$GBGSV,2,2,06,21,04,035,,23,04,218,,0*7E
$GNRMC,045707.00,A,3726.9323783,N,12639.3474372,E,0.016,,220622,,,F,V*19
$GNVTG,,T,,M,0.016,N,0.030,K,D*3C
$GNGNS,045707.00,3726.9323783,N,12639.3474372,E,FFFF,27,0.63,21.518,17.841,57.0,4095,V*39
$GNGGA,045707.00,3726.9323783,N,12639.3474372,E,5,12,0.63,21.518,M,17.841,M,57.0,4095*6B
$GNGSA,A,3,06,19,20,17,14,12,11,,,,,,1.23,0.63,1.06,1*0F
$GNGSA,A,3,71,87,88,65,72,78,,,,,,,1.23,0.63,1.06,2*00
$GNGSA,A,3,02,15,36,34,30,,,,,,,,1.23,0.63,1.06,3*06
$GNGSA,A,3,07,03,10,28,08,02,14,01,13,,,,1.23,0.63,1.06,4*05
$GPGSV,4,1,13,02,21,281,28,03,23,044,37,06,58,312,41,11,25,276,38,1*64
$GPGSV,4,2,13,12,19,315,40,14,16,184,41,17,68,113,46,19,81,007,40,1*69
$GPGSV,4,3,13,20,16,227,36,28,,,42,41,27,238,46,42,43,151,26,1*51
$GPGSV,4,4,13,50,47,179,40,1*5B
$GPGSV,1,1,01,03,23,044,39,5*59
$GPGSV,2,1,06,06,58,312,34,09,30,119,12,11,25,276,35,12,19,315,30,6*67
$GPGSV,2,2,06,14,16,184,32,17,68,113,38,6*6B
$GPGSV,1,1,03,01,01,078,,04,27,082,,40,06,259,,0*5E
$GLGSV,2,1,08,65,42,162,39,71,19,031,29,72,56,077,44,78,23,281,27,1*78
$GLGSV,2,2,08,79,10,330,33,86,14,093,16,87,55,033,38,88,38,322,40,1*71
$GLGSV,2,1,05,65,42,162,31,71,19,031,25,72,56,077,32,78,23,281,37,3*73
$GLGSV,2,2,05,88,38,322,33,3*47
$GLGSV,1,1,01,77,10,226,,0*4F
$GAGSV,2,1,07,02,27,209,34,05,31,141,22,15,13,280,25,18,66,308,48,2*7F
$GAGSV,2,2,07,30,38,270,44,34,57,316,42,36,49,056,30,2*43
$GAGSV,2,1,06,02,27,209,39,15,13,280,36,18,66,308,48,30,38,270,43,7*7D
$GAGSV,2,2,06,34,57,316,38,36,49,056,43,7*73
$GAGSV,2,1,05,03,01,183,,04,06,034,,09,34,079,,11,06,083,,0*72
$GAGSV,2,2,05,11,06,083,,0*4C
$GBGSV,3,1,09,01,43,152,39,02,28,236,41,03,44,206,40,07,60,216,25,1*7D
$GBGSV,3,2,09,08,53,268,46,10,62,244,37,13,45,261,44,14,63,104,44,1*7E
$GBGSV,3,3,09,28,53,318,45,1*48
$GBGSV,2,1,07,01,43,152,40,03,44,206,37,07,60,216,34,08,53,268,44,3*76
$GBGSV,2,2,07,10,62,244,40,13,45,261,33,14,63,104,47,3*40
$GBGSV,2,1,06,04,35,132,,05,08,256,,11,33,099,,21,04,035,,0*7D
$GBGSV,2,2,06,21,04,035,,23,04,218,,0*7E
$GNRMC,045708.00,A,3726.9323632,N,12639.3474289,E,0.015,,220622,,,F,V*1B
$GNVTG,,T,,M,0.015,N,0.028,K,D*36
$GNGNS,045708.00,3726.9323632,N,12639.3474289,E,FFFF,27,0.63,21.517,17.841,58.0,4095,V*38
$GNGGA,045708.00,3726.9323632,N,12639.3474289,E,5,12,0.63,21.517,M,17.841,M,58.0,4095*6A
$GNGSA,A,3,06,19,20,17,14,12,11,,,,,,1.23,0.63,1.06,1*0F
$GNGSA,A,3,71,87,88,65,72,78,,,,,,,1.23,0.63,1.06,2*00
$GNGSA,A,3,02,15,36,34,30,,,,,,,,1.23,0.63,1.06,3*06
$GNGSA,A,3,07,03,10,28,08,02,14,01,13,,,,1.23,0.63,1.06,4*05
$GPGSV,3,1,12,02,21,281,27,03,23,044,36,06,58,312,41,11,25,276,38,1*6C
$GPGSV,3,2,12,12,19,315,40,14,16,184,40,17,68,113,46,19,81,007,40,1*6E
$GPGSV,3,3,12,20,16,227,36,28,,,41,41,27,238,46,50,47,179,40,1*59
$GPGSV,1,1,01,03,23,044,40,5*57
$GPGSV,2,1,05,06,58,312,35,11,25,276,35,12,19,315,31,14,16,184,32,6*6A
$GPGSV,2,2,05,17,68,113,38,6*56
$GPGSV,1,1,04,01,01,078,,04,27,082,,09,30,119,,40,06,259,,0*6A
$GLGSV,2,1,08,65,42,162,39,71,19,031,27,72,56,077,45,78,23,281,28,1*78
$GLGSV,2,2,08,79,10,330,33,86,14,093,27,87,55,033,39,88,38,322,41,1*73
$GLGSV,2,1,05,65,42,162,31,71,19,031,26,72,56,077,33,78,23,281,38,3*7E
$GLGSV,2,2,05,88,38,322,33,3*47
$GLGSV,1,1,01,77,10,226,,0*4F
$GAGSV,2,1,07,02,27,209,35,05,31,141,22,15,13,280,25,18,66,308,48,2*7E
$GAGSV,2,2,07,30,38,270,44,34,57,316,42,36,49,056,30,2*43
$GAGSV,2,1,08,02,27,209,39,05,31,141,26,09,34,079,23,15,13,280,36,7*71
$GAGSV,2,2,08,18,66,308,48,30,38,270,43,34,57,316,38,36,49,056,44,7*7E
$GAGSV,1,1,04,03,01,183,,04,06,034,,11,06,083,,27,11,322,,0*76
$GBGSV,3,1,09,01,43,152,39,02,28,236,41,03,44,206,40,07,60,216,25,1*7D
$GBGSV,3,2,09,08,53,268,46,10,62,244,37,13,45,261,44,14,63,104,44,1*7E
$GBGSV,3,3,09,28,53,318,45,1*48
$GBGSV,2,1,07,01,43,152,40,03,44,206,36,07,60,216,34,08,53,268,44,3*77
$GBGSV,2,2,07,10,62,244,39,13,45,261,33,14,63,104,47,3*4E
$GBGSV,2,1,06,04,35,132,,05,08,256,,11,33,099,,21,04,035,,0*7D
$GNRMC,045709.00,A,3726.9323505,N,12639.3474193,E,0.006,,220622,,,F,V*17
$GNVTG,,T,,M,0.006,N,0.011,K,D*3E
$GNGNS,045709.00,3726.9323505,N,12639.3474193,E,FFFF,27,0.63,21.521,17.841,59.0,4095,V*32
$GNGGA,045709.00,3726.9323505,N,12639.3474193,E,5,12,0.63,21.521,M,17.841,M,59.0,4095*60
$GNGSA,A,3,06,19,20,17,14,12,11,,,,,,1.23,0.63,1.06,1*0F
$GNGSA,A,3,71,87,88,65,72,78,,,,,,,1.23,0.63,1.06,2*00
$GNGSA,A,3,02,15,36,34,30,,,,,,,,1.23,0.63,1.06,3*06
$GNGSA,A,3,07,03,10,28,08,02,14,01,13,,,,1.23,0.63,1.06,4*05
$GPGSV,3,1,12,02,21,281,27,03,23,044,36,06,58,312,41,11,25,276,37,1*63
$GPGSV,3,2,12,12,19,315,40,14,16,184,40,17,68,113,45,19,81,007,40,1*6D
$GPGSV,3,3,12,20,16,227,37,28,,,41,41,27,238,46,50,47,179,40,1*58
$GPGSV,1,1,01,03,23,044,40,5*57
$GPGSV,2,1,05,06,58,312,35,11,25,276,35,12,19,315,31,14,16,184,32,6*6A
$GPGSV,2,2,05,17,68,113,38,6*56
$GPGSV,1,1,04,01,01,078,,04,27,082,,09,30,119,,40,06,259,,0*6A
$GLGSV,2,1,08,65,42,162,39,71,19,031,24,72,56,077,45,78,23,281,28,1*7B
$GLGSV,2,2,08,79,10,330,32,86,14,093,25,87,55,033,39,88,38,322,40,1*71
$GLGSV,2,1,05,65,42,162,31,71,19,031,26,72,56,077,33,78,23,281,38,3*7E
$GLGSV,2,2,05,88,38,322,33,3*47
$GLGSV,1,1,01,77,10,226,,0*4F
$GAGSV,2,1,07,02,27,209,34,05,31,141,22,15,13,280,25,18,66,308,48,2*7F
$GAGSV,2,2,07,30,38,270,44,34,57,316,42,36,49,056,29,2*4B
$GAGSV,2,1,08,02,27,209,38,05,31,141,25,09,34,079,23,15,13,280,36,7*73
$GAGSV,2,2,08,18,66,308,48,30,38,270,43,34,57,316,38,36,49,056,44,7*7E
$GAGSV,1,1,04,03,01,183,,04,06,034,,11,06,083,,27,11,322,,0*76
$GBGSV,3,1,09,01,43,152,39,02,28,236,41,03,44,206,40,07,60,216,25,1*7D
$GBGSV,3,2,09,08,53,268,46,10,62,244,37,13,45,261,44,14,63,104,44,1*7E
$GBGSV,3,3,09,28,53,318,45,1*48
$GBGSV,2,1,07,01,43,152,40,03,44,206,37,07,60,216,34,08,53,268,44,3*76
$GBGSV,2,2,07,10,62,244,39,13,45,261,33,14,63,104,47,3*4E
$GBGSV,2,1,06,04,35,132,,05,08,256,,11,33,099,,21,04,035,,0*7D
$GBGSV,2,2,06,21,04,035,,23,04,218,,0*7E
$GNRMC,045710.00,A,3726.9327597,N,12639.3480156,E,0.107,,220622,,,D,V*10
$GNVTG,,T,,M,0.107,N,0.199,K,D*3F
$GNGNS,045710.00,3726.9327597,N,12639.3480156,E,DDDD,27,0.57,18.385,17.841,,4095,V*20
$GNGGA,045710.00,3726.9327597,N,12639.3480156,E,2,12,0.57,18.385,M,17.841,M,,4095*75
$GNGSA,A,3,06,19,20,17,14,12,11,,,,,,1.08,0.57,0.92,1*0D
$GNGSA,A,3,71,87,88,65,72,78,,,,,,,1.08,0.57,0.92,2*02
$GNGSA,A,3,02,15,36,34,30,,,,,,,,1.08,0.57,0.92,3*04
$GNGSA,A,3,07,03,10,28,08,02,14,01,13,,,,1.08,0.57,0.92,4*07
$GPGSV,3,1,12,02,21,281,27,03,23,044,36,06,58,312,41,11,25,276,37,1*63
$GPGSV,3,2,12,12,19,315,40,14,16,184,40,17,68,113,45,19,81,007,40,1*6D
$GPGSV,3,3,12,20,16,227,37,28,,,41,41,27,238,46,50,47,179,39,1*56
$GPGSV,1,1,01,03,23,044,40,5*57
$GPGSV,2,1,05,06,58,312,35,11,25,276,34,12,19,315,31,14,16,184,32,6*6B
$GPGSV,2,2,05,17,68,113,38,6*56
$GPGSV,1,1,04,01,01,078,,04,27,082,,09,30,119,,40,06,259,,0*6A
$GLGSV,2,1,08,65,42,162,39,71,19,031,24,72,56,077,45,78,23,281,28,1*7B
$GLGSV,2,2,08,79,10,330,32,86,14,093,15,87,55,033,39,88,38,322,40,1*72
$GLGSV,2,1,05,65,42,162,31,71,19,031,25,72,56,077,33,78,23,281,38,3*7D
$GLGSV,2,2,05,88,38,322,34,3*40
$GLGSV,1,1,01,77,10,226,,0*4F
$GAGSV,2,1,07,02,27,209,34,05,31,141,22,15,13,280,25,18,66,308,48,2*7F
$GAGSV,2,2,07,30,38,270,44,34,57,316,42,36,49,056,28,2*4A
$GAGSV,2,1,08,02,27,209,38,05,31,141,24,09,34,079,23,15,13,280,35,7*71
$GAGSV,2,2,08,18,66,308,48,30,38,270,43,34,57,316,38,36,49,056,44,7*7E
$GAGSV,1,1,04,03,01,183,,04,06,034,,11,06,083,,27,11,322,,0*76
$GBGSV,3,1,09,01,43,152,39,02,28,236,41,03,44,206,40,07,60,216,25,1*7D
$GBGSV,3,2,09,08,53,268,46,10,62,244,37,13,45,261,44,14,63,104,44,1*7E
$GBGSV,3,3,09,28,53,318,45,1*48
$GBGSV,2,1,08,01,43,152,40,02,28,236,27,03,44,206,37,07,60,216,34,3*71
$GBGSV,2,2,08,08,53,268,44,10,62,244,39,13,45,261,33,14,63,104,47,3*73
$GBGSV,2,1,06,04,35,132,,05,08,256,,11,33,099,,21,04,035,,0*7D
$GBGSV,2,2,06,21,04,035,,23,04,218,,0*7E
$GNRMC,045711.00,A,3726.9329032,N,12639.3481797,E,0.023,,220622,,,D,V*18
$GNVTG,,T,,M,0.023,N,0.042,K,D*3F
$GNGNS,045711.00,3726.9329032,N,12639.3481797,E,DDDD,27,0.57,17.851,17.841,,4095,V*22
$GNGGA,045711.00,3726.9329032,N,12639.3481797,E,2,12,0.57,17.851,M,17.841,M,,4095*77
$GNGSA,A,3,06,19,20,17,14,12,11,,,,,,1.06,0.57,0.89,1*09
$GNGSA,A,3,71,87,88,65,72,78,,,,,,,1.06,0.57,0.89,2*06
$GNGSA,A,3,02,15,36,34,30,,,,,,,,1.06,0.57,0.89,3*00
$GNGSA,A,3,07,03,10,28,08,02,14,01,13,,,,1.06,0.57,0.89,4*03
$GPGSV,3,1,12,02,21,281,27,03,23,044,37,06,58,312,41,11,25,276,36,1*63
$GPGSV,3,2,12,12,19,315,40,14,16,184,40,17,68,113,46,19,81,007,41,1*6F
$GPGSV,3,3,12,20,16,227,36,28,,,41,41,27,238,46,50,47,179,39,1*57
$GPGSV,1,1,01,03,23,044,40,5*57
$GPGSV,2,1,05,06,58,312,35,11,25,276,35,12,19,315,31,14,16,184,32,6*6A
$GPGSV,2,2,05,17,68,113,38,6*56
$GPGSV,1,1,04,01,01,078,,04,27,082,,09,30,119,,40,06,259,,0*6A
$GLGSV,2,1,08,65,42,162,40,71,19,031,29,72,56,077,45,78,23,281,28,1*78
$GLGSV,2,2,08,79,10,330,33,86,14,093,25,87,55,033,38,88,38,322,40,1*71
$GLGSV,2,1,05,65,42,162,31,71,19,031,26,72,56,077,34,78,23,281,38,3*79
$GLGSV,2,2,05,88,38,322,34,3*40
$GLGSV,1,1,01,77,10,226,,0*4F
$GAGSV,2,1,07,02,27,209,34,05,31,141,22,15,13,280,25,18,66,308,48,2*7F
$GAGSV,2,2,07,30,38,270,44,34,57,316,42,36,49,056,28,2*4A
$GAGSV,2,1,08,02,27,209,38,05,31,141,25,09,34,079,23,15,13,280,35,7*70
$GAGSV,2,2,08,18,66,308,48,30,38,270,43,34,57,316,38,36,49,056,44,7*7E
$GAGSV,1,1,04,03,01,183,,04,06,034,,11,06,083,,27,11,322,,0*76
$GBGSV,3,1,09,01,43,152,39,02,28,236,40,03,44,206,40,07,60,216,25,1*7C
$GBGSV,3,2,09,08,53,268,46,10,62,244,37,13,45,261,44,14,63,104,44,1*7E
$GBGSV,3,3,09,28,53,318,45,1*48
$GBGSV,2,1,07,01,43,152,40,03,44,206,37,07,60,216,34,08,53,268,44,3*76
$GBGSV,2,2,07,10,62,244,39,13,45,261,33,14,63,104,47,3*4E
$GBGSV,2,1,06,04,35,132,,05,08,256,,11,33,099,,21,04,035,,0*7D
$GBGSV,2,2,06,21,04,035,,23,04,218,,0*7E
$GNRMC,045712.00,A,3726.9329962,N,12639.3482624,E,0.004,,220622,,,D,V*18
$GNVTG,,T,,M,0.004,N,0.007,K,D*3B
$GNGNS,045712.00,3726.9329962,N,12639.3482624,E,DDDD,26,0.67,17.712,17.841,,4095,V*2D
$GNGGA,045712.00,3726.9329962,N,12639.3482624,E,2,12,0.67,17.712,M,17.841,M,,4095*79
$GNGSA,A,3,06,19,20,17,14,12,11,,,,,,1.26,0.67,1.07,1*0F
$GNGSA,A,3,87,88,65,72,78,,,,,,,,1.26,0.67,1.07,2*06
$GNGSA,A,3,02,15,36,34,30,,,,,,,,1.26,0.67,1.07,3*06
$GNGSA,A,3,07,03,10,28,08,02,14,01,13,,,,1.26,0.67,1.07,4*05
$GPGSV,3,1,12,02,21,281,26,03,23,044,37,06,58,312,41,11,25,276,36,1*62
$GPGSV,3,2,12,12,19,315,40,14,16,184,40,17,68,113,46,19,81,007,41,1*6F
$GPGSV,3,3,12,20,16,227,36,28,,,41,41,27,238,45,50,47,179,40,1*5A
$GPGSV,1,1,02,03,23,044,40,09,30,119,04,5*63
$GPGSV,2,1,05,06,58,312,36,11,25,276,35,12,19,315,31,14,16,184,32,6*69
$GPGSV,2,2,05,17,68,113,37,6*59
$GPGSV,1,1,03,01,01,078,,04,27,082,,40,06,259,,0*5E
$GLGSV,2,1,08,65,42,162,40,71,19,031,28,72,56,077,45,78,23,281,28,1*79
$GLGSV,2,2,08,79,10,330,32,86,14,093,04,87,55,033,38,88,38,322,37,1*73
$GLGSV,2,1,05,65,42,162,31,71,19,031,25,72,56,077,34,78,23,281,38,3*7A
$GLGSV,2,2,05,88,38,322,34,3*40
$GLGSV,1,1,01,77,10,226,,0*4F
$GAGSV,2,1,07,02,27,209,35,05,31,141,22,15,13,280,25,18,66,308,48,2*7E
$GAGSV,2,2,07,30,38,270,44,34,57,316,42,36,49,056,30,2*43
$GAGSV,2,1,08,02,27,209,38,05,31,141,25,09,34,079,25,15,13,280,35,7*76
$GAGSV,2,2,08,18,66,308,47,30,38,270,43,34,57,316,38,36,49,056,43,7*76
$GAGSV,1,1,04,03,01,183,,04,06,034,,11,06,083,,27,11,322,,0*76
$GBGSV,3,1,09,01,43,152,39,02,28,236,40,03,44,206,40,07,60,216,25,1*7C
$GBGSV,3,2,09,08,53,268,46,10,62,244,37,13,45,261,43,14,63,104,44,1*79
$GBGSV,3,3,09,28,53,318,45,1*48
$GBGSV,2,1,07,01,43,152,39,03,44,206,37,07,60,216,34,08,53,268,44,3*78
$GBGSV,2,2,07,10,62,244,39,13,45,261,33,14,63,104,47,3*4E
$GBGSV,2,1,06,04,35,132,,05,08,256,,11,33,099,,21,04,035,,0*7D
$GBGSV,2,2,06,21,04,035,,23,04,218,,0*7E
$GNRMC,045713.00,A,3726.9330559,N,12639.3482989,E,0.005,,220622,,,D,V*1C
$GNVTG,,T,,M,0.005,N,0.010,K,D*3C
$GNGNS,045713.00,3726.9330559,N,12639.3482989,E,DDDD,26,0.67,17.670,17.841,,4095,V*2D
$GNGGA,045713.00,3726.9330559,N,12639.3482989,E,2,12,0.67,17.670,M,17.841,M,,4095*79
$GNGSA,A,3,06,19,20,17,14,12,11,,,,,,1.26,0.67,1.07,1*0F
$GNGSA,A,3,87,88,65,72,78,,,,,,,,1.26,0.67,1.07,2*06
$GNGSA,A,3,02,15,36,34,30,,,,,,,,1.26,0.67,1.07,3*06
$GNGSA,A,3,07,03,10,28,08,02,14,01,13,,,,1.26,0.67,1.07,4*05
$GPGSV,3,1,12,02,21,281,26,03,23,044,37,06,58,312,41,11,25,276,36,1*62
$GPGSV,3,2,12,12,19,315,40,14,16,184,39,17,68,113,46,19,81,007,40,1*60
$GPGSV,3,3,12,20,16,227,36,28,,,42,41,27,238,45,50,47,179,39,1*57
$GPGSV,1,1,01,03,23,044,40,5*57
$GPGSV,2,1,06,06,58,312,36,09,30,119,07,11,25,276,35,12,19,315,31,6*60
$GPGSV,2,2,06,14,16,184,32,17,68,113,37,6*64
$GPGSV,1,1,03,01,01,078,,04,27,082,,40,06,259,,0*5E
$GLGSV,2,1,08,65,42,162,40,71,19,031,28,72,56,077,45,78,23,281,26,1*77
$GLGSV,2,2,08,79,10,330,32,86,14,093,08,87,55,033,38,88,38,322,36,1*7E
$GLGSV,2,1,05,65,42,162,31,71,19,031,25,72,56,077,34,78,23,281,38,3*7A
$GLGSV,2,2,05,88,38,322,34,3*40
$GLGSV,1,1,01,77,10,226,,0*4F
$GAGSV,2,1,07,02,27,209,34,05,31,141,22,15,13,280,25,18,66,308,48,2*7F
$GAGSV,2,2,07,30,38,270,44,34,57,316,42,36,49,056,29,2*4B
$GAGSV,2,1,08,02,27,209,38,05,31,141,25,09,34,079,25,15,13,280,34,7*77
$GAGSV,2,2,08,18,66,308,47,30,38,270,42,34,57,316,38,36,49,056,43,7*77
$GAGSV,1,1,04,03,01,183,,04,06,034,,11,06,083,,27,11,322,,0*76
$GBGSV,3,1,09,01,43,152,39,02,28,236,40,03,44,206,40,07,60,216,26,1*7F
$GBGSV,3,2,09,08,53,268,46,10,62,244,37,13,45,261,43,14,63,104,44,1*79
$GBGSV,3,3,09,28,53,318,44,1*49
$GBGSV,2,1,07,01,43,152,39,03,44,206,37,07,60,216,34,08,53,268,44,3*78
$GBGSV,2,2,07,10,62,244,39,13,45,261,33,14,63,104,46,3*4F
$GBGSV,2,1,06,04,35,132,,05,08,256,,11,33,099,,21,04,035,,0*7D
$GBGSV,2,2,06,21,04,035,,23,04,218,,0*7E
$GNRMC,045714.00,A,3726.9330919,N,12639.3483283,E,0.018,,220622,,,D,V*1F
$GNVTG,,T,,M,0.018,N,0.033,K,D*31
$GNGNS,045714.00,3726.9330919,N,12639.3483283,E,DDDD,26,0.67,17.702,17.841,,4095,V*26
$GNGGA,045714.00,3726.9330919,N,12639.3483283,E,2,12,0.67,17.702,M,17.841,M,,4095*72
$GNGSA,A,3,06,19,20,17,14,12,11,,,,,,1.26,0.67,1.07,1*0F
$GNGSA,A,3,87,88,65,72,78,,,,,,,,1.26,0.67,1.07,2*06
$GNGSA,A,3,02,15,36,34,30,,,,,,,,1.26,0.67,1.07,3*06
$GNGSA,A,3,07,03,10,28,08,02,14,01,13,,,,1.26,0.67,1.07,4*05
$GPGSV,3,1,11,03,23,044,36,06,58,312,41,11,25,276,36,12,19,315,40,1*66
$GPGSV,3,2,11,14,16,184,40,17,68,113,45,19,81,007,40,20,16,227,35,1*62
$GPGSV,3,3,11,28,,,42,41,27,238,45,50,47,179,39,1*63
$GPGSV,1,1,01,03,23,044,40,5*57
$GPGSV,2,1,05,06,58,312,36,11,25,276,35,12,19,315,31,14,16,184,32,6*69
$GPGSV,2,2,05,17,68,113,37,6*59
$GPGSV,2,1,05,01,01,078,,02,21,281,,04,27,082,,09,30,119,,0*6E
$GPGSV,2,2,05,09,30,119,,0*53
$GLGSV,2,1,08,65,42,162,40,71,19,031,29,72,56,077,45,78,23,281,26,1*76
$GLGSV,2,2,08,79,10,330,31,86,14,093,14,87,55,033,38,88,38,322,36,1*70
$GLGSV,2,1,05,65,42,162,31,71,19,031,25,72,56,077,34,78,23,281,38,3*7A
$GLGSV,2,2,05,88,38,322,34,3*40
$GLGSV,1,1,01,77,10,226,,0*4F
$GAGSV,2,1,07,02,27,209,34,05,31,141,23,15,13,280,25,18,66,308,48,2*7E
$GAGSV,2,2,07,30,38,270,44,34,57,316,42,36,49,056,30,2*43
$GAGSV,2,1,08,02,27,209,38,05,31,141,25,09,34,079,25,15,13,280,34,7*77
$GAGSV,2,2,08,18,66,308,48,30,38,270,42,34,57,316,38,36,49,056,43,7*78
$GAGSV,1,1,04,03,01,183,,04,06,034,,11,06,083,,27,11,322,,0*76
$GBGSV,3,1,09,01,43,152,39,02,28,236,41,03,44,206,40,07,60,216,25,1*7D
$GBGSV,3,2,09,08,53,268,46,10,62,244,37,13,45,261,43,14,63,104,44,1*79
$GBGSV,3,3,09,28,53,318,45,1*48
$GBGSV,2,1,07,01,43,152,39,03,44,206,37,07,60,216,34,08,53,268,44,3*78
$GBGSV,2,2,07,10,62,244,39,13,45,261,33,14,63,104,46,3*4F
$GBGSV,2,1,06,04,35,132,,05,08,256,,11,33,099,,21,04,035,,0*7D
$GBGSV,2,2,06,21,04,035,,23,04,218,,0*7E
$GNRMC,045715.00,A,3726.9331280,N,12639.3483479,E,0.012,,220622,,,D,V*1D
$GNVTG,,T,,M,0.012,N,0.022,K,D*3B
$GNGNS,045715.00,3726.9331280,N,12639.3483479,E,DDDD,26,0.67,17.760,17.841,,4095,V*2A
$GNGGA,045715.00,3726.9331280,N,12639.3483479,E,2,12,0.67,17.760,M,17.841,M,,4095*7E
$GNGSA,A,3,06,19,20,17,14,12,11,,,,,,1.26,0.67,1.07,1*0F
$GNGSA,A,3,87,88,65,72,78,,,,,,,,1.26,0.67,1.07,2*06
$GNGSA,A,3,02,15,36,34,30,,,,,,,,1.26,0.67,1.07,3*06
$GNGSA,A,3,07,03,10,28,08,02,14,01,13,,,,1.26,0.67,1.07,4*05
$GPGSV,3,1,11,03,23,044,37,06,58,312,41,11,25,276,38,12,19,315,40,1*69
$GPGSV,3,2,11,14,16,184,40,17,68,113,45,19,81,007,41,20,16,227,36,1*60
$GPGSV,3,3,11,28,,,42,41,27,238,45,50,47,179,39,1*63
$GPGSV,1,1,01,03,23,044,40,5*57
$GPGSV,2,1,05,06,58,312,36,11,25,276,35,12,19,315,31,14,16,184,32,6*69
$GPGSV,2,2,05,17,68,113,38,6*56
$GPGSV,2,1,05,01,01,078,,02,21,281,,04,27,082,,09,30,119,,0*6E
$GPGSV,2,2,05,09,30,119,,0*53
$GLGSV,2,1,08,65,42,162,39,71,19,031,31,72,56,077,44,78,23,281,26,1*70
$GLGSV,2,2,08,79,10,330,30,86,14,093,20,87,55,033,39,88,38,322,36,1*77
$GLGSV,2,1,05,65,42,162,30,71,19,031,25,72,56,077,34,78,23,281,38,3*7B
$GLGSV,2,2,05,88,38,322,35,3*41
$GLGSV,1,1,01,77,10,226,,0*4F
$GAGSV,2,1,07,02,27,208,34,05,31,141,22,15,13,280,24,18,66,308,48,2*7F
$GAGSV,2,2,07,30,38,270,44,34,57,316,42,36,49,056,30,2*43
$GAGSV,2,1,08,02,27,208,38,05,31,141,24,09,34,079,24,15,13,280,34,7*76
$GAGSV,2,2,08,18,66,308,48,30,38,270,43,34,57,316,38,36,49,056,43,7*79
$GAGSV,1,1,04,03,01,183,,04,06,034,,11,06,083,,27,11,322,,0*76
$GBGSV,3,1,09,01,43,152,38,02,28,236,40,03,44,206,40,07,60,216,24,1*7C
$GBGSV,3,2,09,08,53,268,46,10,62,244,37,13,45,261,44,14,63,104,44,1*7E
$GBGSV,3,3,09,28,53,318,44,1*49
$GBGSV,2,1,08,01,43,152,40,02,28,236,31,03,44,206,37,07,60,216,33,3*71
$GBGSV,2,2,08,08,53,268,44,10,62,244,39,13,45,261,33,14,63,104,46,3*72
$GBGSV,2,1,06,04,35,132,,05,08,256,,11,33,099,,21,04,035,,0*7D
$GBGSV,2,2,06,21,04,035,,23,04,218,,0*7E
$GNRMC,045716.00,A,3726.9331597,N,12639.3483667,E,0.020,,220622,,,D,V*13
$GNVTG,,T,,M,0.020,N,0.037,K,D*3E
$GNGNS,045716.00,3726.9331597,N,12639.3483667,E,DDDD,26,0.67,17.860,17.841,,4095,V*2A
$GNGGA,045716.00,3726.9331597,N,12639.3483667,E,2,12,0.67,17.860,M,17.841,M,,4095*7E
$GNGSA,A,3,06,19,20,17,14,12,11,,,,,,1.26,0.67,1.07,1*0F
$GNGSA,A,3,87,88,65,72,78,,,,,,,,1.26,0.67,1.07,2*06
$GNGSA,A,3,02,15,36,34,30,,,,,,,,1.26,0.67,1.07,3*06
$GNGSA,A,3,07,03,10,28,08,02,14,01,13,,,,1.26,0.67,1.07,4*05
$GPGSV,3,1,11,03,23,044,38,06,58,312,41,11,25,276,38,12,19,315,40,1*66
$GPGSV,3,2,11,14,16,184,39,17,68,113,45,19,81,007,41,20,16,227,36,1*6E
$GPGSV,3,3,11,28,,,42,41,27,238,46,50,47,179,39,1*60
$GPGSV,1,1,01,03,23,044,40,5*57
$GPGSV,2,1,05,06,58,312,35,11,25,276,35,12,19,315,31,14,16,184,32,6*6A
$GPGSV,2,2,05,17,68,113,37,6*59
$GPGSV,2,1,05,01,01,078,,02,21,281,,04,27,082,,09,30,119,,0*6E
$GPGSV,2,2,05,09,30,119,,0*53
$GLGSV,2,1,08,65,42,162,39,71,19,031,31,72,56,077,44,78,23,281,26,1*70
$GLGSV,2,2,08,79,10,330,30,86,14,093,21,87,55,033,39,88,38,322,34,1*74
$GLGSV,2,1,05,65,42,162,30,71,19,031,26,72,56,077,34,78,23,281,38,3*78
$GLGSV,2,2,05,88,38,322,35,3*41
$GLGSV,1,1,01,77,10,226,,0*4F
$GAGSV,2,1,07,02,27,208,34,05,31,141,22,15,13,280,24,18,66,308,48,2*7F
$GAGSV,2,2,07,30,38,270,44,34,57,316,42,36,49,056,30,2*43
$GAGSV,2,1,07,02,27,208,39,09,34,079,23,15,13,280,33,18,66,308,48,7*73
$GAGSV,2,2,07,30,38,270,43,34,57,316,37,36,49,056,43,7*47
$GAGSV,1,1,04,03,02,183,,04,06,034,,11,06,083,,27,11,322,,0*75
$GBGSV,3,1,09,01,43,152,38,02,28,236,40,03,44,206,40,07,60,216,22,1*7A
$GBGSV,3,2,09,08,53,268,46,10,62,244,37,13,45,261,44,14,63,104,43,1*79
$GBGSV,3,3,09,28,53,318,44,1*49
$GBGSV,3,1,09,01,43,152,40,02,28,236,32,03,44,206,37,07,60,216,32,3*73
$GBGSV,3,2,09,08,53,268,44,10,62,244,39,11,33,099,21,13,45,261,33,3*76
$GBGSV,3,3,09,14,63,104,46,3*4A
$GBGSV,2,1,05,04,35,132,,05,08,256,,21,04,035,,23,04,218,,0*70
$GBGSV,2,2,05,23,04,218,,0*4C
$GNRMC,045717.00,A,3726.9331932,N,12639.3483731,E,0.016,,220622,,,D,V*16
$GNVTG,,T,,M,0.016,N,0.030,K,D*3C
$GNGNS,045717.00,3726.9331932,N,12639.3483731,E,DDDD,26,0.67,17.974,17.841,,4095,V*2E
$GNGGA,045717.00,3726.9331932,N,12639.3483731,E,2,12,0.67,17.974,M,17.841,M,,4095*7A
$GNGSA,A,3,06,19,20,17,14,12,11,,,,,,1.26,0.67,1.07,1*0F
$GNGSA,A,3,87,88,65,72,78,,,,,,,,1.26,0.67,1.07,2*06
$GNGSA,A,3,02,15,36,34,30,,,,,,,,1.26,0.67,1.07,3*06
$GNGSA,A,3,07,03,10,28,08,02,14,01,13,,,,1.26,0.67,1.07,4*05
$GPGSV,3,1,11,03,23,044,38,06,58,312,41,11,25,276,38,12,19,315,39,1*68
$GPGSV,3,2,11,14,16,184,39,17,68,113,45,19,81,007,41,20,16,227,36,1*6E
$GPGSV,3,3,11,28,,,42,41,27,238,46,50,47,179,40,1*6E
$GPGSV,1,1,01,03,23,044,40,5*57
$GPGSV,2,1,05,06,58,312,35,11,25,276,35,12,19,315,31,14,16,184,32,6*6A
$GPGSV,2,2,05,17,68,113,38,6*56
$GPGSV,2,1,05,01,01,078,,02,21,281,,04,27,082,,09,30,119,,0*6E
$GPGSV,2,2,05,09,30,119,,0*53
$GLGSV,2,1,08,65,42,162,39,71,19,031,32,72,56,077,44,78,23,281,26,1*73
$GLGSV,2,2,08,79,10,330,29,86,14,093,12,87,55,033,40,88,38,322,31,1*77
$GLGSV,2,1,05,65,42,162,30,71,19,031,26,72,56,077,34,78,23,281,38,3*78
$GLGSV,2,2,05,88,38,322,36,3*42
$GLGSV,1,1,01,77,10,226,,0*4F
$GAGSV,2,1,07,02,27,208,35,05,31,141,22,15,13,280,26,18,66,308,48,2*7C
$GAGSV,2,2,07,30,38,270,44,34,57,316,41,36,49,056,29,2*48
$GAGSV,2,1,08,02,27,208,39,05,31,141,24,09,34,079,24,15,13,280,33,7*70
$GAGSV,2,2,08,18,66,308,47,30,38,270,42,34,57,316,38,36,49,056,43,7*77
$GAGSV,1,1,04,03,02,183,,04,06,034,,11,06,083,,27,11,322,,0*75
$GBGSV,2,1,08,01,43,152,38,02,28,236,40,03,44,206,40,08,53,268,46,1*7E
$GBGSV,2,2,08,10,62,244,38,13,45,261,44,14,63,104,44,28,53,318,44,1*77
$GBGSV,3,1,09,01,43,152,40,02,28,236,31,03,44,206,36,07,60,216,33,3*70
$GBGSV,3,2,09,08,53,268,44,10,62,244,39,11,33,099,21,13,45,261,33,3*76
$GBGSV,3,3,09,14,63,104,46,3*4A
$GBGSV,2,1,05,04,35,132,,05,08,256,,21,04,035,,23,04,218,,0*70
$GBGSV,2,2,05,23,04,218,,0*4C
$GNRMC,045718.00,A,3726.9332245,N,12639.3483660,E,0.010,,220622,,,D,V*12
$GNVTG,,T,,M,0.010,N,0.019,K,D*31
$GNGNS,045718.00,3726.9332245,N,12639.3483660,E,DDDD,25,0.67,18.047,17.841,,4095,V*29
$GNGGA,045718.00,3726.9332245,N,12639.3483660,E,2,12,0.67,18.047,M,17.841,M,,4095*7E
$GNGSA,A,3,06,19,20,17,14,12,11,,,,,,1.26,0.67,1.07,1*0F
$GNGSA,A,3,87,88,65,72,78,,,,,,,,1.26,0.67,1.07,2*06
$GNGSA,A,3,02,15,36,34,30,,,,,,,,1.26,0.67,1.07,3*06
$GNGSA,A,3,07,03,10,28,08,02,14,01,13,,,,1.26,0.67,1.07,4*05
$GPGSV,3,1,12,02,21,281,27,03,23,044,38,06,58,312,41,11,25,276,40,1*6D
$GPGSV,3,2,12,12,19,315,40,14,16,184,39,17,68,113,46,19,81,007,41,1*61
$GAGSV,1,1,04,03,02,183,,04,06,034,,11,06,083,,27,11,322,,0*75
$GBGSV,2,1,08,01,43,152,38,02,28,236,40,03,44,206,39,08,53,268,46,1*70
$GBGSV,2,2,08,10,62,244,38,13,45,261,44,14,63,104,43,28,53,318,44,1*70
$GBGSV,3,1,09,01,43,152,40,02,28,236,30,03,44,206,36,07,60,216,33,3*71
$GBGSV,3,2,09,08,53,268,44,10,62,244,39,11,33,099,22,13,45,261,33,3*75
$GBGSV,3,3,09,14,63,104,46,3*4A
$GBGSV,2,1,05,04,35,132,,05,08,256,,21,04,035,,23,04,218,,0*70
$GBGSV,2,2,05,23,04,218,,0*4C
$GNRMC,045719.00,A,3726.9332465,N,12639.3483673,E,0.012,,220622,,,D,V*17
$GNVTG,,T,,M,0.012,N,0.023,K,D*3A
$GNGNS,045719.00,3726.9332465,N,12639.3483673,E,DDDD,25,0.67,18.143,17.841,,4095,V*2B
$GNGGA,045719.00,3726.9332465,N,12639.3483673,E,2,12,0.67,18.143,M,17.841,M,,4095*7C
$GNGSA,A,3,06,19,20,17,14,12,11,,,,,,1.26,0.67,1.07,1*0F
$GNGSA,A,3,87,88,65,72,78,,,,,,,,1.26,0.67,1.07,2*06
$GNGSA,A,3,02,15,36,34,30,,,,,,,,1.26,0.67,1.07,3*06
$GNGSA,A,3,07,03,10,28,08,02,14,01,13,,,,1.26,0.67,1.07,4*05
$GPGSV,3,1,12,02,21,281,29,03,23,044,38,06,58,312,41,11,25,276,38,1*6C
$GPGSV,3,2,12,12,19,315,40,14,16,184,39,17,68,113,46,19,81,007,41,1*61
$GPGSV,3,3,12,20,16,227,36,28,,,42,41,27,238,46,50,47,179,40,1*5A
$GPGSV,1,1,01,03,23,044,40,5*57
$GPGSV,2,1,05,06,58,312,36,11,25,276,35,12,19,315,30,14,16,184,32,6*68
$GPGSV,2,2,05,17,68,113,37,6*59
$GPGSV,1,1,04,01,01,078,,04,27,082,,09,30,119,,40,06,259,,0*6A
$GLGSV,2,1,07,65,42,162,40,72,56,077,44,78,23,281,23,79,10,330,27,1*70
$GLGSV,2,2,07,86,14,093,24,87,55,033,40,88,38,322,34,1*4C
$GLGSV,2,1,05,65,42,162,29,71,19,031,25,72,56,077,35,78,23,281,37,3*7D
$GLGSV,2,2,05,88,38,322,36,3*42
$GLGSV,1,1,01,77,10,226,,0*4F
$GAGSV,2,1,07,02,27,208,34,05,31,141,24,15,13,280,26,18,66,308,48,2*7B
$GAGSV,2,2,07,30,38,270,44,34,57,316,41,36,49,056,30,2*40
$GAGSV,2,1,07,02,27,208,38,05,31,141,25,15,13,280,34,18,66,308,47,7*7F
$GAGSV,2,2,07,30,38,270,42,34,57,316,38,36,49,056,43,7*49
$GAGSV,2,1,05,03,02,183,,04,06,034,,09,34,079,,11,06,083,,0*71
$GAGSV,2,2,05,11,06,083,,0*4C
$GBGSV,2,1,08,01,43,152,39,02,28,236,41,03,44,206,40,08,53,268,46,1*7E
$GBGSV,2,2,08,10,62,244,38,13,45,261,44,14,63,104,44,28,53,318,44,1*77
$GBGSV,3,1,09,01,43,152,40,02,28,236,29,03,44,206,36,07,60,216,34,3*7E
$GBGSV,3,2,09,08,53,268,44,10,62,244,39,11,33,099,20,13,45,261,34,3*70
$GBGSV,3,3,09,14,63,104,46,3*4A
$GBGSV,2,1,05,04,35,132,,05,08,256,,21,04,035,,23,04,218,,0*70
$GBGSV,2,2,05,23,04,218,,0*4C
$GNRMC,045720.00,A,3726.9332499,N,12639.3483719,E,0.010,,220622,,,D,V*11
$GNVTG,,T,,M,0.010,N,0.019,K,D*31
$GNGNS,045720.00,3726.9332499,N,12639.3483719,E,DDDD,26,0.67,18.273,17.841,,4095,V*2C
$GNGGA,045720.00,3726.9332499,N,12639.3483719,E,2,12,0.67,18.273,M,17.841,M,,4095*78
$GNGSA,A,3,06,19,20,17,14,12,11,,,,,,1.26,0.67,1.07,1*0F
$GNGSA,A,3,87,88,65,72,78,,,,,,,,1.26,0.67,1.07,2*06
$GNGSA,A,3,02,15,36,34,30,,,,,,,,1.26,0.67,1.07,3*06
$GNGSA,A,3,07,03,10,28,08,02,14,01,13,,,,1.26,0.67,1.07,4*05
$GPGSV,3,1,12,02,21,281,29,03,23,044,39,06,58,312,41,11,25,276,37,1*62
$GPGSV,3,2,12,12,19,315,40,14,16,184,39,17,68,113,46,19,81,007,41,1*61
$GPGSV,3,3,12,20,16,227,37,28,,,42,41,27,238,46,50,47,179,40,1*5B
$GPGSV,1,1,01,03,23,044,40,5*57
$GPGSV,2,1,05,06,58,312,36,11,25,276,35,12,19,315,30,14,16,184,33,6*69
$GPGSV,2,2,05,17,68,113,37,6*59
$GPGSV,1,1,04,01,01,078,,04,27,082,,09,30,119,,40,06,259,,0*6A
$GLGSV,2,1,07,65,42,162,40,72,56,077,44,78,23,281,22,79,10,330,26,1*70
$GLGSV,2,2,07,86,14,093,23,87,55,033,40,88,38,322,34,1*4B
$GLGSV,2,1,05,65,42,162,30,71,19,031,23,72,56,077,34,78,23,281,37,3*72
$GLGSV,2,2,05,88,38,322,37,3*43
$GLGSV,1,1,01,77,10,226,,0*4F
$GAGSV,2,1,07,02,27,208,35,05,31,141,25,15,13,280,26,18,66,308,48,2*7B
$GAGSV,2,2,07,30,38,270,43,34,57,316,42,36,49,056,31,2*45
$GAGSV,2,1,07,02,27,208,38,05,31,141,25,15,13,280,34,18,66,308,47,7*7F
$GAGSV,2,2,07,30,38,270,42,34,57,316,38,36,49,056,43,7*49
$GNRMC,045721.00,A,3726.9332564,N,12639.3483716,E,0.007,,220622,,,D,V*1A
$GNVTG,,T,,M,0.007,N,0.012,K,D*3C
$GNGNS,045721.00,3726.9332564,N,12639.3483716,E,DDDD,26,0.67,18.393,17.841,,4095,V*2E
$GNGGA,045721.00,3726.9332564,N,12639.3483716,E,2,12,0.67,18.393,M,17.841,M,,4095*7A
$GNGSA,A,3,06,02,19,20,17,14,12,11,,,,,1.26,0.67,1.07,1*0D
$GNGSA,A,3,87,88,65,72,78,,,,,,,,1.26,0.67,1.07,2*06
$GNGSA,A,3,02,15,36,34,30,,,,,,,,1.26,0.67,1.07,3*06
$GNGSA,A,3,07,03,10,28,08,02,14,01,13,,,,1.26,0.67,1.07,4*05
$GPGSV,3,1,12,02,21,281,28,03,23,044,39,06,58,312,41,11,25,276,37,1*63
$GPGSV,3,2,12,12,19,315,40,14,16,184,39,17,68,113,46,19,81,007,42,1*62
$GPGSV,3,3,12,20,16,227,36,28,,,42,41,27,238,45,50,47,179,40,1*59
$GPGSV,1,1,01,03,23,044,40,5*57
$GPGSV,2,1,05,06,58,312,36,11,25,276,35,12,19,315,30,14,16,184,32,6*68
$GPGSV,2,2,05,17,68,113,37,6*59
$GPGSV,1,1,04,01,01,078,,04,27,082,,09,30,119,,40,06,259,,0*6A
$GLGSV,2,1,07,65,42,162,40,72,56,077,44,78,23,281,20,79,10,330,24,1*70
$GLGSV,2,2,07,86,14,093,30,87,55,033,40,88,38,322,33,1*4E
$GLGSV,2,1,05,65,42,162,29,71,19,031,22,72,56,077,35,78,23,281,37,3*7A
$GLGSV,2,2,05,88,38,322,37,3*43
$GLGSV,1,1,01,77,10,226,,0*4F
$GAGSV,2,1,07,02,27,208,35,05,31,141,25,15,13,280,26,18,66,308,48,2*7B
$GAGSV,2,2,07,30,38,270,43,34,57,316,42,36,49,056,31,2*45
$GAGSV,2,1,08,02,27,208,38,05,31,141,25,09,34,079,25,15,13,280,34,7*76
$GAGSV,2,2,08,18,66,308,47,30,38,270,42,34,57,316,39,36,49,056,43,7*76
$GAGSV,1,1,04,03,02,183,,04,06,034,,11,06,083,,27,11,322,,0*75
$GBGSV,2,1,08,01,43,152,39,02,28,236,41,03,44,206,39,08,53,268,46,1*70
$GBGSV,2,2,08,10,62,244,38,13,45,261,44,14,63,104,44,28,53,318,44,1*77
$GBGSV,3,1,09,01,43,152,39,02,28,236,30,03,44,206,36,07,60,216,35,3*79
$GBGSV,3,2,09,08,53,268,44,10,62,244,39,11,33,099,18,13,45,261,34,3*7B
$GBGSV,3,3,09,14,63,104,46,3*4A
$GBGSV,2,1,05,04,35,132,,05,08,256,,21,04,035,,23,04,218,,0*70
$GBGSV,2,2,05,23,04,218,,0*4C
$GNRMC,045722.00,A,3726.9332656,N,12639.3483670,E,0.002,,220622,,,D,V*1F
$GNVTG,,T,,M,0.002,N,0.004,K,D*3E
$GNGNS,045722.00,3726.9332656,N,12639.3483670,E,DDDD,26,0.64,18.496,17.841,,4095,V*2F
$GNGGA,045722.00,3726.9332656,N,12639.3483670,E,2,12,0.64,18.496,M,17.841,M,,4095*7B
$GNGSA,A,3,06,19,20,17,14,12,11,,,,,,1.21,0.64,1.03,1*0F
$GNGSA,A,3,87,88,65,72,78,,,,,,,,1.21,0.64,1.03,2*06
$GNGSA,A,3,05,02,15,36,34,30,,,,,,,1.21,0.64,1.03,3*03
$GNGSA,A,3,07,03,10,28,08,02,14,01,13,,,,1.21,0.64,1.03,4*05
$GPGSV,3,1,12,02,21,281,26,03,23,044,38,06,58,312,41,11,25,276,36,1*6D
$GPGSV,3,2,12,12,19,315,40,14,16,184,39,17,68,113,46,19,81,007,42,1*62
$GPGSV,3,3,12,20,16,227,36,28,,,43,41,27,238,45,50,47,179,40,1*58
$GPGSV,1,1,01,03,23,044,40,5*57
$GPGSV,2,1,05,06,58,312,35,11,25,276,36,12,19,315,29,14,16,184,32,6*60
$GPGSV,2,2,05,17,68,113,37,6*59
$GPGSV,1,1,04,01,01,078,,04,27,082,,09,30,119,,40,06,259,,0*6A
$GLGSV,2,1,07,65,42,162,40,72,56,077,45,78,23,281,20,79,10,330,22,1*77
$GLGSV,2,2,07,86,14,093,20,87,55,033,40,88,38,322,32,1*4E
$GLGSV,2,1,05,65,42,162,30,71,19,031,20,72,56,077,35,78,23,281,37,3*70
$GLGSV,2,2,05,88,38,322,37,3*43
$GLGSV,1,1,01,77,10,226,,0*4F
$GAGSV,2,1,07,02,27,208,34,05,31,141,25,15,13,280,25,18,66,308,49,2*78
$GAGSV,2,2,07,30,38,270,44,34,57,316,42,36,49,056,31,2*42
$GAGSV,2,1,08,02,27,208,37,05,31,141,25,09,34,079,23,15,13,280,34,7*7F
$GAGSV,2,2,08,18,66,308,47,30,38,270,42,34,57,316,39,36,49,056,43,7*76
$GAGSV,1,1,04,03,02,183,,04,06,034,,11,06,083,,27,11,322,,0*75
$GBGSV,2,1,08,01,43,152,39,02,28,236,41,03,44,206,39,08,53,268,46,1*70
$GBGSV,2,2,08,10,62,244,38,13,45,261,44,14,63,104,44,28,53,318,44,1*77
$GBGSV,3,1,09,01,43,152,40,02,28,236,29,03,44,206,34,07,60,216,35,3*7D
$GBGSV,3,2,09,08,53,268,44,10,62,244,39,11,33,099,18,13,45,261,34,3*7B
$GBGSV,3,3,09,14,63,104,46,3*4A
$GBGSV,2,1,05,04,35,132,,05,08,256,,21,04,035,,23,04,218,,0*70
$GBGSV,2,2,05,23,04,218,,0*4C
$GNRMC,045723.00,A,3726.9332593,N,12639.3483567,E,0.005,,220622,,,D,V*16
$GNVTG,,T,,M,0.005,N,0.009,K,D*34
$GNGNS,045723.00,3726.9332593,N,12639.3483567,E,DDDD,27,0.64,18.611,17.841,,4095,V*2D
$GNGGA,045723.00,3726.9332593,N,12639.3483567,E,2,12,0.64,18.611,M,17.841,M,,4095*78
$GNGSA,A,3,06,19,20,17,14,12,11,,,,,,1.21,0.64,1.03,1*0F
$GNGSA,A,3,87,88,65,72,78,,,,,,,,1.21,0.64,1.03,2*06
$GNGSA,A,3,05,02,15,36,34,30,,,,,,,1.21,0.64,1.03,3*03
$GNGSA,A,3,07,03,10,28,08,02,14,01,13,,,,1.21,0.64,1.03,4*05
$GPGSV,3,1,12,03,23,044,39,06,58,312,40,09,30,119,26,11,25,276,36,1*64
$GPGSV,3,2,12,12,19,315,41,14,16,184,39,17,68,113,46,19,81,007,42,1*63
$GPGSV,3,3,12,20,16,227,35,28,,,43,41,27,238,45,50,47,179,39,1*55
$GPGSV,1,1,01,03,23,044,40,5*57
$GPGSV,2,1,05,06,58,312,36,11,25,276,36,12,19,315,29,14,16,184,33,6*62
$GPGSV,2,2,05,17,68,113,37,6*59
$GPGSV,1,1,04,01,01,078,,02,21,281,,04,27,082,,40,06,259,,0*63
$GLGSV,2,1,07,65,42,162,41,72,56,077,44,78,23,281,22,79,10,330,18,1*7C
$GLGSV,2,2,07,86,14,093,14,87,55,033,40,88,38,322,32,1*49
$GLGSV,2,1,05,65,42,162,30,71,19,031,18,72,56,077,35,78,23,281,36,3*7A
$GLGSV,2,2,05,88,38,322,37,3*43
$GLGSV,1,1,01,77,10,226,,0*4F
$GAGSV,2,1,07,02,27,208,34,05,31,141,24,15,13,280,24,18,66,308,49,2*78
$GAGSV,2,2,07,30,38,270,44,34,57,316,42,36,49,056,31,2*42
$GAGSV,2,1,07,02,27,208,37,05,31,141,25,15,13,280,34,18,66,308,47,7*70
$GAGSV,2,2,07,30,38,270,43,34,57,316,39,36,49,056,43,7*49
$GAGSV,2,1,05,03,02,183,,04,06,034,,09,34,079,,11,06,083,,0*71
$GAGSV,2,2,05,11,06,083,,0*4C
$GBGSV,2,1,08,01,43,152,38,02,28,236,41,03,44,206,40,08,53,268,46,1*7F
$GBGSV,2,2,08,10,62,244,38,13,45,261,44,14,63,104,44,28,53,318,44,1*77
$GBGSV,3,1,09,01,43,152,41,02,28,236,30,03,44,206,35,07,60,216,35,3*75
$GBGSV,3,2,09,08,53,268,44,10,62,244,38,11,33,099,19,13,45,261,34,3*7B
$GBGSV,3,3,09,14,63,104,46,3*4A
$GBGSV,2,1,05,04,35,132,,05,08,256,,21,04,035,,23,04,218,,0*70
$GBGSV,2,2,05,23,04,218,,0*4C
$GNRMC,045724.00,A,3726.9332464,N,12639.3483453,E,0.016,,220622,,,D,V*1C
$GNVTG,,T,,M,0.016,N,0.029,K,D*34
$GNGNS,045724.00,3726.9332464,N,12639.3483453,E,DDDD,26,0.64,18.717,17.841,,4095,V*23
$GNGGA,045724.00,3726.9332464,N,12639.3483453,E,2,12,0.64,18.717,M,17.841,M,,4095*77
