$GNRMC,031247.00,A,3726.9405995,N,12639.3711327,E,0.010,,210622,,,R,V*00
$GNVTG,,T,,M,0.010,N,0.018,K,D*30
$GNGNS,031247.00,3726.9405995,N,12639.3711327,E,RRRR,25,0.62,22.184,17.842,2.0,4095,V*03
$GNGGA,031247.00,3726.9405995,N,12639.3711327,E,4,12,0.62,22.184,M,17.842,M,2.0,4095*52
$GNGSA,A,3,03,17,01,06,14,19,,,,,,,1.19,0.62,1.01,1*03
$GNGSA,A,3,71,75,76,69,85,,,,,,,,1.19,0.62,1.01,2*08
$GNGSA,A,3,03,13,30,21,15,27,,,,,,,1.19,0.62,1.01,3*0E
$GPGSV,3,1,09,01,37,047,28,03,58,090,40,06,27,252,44,14,66,212,27,1*67
$GPGSV,3,2,09,17,59,328,43,19,37,306,46,21,14,059,24,28,,,47,1*56
$GPGSV,3,3,09,30,04,210,26,1*5D
$GPGSV,2,1,06,01,37,047,33,03,58,090,38,06,27,252,31,08,05,108,10,6*6D
$GPGSV,2,2,06,14,66,212,21,17,59,328,35,6*67
$GPGSV,1,1,02,04,02,125,,50,47,179,,0*6E
$GLGSV,2,1,06,69,14,031,20,70,34,094,32,71,16,145,18,75,33,211,24,1*75
$GLGSV,2,2,06,76,45,288,46,85,46,029,36,1*7F
$GLGSV,2,1,05,69,14,031,27,71,16,145,26,75,33,211,15,76,45,288,37,3*76
$GLGSV,2,2,05,85,46,029,25,3*4C
$GLGSV,1,1,04,77,13,332,,84,02,070,,86,46,312,,87,01,269,,0*7B
$GAGSV,2,1,07,03,14,097,36,13,55,278,33,15,57,033,44,18,73,053,47,2*7E
$GAGSV,2,2,07,21,43,302,46,27,58,210,27,30,15,164,27,2*49
$GAGSV,2,1,07,03,14,097,27,13,55,278,39,15,57,033,47,18,73,053,44,7*71
$GAGSV,2,2,07,21,43,302,44,27,58,210,24,30,15,164,29,7*43
$GAGSV,2,1,05,01,03,327,,05,06,048,,08,05,145,,26,06,252,,0*73
$GAGSV,2,2,05,2$GBGSV,3,1,11,02,,,37,03,43,205,27,04,35,132,42,07,80,254,37,1*48
$GBGSV,3,2,11,08,46,224,16,10,70,291,38,14,36,083,44,27,28,287,44,1*70
$GBGSV,3,3,11,28,67,349,43,33,39,119,44,37,35,243,46,1*42
$GBGSV,2,1,06,01,43,152,31,04,35,132,44,07,80,254,40,08,46,224,28,3*7D
$GBGSV,2,2,06,10,70,291,37,14,36,083,44,3*71
$GBGSV,1,1,02,13,36,225,,23,14,192,,0*79
$GNGNS,031248.00,3726.9405984,N,12639.3711345,E,RRRR,25,0.62,22.181,17.842,2.0,4095,V*0D
$GNGGA,031248.00,3726.9405984,N,12639.3711345,E,4,12,0.62,22.181,M,17.842,M,2.0,4095*5C
$GNGSA,A,3,03,17,01,06,14,19,,,,,,,1.19,0.62,1.01,1*03
$GNRMC,031249.00,A,3726.9405963,N,12639.3711307,E,0.012,,210622,,,R,V*07
$GNVTG,,T,,M,0.012,N,0.022,K,D*3B
$GNGNS,031249.00,3726.9405963,N,12639.3711307,E,RRRR,24,0.69,22.177,17.842,2.0,4095,V*00
$GNGGA,031249.00,3726.9405963,N,12639.3711307,E,4,12,0.69,22.177,M,17.842,M,2.0,4095*50
$GNGSA,A,3,03,17,01,06,14,19,,,,,,,1.38,0.69,1.19,1*02
$GNGSA,A,3,71,75,76,69,85,,,,,,,,1.38,0.69,1.19,2*09
$GNGSA,A,3,03,13,30,21,15,27,,,,,,,1.38,0.69,1.19,3*0F
$GNGSA,A,3,33,07,04,37,28,10,27,14,01,08,,,1.38,0.69,1.19,4*0D
$GPGSV,2,1,08,01,37,047,27,03,58,090,39,06,27,252,45,14,66,212,27,1*67
$GPGSV,2,2,08,17,59,328,44,19,37,306,47,28,,,46,30,04,210,24,1*5F
$GPGSV,2,1,05,01,37,047,32,03,58,090,38,06,27,252,30,14,66,212,19,6*67
$GPGSV,2,2,05,17,59,328,34,6*52
$GPGSV,1,1,04,04,02,125,,08,05,108,,21,14,059,,50,47,179,,0*66
$GLGSV,2,1,06,69,14,031,20,70,34,094,31,71,16,145,23,75,33,211,22,1*78
$GLGSV,2,2,06,76,45,288,44,85,46,029,34,1*7F
$GLGSV,2,1,05,69,14,031,25,71,16,145,27,75,33,211,17,76,45,288,37,3*77
$GLGSV,2,2,05,85,46,029,20,3*49
$GLGSV,1,1,04,77,13,332,,84,02,070,,86,46,312,,87,01,269,,0*7B
$GAGSV,2,1,07,03,14,097,37,13,55,278,35,15,57,033,43,18,73,053,47,2*7E
$GAGSV,2,2,07,21,43,302,46,27,58,209,28,30,15,164,28,2*41
$GAGSV,2,1,07,03,14,097,31,13,55,278,39,15,57,033,47,18,73,053,43,7*71
$GAGSV,2,2,07,21,43,302,44,27,58,209,21,30,15,164,29,7*4E
$GAGSV,2,1,05,01,03,327,,05,06,048,,08,05,145,,26,06,252,,0*73
$GAGSV,2,2,05,26,06,252,,0*46
$GBGSV,3,1,10,02,,,37,04,35,132,42,07,80,254,38,08,46,224,12,1*4D
$GBGSV,3,2,10,10,70,291,38,14,36,083,43,27,28,287,44,28,67,349,43,1*7D
$GBGSV,3,3,10,33,39,119,44,37,35,243,46,1*71
$GBGSV,2,1,06,01,43,152,31,04,35,132,44,07,80,254,38,08,46,224,28,3*72
$GBGSV,2,2,06,10,70,291,34,14,36,083,43,3*75
$GBGSV,1,1,03,03,43,205,,13,36,225,,23,14,192,,0*4B
$GNRMC,031250.00,A,3726.9405957,N,12639.3711360,E,0.011,,210622,,,R,V*0A
$GNVTG,,T,,M,0.011,N,0.020,K,D*3A
$GNGNS,031250.00,3726.9405957,N,12639.3711360,E,RRRR,26,0.62,22.174,17.842,2.0,4095,V*04
$GNGGA,031250.00,3726.9405957,N,12639.3711360,E,4,12,0.62,22.174,M,17.842,M,2.0,4095*56
$GNGSA,A,3,03,17,01,06,14,19,,,,,,,1.19,0.62,1.01,1*03
$GNGSA,A,3,71,75,76,69,85,,,,,,,,1.19,0.62,1.01,2*08
$GNGSA,A,3,03,13,30,21,15,27,,,,,,,1.19,0.62,1.01,3*0E
$GNGSA,A,3,33,07,04,37,28,10,27,14,01,08,,,1.19,0.62,1.01,4*0C
$GPGSV,2,1,08,01,37,047,27,03,58,090,41,06,27,252,44,14,66,212,27,1*69
$GPGSV,2,2,08,17,59,328,44,19,37,306,47,28,,,45,30,04,210,22,1*5A
$GPGSV,2,1,05,01,37,047,32,03,58,090,39,06,27,252,31,14,66,212,18,6*66
$GPGSV,2,2,05,17,59,328,34,6*52
$GPGSV,1,1,04,04,02,125,,08,05,108,,21,14,059,,50,47,179,,0*66
$GLGSV,2,1,06,69,14,031,22,70,34,094,32,71,16,145,20,75,33,211,22,1*7A
$GLGSV,2,2,06,76,45,288,46,85,46,029,40,1*7E
$GLGSV,2,1,05,69,14,031,24,71,16,145,27,75,33,211,17,76,45,288,37,3*76
$GLGSV,2,2,05,85,46,029,18,3*42
$GLGSV,1,1,04,77,13,332,,84,02,070,,86,46,312,,87,01,269,,0*7B
$GAGSV,2,1,07,03,14,097,36,13,55,278,33,15,57,033,44,18,73,053,47,2*7E
$GAGSV,2,2,07,21,43,302,46,27,58,209,27,30,15,164,28,2*4E
$GAGSV,2,1,07,03,14,097,29,13,55,278,39,15,57,033,46,18,73,053,43,7*79
$GAGSV,2,2,07,21,43,302,44,27,58,209,20,30,15,164,28,7*4E
$GAGSV,2,1,05,01,03,327,,05,06,048,,08,05,145,,26,06,252,,0*73
$GAGSV,2,2,05,26,06,252,,0*46
$GBGSV,3,1,10,02,,,36,04,35,132,41,07,80,254,37,08,46,224,10,1*42
$GBGSV,3,2,10,10,70,291,36,14,36,083,43,27,28,287,45,28,67,349,41,1*70
$GBGSV,3,3,10,33,39,119,43,37,35,243,46,1*76
$GBGSV,2,1,06,01,43,152,31,04,35,132,44,07,80,254,38,08,46,224,28,3*72
$GBGSV,2,2,06,10,70,291,34,14,36,083,45,3*73
$GBGSV,1,1,03,03,43,205,,13,36,225,,23,14,192,,0*4B
$GNRMC,031251.00,A,3726.9405994,N,12639.3711364,E,0.007,,210622,,,R,V*07
$GNVTG,,T,,M,0.007,N,0.013,K,D*3D
$GNGNS,031251.00,3726.9405994,N,12639.3711364,E,RRRR,25,0.69,22.181,17.842,2.0,4095,V*0C
$GNGGA,031251.00,3726.9405994,N,12639.3711364,E,4,12,0.69,22.181,M,17.842,M,2.0,4095*5D
$GNGSA,A,3,03,17,01,06,14,19,,,,,,,1.38,0.69,1.19,1*02
$GNGSA,A,3,71,75,76,69,85,,,,,,,,1.38,0.69,1.19,2*09
$GNGSA,A,3,03,13,30,21,15,27,,,,,,,1.38,0.69,1.19,3*0F
$GNGSA,A,3,33,07,04,37,28,10,27,14,01,08,,,1.38,0.69,1.19,4*0D
$GPGSV,2,1,08,01,37,047,27,03,58,090,41,06,27,252,44,14,66,212,27,1*69
$GPGSV,2,2,08,17,59,328,43,19,37,306,47,28,,,45,30,04,210,23,1*5C
$GPGSV,2,1,05,01,37,047,33,03,58,090,41,06,27,252,32,14,66,212,19,6*6A
$GPGSV,2,2,05,17,59,328,35,6*53
$GPGSV,1,1,04,04,02,125,,08,05,108,,21,14,059,,50,47,179,,0*66
$GLGSV,2,1,06,69,14,031,22,70,34,094,32,71,16,145,18,75,33,211,23,1*70
$GLGSV,2,2,06,76,45,288,46,85,46,029,40,1*7E
$GLGSV,2,1,05,69,14,031,25,71,16,145,27,75,33,211,17,76,45,288,37,3*77
$GLGSV,2,2,05,85,46,029,18,3*42
$GLGSV,1,1,04,77,13,332,,84,02,070,,86,46,312,,87,01,269,,0*7B
$GAGSV,2,1,07,03,14,097,35,13,55,278,32,15,57,033,44,18,73,053,47,2*7C
$GAGSV,2,2,07,21,43,302,46,27,58,209,27,30,15,164,29,2*4F
$GAGSV,2,1,07,03,14,097,27,13,55,278,38,15,57,033,46,18,73,053,43,7*76
$GAGSV,2,2,07,21,43,302,44,27,58,209,19,30,15,164,28,7*44
$GAGSV,2,1,05,01,03,327,,05,06,048,,08,05,145,,26,06,252,,0*73
$GAGSV,2,2,05,26,06,252,,0*46
$GBGSV,3,1,10,02,,,37,04,35,132,42,07,80,254,37,08,46,224,13,1*43
$GBGSV,3,2,10,10,70,291,36,14,36,083,43,27,28,287,45,28,67,349,41,1*70
$GBGSV,3,3,10,33,39,119,43,37,35,243,46,1*76
$GBGSV,2,1,06,01,43,152,31,04,35,132,43,07,80,254,38,08,46,224,28,3*75
$GBGSV,2,2,06,10,70,291,35,14,36,083,45,3*72
$GBGSV,1,1,03,03,43,205,,13,36,225,,23,14,192,,0*4B
$GNRMC,031252.00,A,3726.9405935,N,12639.3711375,E,0.009,,210622,,,R,V*01
$GNVTG,,T,,M,0.009,N,0.016,K,D*36
$GNGNS,031252.00,3726.9405935,N,12639.3711375,E,RRRR,26,0.62,22.176,17.842,2.0,4095,V*04
$GNGGA,031252.00,3726.9405935,N,12639.3711375,E,4,12,0.62,22.176,M,17.842,M,2.0,4095*56
$GNGSA,A,3,03,17,01,06,14,19,,,,,,,1.19,0.62,1.01,1*03
$GNGSA,A,3,71,75,76,69,85,,,,,,,,1.19,0.62,1.01,2*08
$GNGSA,A,3,03,13,30,21,15,27,,,,,,,1.19,0.62,1.01,3*0E
$GNGSA,A,3,33,07,04,37,28,10,27,14,01,08,,,1.19,0.62,1.01,4*0C
$GPGSV,2,1,08,01,37,047,26,03,58,090,41,06,27,252,43,14,66,212,27,1*6F
$GPGSV,2,2,08,17,59,328,43,19,37,306,47,28,,,45,30,04,210,23,1*5C
$GPGSV,2,1,05,01,37,047,32,03,58,090,40,06,27,252,32,14,66,212,19,6*6A
$GPGSV,2,2,05,17,59,328,34,6*52
$GPGSV,1,1,04,04,02,125,,08,05,108,,21,14,059,,50,47,179,,0*66
$GLGSV,2,1,06,69,14,031,21,70,34,094,32,71,16,145,15,75,33,211,24,1*79
$GLGSV,2,2,06,76,45,288,46,85,46,029,40,1*7E
$GLGSV,2,1,05,69,14,031,25,71,16,145,28,75,33,211,18,76,45,288,38,3*78
$GLGSV,2,2,05,85,46,029,18,3*42
$GLGSV,1,1,04,77,13,332,,84,02,070,,86,46,312,,87,01,269,,0*7B
$GAGSV,2,1,07,03,14,097,35,13,55,278,31,15,57,033,44,18,73,053,47,2*7F
$GAGSV,2,2,07,21,43,302,45,27,58,209,27,30,15,164,29,2*4C
$GAGSV,2,1,07,03,14,097,27,13,55,278,38,15,57,033,46,18,73,053,43,7*76
$GAGSV,2,2,07,21,43,302,44,27,58,209,19,30,15,164,28,7*44
$GAGSV,2,1,05,01,03,327,,05,06,048,,08,05,145,,26,06,252,,0*73
$GAGSV,2,2,05,26,06,252,,0*46
$GBGSV,3,1,10,02,27,235,37,04,35,132,42,07,80,254,37,08,46,224,15,1*74
$GBGSV,3,2,10,10,70,291,36,14,36,083,43,27,28,287,45,28,67,349,41,1*70
$GBGSV,3,3,10,33,39,119,44,37,35,243,46,1*71
$GBGSV,2,1,06,01,43,152,31,04,35,132,44,07,80,254,38,08,46,224,27,3*7D
$GBGSV,2,2,06,10,70,291,34,14,36,083,45,3*73
$GBGSV,1,1,03,03,43,205,,13,36,225,,23,14,192,,0*4B
$GNRMC,031253.00,A,3726.9405930,N,12639.3711345,E,0.038,,210622,,,R,V*04
$GNVTG,,T,,M,0.038,N,0.071,K,D*35
$GNGGA,031253.00,3726.9405930,N,12639.3711345,E,4,12,0.62,22.165,M,17.842,M,1.0,4095*50
$GNGSA,A,3,03,17,01,06,14,19,,,,,,,1.19,0.62,1.01,1*03
$GNGSA,A,3,71,75,76,69,85,,,,,,,,1.19,0.62,1.01,2*08
$GNGSA,A,3,03,13,30,21,15,27,,,,,,,1.19,0.62,1.01,3*0E
$GNGSA,A,3,33,07,04,37,28,10,27,14,01,08,,,1.19,0.62,1.01,4*0C
$GPGSV,2,1,08,01,37,047,27,03,58,090,41,06,27,252,35,14,66,212,27,1*6F
$GPGSV,2,2,08,17,59,328,44,19,37,306,47,28,,,45,30,04,210,23,1*5B
$GPGSV,2,1,05,01,37,047,33,03,58,090,40,06,27,252,32,14,66,212,19,6*6B
$GPGSV,2,2,05,17,59,328,35,6*53
$GPGSV,1,1,04,04,02,125,,08,05,108,,21,14,059,,50,47,179,,0*66
$GLGSV,2,1,06,69,14,031,23,70,34,094,32,71,16,145,16,75,33,211,25,1*79
$GLGSV,2,2,06,76,45,288,45,85,46,029,39,1*73
$GLGSV,2,1,05,69,14,031,26,71,16,145,28,75,33,211,19,76,45,288,37,3*75
$GLGSV,2,2,05,85,46,029,22,3*4B
$GLGSV,1,1,04,77,13,332,,84,02,070,,86,46,312,,87,01,269,,0*7B
$GAGSV,2,1,07,03,14,$GAGSV,2,2,07,21,43,302,46,27,58,209,27,30,15,164,28,2*4E
$GAGSV,2,1,07,03,14,097,26,13,55,278,39,15,57,033,46,18,73,053,44,7*71
$GAGSV,2,2,07,21,43,302,43,27,58,209,19,30,15,164,28,7*43
$GAGSV,2,1,05,01,03,327,,05,06,048,,08,05,145,,26,06,252,,0*73
$GAGSV,2,2,05,26,06,252,,0*46
$GBGSV,3,1,10,02,27,235,31,04,35,132,42,07,80,254,37,08,46,224,15,1*72
$GBGSV,3,2,10,10,70,291,36,14,36,083,43,27,28,287,44,28,67,349,42,1*72
$GBGSV,3,3,10,33,39,119,45,37,35,243,43,1*75
$GBGSV,2,1,06,01,43,152,31,04,35,132,43,07,80,254,38,08,46,224,27,3*7A
$GBGSV,2,2,06,10,70,291,35,14,36,083,44,3*73
$GBGSV,1,1,03,03,43,205,,13,36,225,,23,14,192,,0*4B
$GNGNS,031254.00,3726.9405937,N,12639.3711311,E,RRRR,25,0.69,22.174,17.842,2.0,4095,V*08
$GNGGA,031254.00,3726.9405937,N,12639.3711311,E,4,12,0.69,22.174,M,17.842,M,2.0,4095*59
$GNGSA,A,3,03,17,01,06,14,19,,,,,,,1.38,0.69,1.19,1*02
$GNGSA,A,3,71,75,76,69,85,,,,,,,,1.38,0.69,1.19,2*09
$GNGSA,A,3,03,13,30,21,15,27,,,,,,,1.38,0.69,1.19,3*0F
$GNGSA,A,3,33,07,04,37,28,10,27,14,01,08,,,1.38,0.69,1.19,4*0D
$GPGSV,2,1,08,01,37,047,28,03,58,090,39,06,27,252,44,14,66,212,27,1*69
$GPGSV,2,2,08,17,59,328,43,19,37,306,47,28,,,47,30,04,210,25,1*58
$GPGSV,2,1,05,01,37,047,32,03,58,090,39,06,27,252,32,14,66,212,21,6*6F
$GPGSV,2,2,05,17,59,328,35,6*53
$GPGSV,1,1,04,04,02,125,,08,05,108,,21,14,059,,50,47,179,,0*66
$GLGSV,2,1,06,69,14,031,22,70,34,094,32,71,16,145,16,75,33,211,24,1*79
$GLGSV,2,2,06,76,45,288,46,85,46,029,29,1*71
$GLGSV,2,1,05,69,14,031,26,71,16,145,28,75,33,211,18,76,45,288,37,3*74
$GLGSV,2,2,05,85,46,029,24,3*4D
$GLGSV,1,1,04,77,13,332,,84,02,070,,86,46,312,,87,01,269,,0*7B
$GAGSV,2,1,07,03,14,097,37,13,55,278,32,15,57,033,43,18,73,053,47,2*79
$GAGSV,2,2,07,21,43,302,46,27,58,209,27,30,15,164,29,2*4F
$GAGSV,2,2,07,21,43,302,44,27,58,209,19,30,15,164,29,7*45
$GAGSV,2,1,05,01,03,327,,05,06,048,,08,05,145,,26,06,252,,0*73
$GAGSV,2,2,05,26,06,252,,0*46
$GBGSV,3,1,10,02,27,235,37,04,35,132,42,07,80,254,38,08,46,224,15,1*7B
$GNRMC,031255.00,A,3726.9405926,N,12639.3711352,E,0.008,,210622,,,R,V*00
$GNVTG,,T,,M,0.008,N,0.014,K,D*35
$GNGNS,031255.00,3726.9405926,N,12639.3711352,E,RRRR,25,0.69,22.167,17.842,2.0,4095,V*0C
$GNGGA,031255.00,3726.9405926,N,12639.3711352,E,4,12,0.69,22.167,M,17.842,M,2.0,4095*5D
$GNGSA,A,3,03,17,01,06,14,19,,,,,,,1.38,0.69,1.19,1*02
$GNGSA,A,3,71,75,76,69,85,,,,,,,,1.38,0.69,1.19,2*09
$GNGSA,A,3,03,13,30,21,15,27,,,,,,,1.38,0.69,1.19,3*0F
$GNGSA,A,3,33,07,04,37,28,10,27,14,01,08,,,1.38,0.69,1.19,4*0D
$GPGSV,3,1,09,01,37,047,29,03,58,090,39,06,27,252,44,14,66,212,28,1*67
$GPGSV,3,2,09,17,59,328,42,19,37,306,47,21,14,059,22,28,,,46,1*51
$GPGSV,3,3,09,30,04,210,25,1*5E
$GPGSV,2,1,05,01,37,047,33,03,58,090,40,06,27,252,32,14,66,212,23,6*62
$GPGSV,2,2,05,17,59,328,35,6*53
$GPGSV,1,1,03,04,02,125,,08,05,108,,50,47,179,,0*5B
$GLGSV,2,1,06,69,14,031,23,70,34,094,32,71,16,145,16,75,33,211,23,1*7F
$GLGSV,2,2,06,76,45,288,46,85,46,029,15,1*7E
$GLGSV,2,1,05,69,14,031,26,71,16,145,28,75,33,211,19,76,45,288,37,3*75
$GLGSV,2,2,05,85,46,029,26,3*4F
$GLGSV,1,1,04,77,13,332,,84,02,070,,86,46,312,,87,01,269,,0*7B
$GAGSV,2,1,07,03,14,097,37,13,55,278,32,15,57,033,43,18,73,053,47,2*79
$GAGSV,2,2,07,21,43,302,45,27,58,209,27,30,15,164,29,2*4C
$GAGSV,2,1,07,03,14,097,28,13,55,278,40,15,57,033,46,18,73,053,43,7*76
$GAGSV,2,2,07,21,43,302,44,27,58,209,20,30,15,164,29,7*4F
$GAGSV,2,1,05,01,03,327,,05,06,048,,08,05,145,,26,06,252,,0*73
$GAGSV,2,2,05,26,06,252,,0*46
$GBGSV,3,1,10,02,27,235,38,03,43,205,27,04,35,132,42,07,80,254,38,1*78
$GBGSV,3,2,10,10,70,291,38,14,36,083,43,27,28,287,45,28,67,349,42,1*7D
$GBGSV,3,3,10,33,39,119,44,37,35,243,46,1*71
$GBGSV,2,1,06,01,43,152,30,04,35,132,44,07,80,254,39,08,46,224,28,3*72
$GBGSV,2,2,06,10,70,291,35,14,36,083,44,3*73
$GBGSV,1,1,02,13,36,225,,23,14,192,,0*79
$GNRMC,031256.00,A,3726.9405978,N,12639.3711316,E,0.011,,210622,,,R,V*00
$GNVTG,,T,,M,0.011,N,0.021,K,D*3B
$GNGNS,031256.00,3726.9405978,N,12639.3711316,E,RRRR,26,0.69,22.165,17.842,2.0,4095,V*05
$GNGGA,031256.00,3726.9405978,N,12639.3711316,E,4,12,0.69,22.165,M,17.842,M,2.0,4095*57
$GNGSA,A,3,03,17,01,06,14,19,,,,,,,1.38,0.69,1.19,1*02
$GNGSA,A,3,71,75,76,69,85,,,,,,,,1.38,0.69,1.19,2*09
$GNGSA,A,3,03,13,30,21,15,27,,,,,,,1.38,0.69,1.19,3*0F
$GNGSA,A,3,33,07,04,37,28,10,27,14,01,08,,,1.38,0.69,1.19,4*0D
$GPGSV,3,1,09,01,37,047,30,03,58,090,39,06,27,252,43,14,66,212,28,1*68
$GPGSV,3,2,09,17,59,328,42,19,37,306,47,21,14,059,22,28,,,46,1*51
$GPGSV,3,3,09,30,04,210,25,1*5E
$GPGSV,2,1,05,01,37,047,33,03,58,090,40,06,27,252,31,14,66,212,23,6*61
$GPGSV,2,2,05,17,59,328,35,6*53
$GPGSV,1,1,03,04,02,125,,08,05,108,,50,47,179,,0*5B
$GLGSV,2,1,06,69,14,031,24,70,34,094,31,71,16,145,15,75,33,211,22,1*79
$GLGSV,2,2,06,76,45,288,45,85,46,029,29,1*72
$GLGSV,2,1,05,69,14,031,26,71,16,145,28,75,33,211,20,76,45,288,36,3*7E
$GLGSV,2,2,05,85,46,029,26,3*4F
$GLGSV,1,1,04,77,13,332,,84,02,070,,86,46,312,,87,01,269,,0*7B
$GAGSV,2,1,07,03,14,097,35,13,55,278,31,15,57,033,43,18,73,053,47,2*78
$GAGSV,2,2,07,21,43,302,46,27,58,209,27,30,15,164,28,2*4E
$GAGSV,2,1,07,03,14,097,27,13,55,278,40,15,57,033,47,18,73,053,43,7*78
$GAGSV,2,2,07,21,43,302,44,27,58,209,21,30,15,164,30,7*46
$GAGSV,2,1,05,01,03,327,,05,06,048,,08,05,145,,26,06,252,,0*73
$GAGSV,2,2,05,26,06,252,,0*46
$GBGSV,3,1,10,02,27,235,37,03,43,205,27,04,35,132,42,07,80,254,38,1*77
$GBGSV,3,2,10,10,70,291,38,14,36,083,43,27,28,287,44,28,67,349,42,1*7C
$GBGSV,3,3,10,33,39,119,44,37,35,243,46,1*71
$GBGSV,2,1,07,01,43,152,30,02,27,235,38,04,35,132,44,07,80,254,39,3*7F
$GBGSV,2,2,07,08,46,224,27,10,70,291,35,14,36,083,44,3*49
$GBGSV,1,1,02,13,36,225,,23,14,192,,0*79
$GNRMC,031257.00,A,3726.9405942,N,12639.3711318,E,0.017,,210622,,,R,V*00
$GNVTG,,T,,M,0.017,N,0.032,K,D*3F
$GNGNS,031257.00,3726.9405942,N,12639.3711318,E,RRRR,24,0.69,22.181,17.842,2.0,4095,V*0B
$GNGGA,031257.00,3726.9405942,N,12639.3711318,E,4,12,0.69,22.181,M,17.842,M,2.0,4095*5B
$GNGSA,A,3,03,17,01,06,14,19,,,,,,,1.38,0.69,1.19,1*02
$GNGSA,A,3,71,75,76,69,85,,,,,,,,1.38,0.69,1.19,2*09
$GNGSA,A,3,03,13,30,21,15,27,,,,,,,1.38,0.69,1.19,3*0F
$GNGSA,A,3,33,07,04,37,28,10,27,14,01,08,,,1.38,0.69,1.19,4*0D
$GPGSV,3,1,09,01,37,047,29,03,58,090,40,06,27,252,43,14,66,212,28,1*6E
$GPGSV,3,2,09,17,59,328,42,19,37,306,47,21,14,059,23,28,,,45,1*53
$GPGSV,3,3,09,30,04,210,26,1*5D
$GPGSV,2,1,05,01,37,047,33,03,58,090,41,06,27,252,30,14,66,212,24,6*66
$GPGSV,2,2,05,17,59,328,35,6*53
$GPGSV,1,1,03,04,02,125,,08,05,108,,50,47,179,,0*5B
$GLGSV,2,1,06,69,14,031,24,70,34,094,32,71,16,145,14,75,33,211,24,1*7D
$GLGSV,2,2,06,76,45,288,44,85,46,029,31,1*7A
$GLGSV,2,1,05,69,14,031,26,71,16,145,28,75,33,211,20,76,45,288,36,3*7E
$GLGSV,2,2,05,85,46,029,25,3*4C
$GLGSV,1,1,04,77,13,332,,84,02,070,,86,46,312,,87,01,269,,0*7B
$GAGSV,2,1,07,03,14,097,35,13,55,278,31,15,57,033,42,18,73,053,47,2*79
$GAGSV,2,2,07,21,43,302,46,27,58,209,27,30,15,164,28,2*4E
$GAGSV,2,1,07,03,14,097,26,13,55,278,40,15,57,033,46,18,73,053,43,7*78
$GAGSV,2,2,07,21,43,302,44,27,58,209,21,30,15,164,30,7*46
$GAGSV,2,1,05,01,03,327,,05,06,048,,08,05,145,,26,06,252,,0*73
$GAGSV,2,2,05,26,06,252,,0*46
$GBGSV,3,1,11,02,27,235,37,03,43,205,27,04,35,132,42,07,80,254,38,1*76
$GBGSV,3,2,11,08,46,224,16,10,70,291,37,14,36,083,43,27,28,287,44,1*78
$GBGSV,3,3,11,28,67,349,42,33,39,119,44,37,35,243,46,1*43
$GBGSV,2,1,07,01,43,152,30,02,27,235,37,04,35,132,44,07,80,254,38,3*71
$GBGSV,2,2,07,08,46,224,28,10,70,291,35,14,36,083,44,3*46
$GBGSV,1,1,02,13,36,225,,23,14,192,,0*79
$GNRMC,031258.00,A,3726.9405967,N,12639.3711326,E,0.012,,210622,,,R,V*00
$GNVTG,,T,,M,0.012,N,0.022,K,D*3B
$GNGNS,031258.00,3726.9405967,N,12639.3711326,E,RRRR,25,0.69,22.187,17.842,2.0,4095,V*09
$GNGGA,031258.00,3726.9405967,N,12639.3711326,E,4,12,0.69,22.187,M,17.842,M,2.0,4095*58
$GNGSA,A,3,03,17,01,06,14,19,,,,,,,1.38,0.69,1.19,1*02
$GNGSA,A,3,71,75,76,69,85,,,,,,,,1.38,0.69,1.19,2*09
$GNGSA,A,3,03,13,30,21,15,27,,,,,,,1.38,0.69,1.19,3*0F
$GNGSA,A,3,33,07,04,37,28,10,27,14,01,08,,,1.38,0.69,1.19,4*0D
$GPGSV,3,1,09,01,37,047,29,03,58,090,40,06,27,252,43,14,66,212,27,1*61
$GPGSV,3,2,09,17,59,328,42,19,37,306,47,21,14,059,23,28,,,45,1*53
$GPGSV,3,3,09,30,04,210,26,1*5D
$GPGSV,2,1,05,01,37,047,32,03,58,090,41,06,27,252,32,14,66,212,23,6*62
$GPGSV,2,2,05,17,59,328,34,6*52
$GPGSV,1,1,03,04,02,125,,08,05,108,,50,47,179,,0*5B
$GLGSV,2,1,06,69,14,031,24,70,34,094,32,71,16,145,14,75,33,211,25,1*7C
$GLGSV,2,2,06,76,45,288,45,85,46,029,32,1*78
$GLGSV,2,1,05,69,14,031,25,71,16,145,27,75,33,211,19,76,45,288,36,3*78
$GLGSV,2,2,05,85,46,029,23,3*4A
$GLGSV,1,1,04,77,13,332,,84,02,070,,86,46,312,,87,01,269,,0*7B
$GAGSV,2,1,07,03,14,097,35,13,55,278,31,15,57,033,42,18,73,053,47,2*79
$GAGSV,2,2,07,21,43,302,46,27,58,209,28,30,15,164,28,2*41
$GAGSV,2,1,07,03,14,097,25,13,55,278,39,15,57,033,46,18,73,053,43,7*75
$GAGSV,2,2,07,21,43,302,43,27,58,209,21,30,15,164,29,7*49
$GAGSV,2,1,05,01,03,327,,05,06,048,,08,05,145,,26,06,252,,0*73
$GAGSV,2,2,05,26,06,252,,0*46
$GBGSV,3,1,10,02,27,235,37,04,35,132,42,07,80,252,38,08,46,224,17,1*7F
$GBGSV,3,2,10,10,70,291,37,14,36,083,43,27,28,287,45,28,67,349,42,1*72
$GBGSV,3,3,10,33,39,119,44,37,35,243,46,1*71
$GBGSV,2,1,07,01,43,152,30,02,27,235,37,04,35,132,43,07,80,252,38,3*70
$GBGSV,2,2,07,08,46,224,27,10,70,291,34,14,36,083,44,3*48
$GBGSV,1,1,03,03,43,205,,13,36,225,,23,14,192,,0*4B
$GNRMC,031259.00,A,3726.9405994,N,12639.3711325,E,0.013,,210622,,,R,V*0F
$GNVTG,,T,,M,0.013,N,0.024,K,D*3C
$GNGNS,031259.00,3726.9405994,N,12639.3711325,E,RRRR,25,0.69,22.180,17.842,2.0,4095,V*00
$GNGGA,031259.00,3726.9405994,N,12639.3711325,E,4,12,0.69,22.180,M,17.842,M,2.0,4095*51
$GNGSA,A,3,03,17,01,06,14,19,,,,,,,1.38,0.69,1.19,1*02
$GNGSA,A,3,71,75,76,69,85,,,,,,,,1.38,0.69,1.19,2*09
$GNGSA,A,3,03,13,30,21,15,27,,,,,,,1.38,0.69,1.19,3*0F
$GNGSA,A,3,33,07,04,37,28,10,27,14,01,08,,,1.38,0.69,1.19,4*0D
$GPGSV,3,1,09,01,37,047,31,03,58,090,42,06,27,252,43,14,66,212,26,1*6B
$GPGSV,3,2,09,17,59,328,42,19,37,306,46,21,14,059,24,28,,,45,1*55
$GPGSV,3,3,09,30,04,210,26,1*5D
$GPGSV,2,1,05,01,37,047,33,03,58,090,41,06,27,252,32,14,66,212,23,6*63
$GPGSV,2,2,05,17,59,328,34,6*52
$GPGSV,1,1,03,04,02,125,,08,05,108,,50,47,179,,0*5B
$GLGSV,2,1,06,69,14,031,26,70,34,094,31,71,16,145,15,75,33,211,26,1*7F
$GLGSV,2,2,06,76,45,288,45,85,46,029,36,1*7C
$GLGSV,2,1,05,69,14,031,25,71,16,145,26,75,33,211,18,76,45,288,36,3*78
$GLGSV,2,2,05,85,46,029,23,3*4A
$GLGSV,1,1,04,77,13,332,,84,02,070,,86,46,312,,87,01,269,,0*7B
$GAGSV,2,1,07,03,14,097,32,13,55,278,31,15,57,033,42,18,73,053,47,2*7E
$GAGSV,2,2,07,21,43,302,45,27,58,209,27,30,15,164,27,2*42
$GAGSV,2,1,07,03,14,097,26,13,55,278,39,15,57,033,46,18,73,053,44,7*71
$GAGSV,2,2,07,21,43,302,43,27,58,209,21,30,15,164,30,7*41
$GAGSV,2,1,05,01,03,327,,05,06,048,,08,05,145,,26,06,252,,0*73
$GAGSV,2,2,05,26,06,252,,0*46
$GBGSV,3,1,12,01,43,152,27,02,27,235,37,03,43,205,27,04,35,132,42,1*77
$GBGSV,3,2,12,07,80,252,38,08,46,224,17,10,70,291,37,14,36,083,44,1*7E
$GBGSV,3,3,12,27,28,287,44,28,67,349,42,33,39,119,42,37,35,243,46,1*74
$GBGSV,2,1,07,01,43,152,30,02,27,235,37,04,35,132,42,07,80,252,38,3*71
$GBGSV,2,2,07,08,46,224,27,10,70,291,35,14,36,083,43,3*4E
$GBGSV,1,1,02,13,36,225,,23,14,192,,0*79
$GNRMC,031300.00,A,3726.9405975,N,12639.3711315,E,0.006,,210622,,,R,V*0A
$GNVTG,,T,,M,0.006,N,0.012,K,D*3D
$GNGNS,031300.00,3726.9405975,N,12639.3711315,E,RRRR,26,0.62,22.171,17.842,2.0,4095,V*07
$GLGSV,2,1,05,69,14,031,24,71,16,145,26,75,33,211,17,76,45,288,34,3*74
$GLGSV,2,2,05,85,46,029,25,3*4C
$GLGSV,1,1,04,77,13,332,,84,02,070,,86,46,312,,87,01,269,,0*7B
$GAGSV,2,1,07,03,14,097,33,13,55,278,31,15,57,033,41,18,73,053,47,2*7C
$GAGSV,2,2,07,21,43,302,44,27,58,209,28,30,15,164,27,2*4C
$GAGSV,2,1,07,03,14,097,27,13,55,278,40,15,57,033,47,18,73,053,45,7*7E
$GAGSV,2,2,07,21,43,302,43,27,58,209,21,30,15,164,30,7*41
$GAGSV,2,1,05,01,03,327,,05,06,048,,08,05,145,,26,06,252,,0*73
$GAGSV,2,2,05,26,06,252,,0*46
$GBGSV,3,1,12,01,43,152,27,02,27,235,37,03,43,205,27,04,35,132,41,1*74
$GBGSV,3,2,12,07,80,252,38,08,46,224,19,10,70,291,36,14,36,083,44,1*71
$GBGSV,3,3,12,27,28,287,43,28,67,349,41,33,39,119,41,37,35,243,46,1*73
$GBGSV,2,1,07,01,43,152,30,02,27,235,37,04,35,132,42,07,80,252,38,3*71
$GBGSV,2,2,07,08,46,224,26,10,70,291,36,14,36,083,43,3*4C
$GNRMC,031301.00,A,3726.9405984,N,12639.3711314,E,0.014,,210622,,,R,V*07
$GNVTG,,T,,M,0.014,N,0.026,K,D*39
$GNGNS,031301.00,3726.9405984,N,12639.3711314,E,RRRR,26,0.62,22.176,17.842,2.0,4095,V*0E
$GNGGA,031301.00,3726.9405984,N,12639.3711314,E,4,12,0.62,22.176,M,17.842,M,2.0,4095*5C
$GNGSA,A,3,03,17,01,06,14,19,,,,,,,1.19,0.62,1.01,1*03
$GNGSA,A,3,71,75,76,69,85,,,,,,,,1.19,0.62,1.01,2*08
$GNGSA,A,3,03,13,30,21,15,27,,,,,,,1.19,0.62,1.01,3*0E
$GNGSA,A,3,33,07,04,37,28,10,27,14,01,08,,,1.19,0.62,1.01,4*0C
$GPGSV,3,1,09,01,37,047,32,03,58,090,42,06,27,252,43,14,66,212,24,1*6A
$GPGSV,3,2,09,17,59,328,42,19,37,306,46,21,14,059,23,28,,,45,1*52
$GPGSV,3,3,09,30,04,210,26,1*5D
$GPGSV,2,1,05,01,37,047,33,03,58,090,42,06,27,252,32,14,66,212,23,6*60
$GPGSV,2,2,05,17,59,328,34,6*52
$GPGSV,1,1,03,04,02,125,,08,05,108,,50,47,179,,0*5B
$GLGSV,2,1,06,69,14,031,26,70,34,094,30,71,16,145,18,75,33,211,24,1*71
$GLGSV,2,2,06,76,45,288,45,85,46,029,36,1*7C
$GLGSV,2,1,05,69,14,031,25,71,16,145,26,75,33,211,17,76,45,288,35,3*74
$GLGSV,2,2,05,85,46,029,26,3*4F
$GLGSV,1,1,04,77,13,332,,84,02,070,,86,46,312,,87,01,269,,0*7B
$GAGSV,2,1,07,03,14,097,32,13,55,278,32,15,57,033,42,18,73,053,48,2*72
$GAGSV,2,2,07,21,43,302,45,27,58,209,28,30,15,164,26,2*4C
$GAGSV,2,1,07,03,14,097,28,13,55,278,39,15,57,033,46,18,73,053,45,7*7E
$GAGSV,2,2,07,21,43,302,43,27,58,209,21,30,15,164,29,7*49
$GAGSV,2,1,05,01,03,327,,05,06,048,,08,05,145,,26,06,252,,0*73
$GAGSV,2,2,05,26,06,252,,0*46
$GBGSV,3,1,11,02,27,235,37,03,43,205,27,04,35,132,41,07,80,252,38,1*73
$GBGSV,3,2,11,08,46,224,20,10,70,290,36,14,36,083,44,27,28,287,45,1*7B
$GBGSV,3,3,11,28,67,349,41,33,39,119,42,37,35,243,46,1*46
$GBGSV,2,1,07,01,43,152,30,02,27,235,37,04,35,132,42,07,80,252,37,3*7E
$GBGSV,2,2,07,08,46,224,26,10,70,290,35,14,36,083,43,3*4E
$GBGSV,1,1,02,13,36,225,,23,14,192,,0*79
$GNRMC,031302.00,A,3726.9405980,N,12639.3711290,E,0.013,,210622,,,R,V*0A
$GNVTG,,T,,M,0.013,N,0.025,K,D*3D
$GNGNS,031302.00,3726.9405980,N,12639.3711290,E,RRRR,26,0.62,22.173,17.842,2.0,4095,V*01
$GNGGA,031302.00,3726.9405980,N,12639.3711290,E,4,12,0.62,22.173,M,17.842,M,2.0,4095*53
$GNGSA,A,3,03,17,01,06,14,19,,,,,,,1.19,0.62,1.01,1*03
$GNGSA,A,3,71,75,76,69,85,,,,,,,,1.19,0.62,1.01,2*08
$GNGSA,A,3,03,13,30,21,15,27,,,,,,,1.19,0.62,1.01,3*0E
$GNGSA,A,3,33,07,04,37,28,10,27,14,01,08,,,1.19,0.62,1.01,4*0C
$GPGSV,3,1,09,01,37,047,33,03,58,090,42,06,27,252,43,14,66,212,22,1*6D
$GPGSV,3,2,09,17,59,328,41,19,37,306,46,21,14,059,22,28,,,45,1*50
$GPGSV,3,3,09,30,04,210,26,1*5D
$GPGSV,2,1,05,01,37,047,33,03,58,090,42,06,27,252,32,14,66,212,22,6*61
$GPGSV,2,2,05,17,59,328,34,6*52
$GPGSV,1,1,03,04,02,125,,08,05,108,,50,47,179,,0*5B
$GLGSV,2,1,06,69,14,031,29,70,34,094,31,71,16,145,17,75,33,211,23,1*77
$GLGSV,2,2,06,76,45,288,45,85,46,029,37,1*7D
$GLGSV,2,1,05,69,14,031,25,71,16,145,27,75,33,211,17,76,45,288,36,3*76
$GLGSV,2,2,05,85,46,029,27,3*4E
$GLGSV,1,1,04,77,13,332,,84,02,070,,86,46,312,,87,01,269,,0*7B
$GAGSV,2,1,07,03,14,097,32,13,55,278,32,15,57,033,41,18,73,053,48,2*71
$GAGSV,2,2,07,21,43,302,45,27,58,209,28,30,15,164,27,2*4D
$GAGSV,2,1,07,03,14,097,30,13,55,278,39,15,57,033,47,18,73,053,46,7*75
$GAGSV,2,2,07,21,43,302,43,27,58,209,22,30,15,164,29,7*4A
$GAGSV,2,1,05,01,03,327,,05,06,048,,08,05,145,,26,06,252,,0*73
$GAGSV,2,2,05,26,06,252,,0*46
$GBGSV,3,1,11,01,43,152,27,02,27,235,37,04,35,132,41,07,80,252,38,1*70
$GBGSV,3,2,11,08,46,224,20,10,70,290,36,14,36,083,44,27,28,287,45,1*7B
$GBGSV,3,3,11,28,67,349,42,33,39,119,41,37,35,243,46,1*46
$GBGSV,2,1,07,01,43,152,30,02,27,235,37,04,35,132,42,07,80,252,38,3*71
$GBGSV,2,2,07,08,46,224,26,10,70,290,35,14,36,083,43,3*4E
$GBGSV,1,1,03,03,43,205,,13,36,225,,23,14,192,,0*4B
$GNRMC,031303.00,A,3726.9405986,N,12639.3711321,E,0.011,,210622,,,R,V*04
$GNVTG,,T,,M,0.011,N,0.020,K,D*3A
$GNGNS,031303.00,3726.9405986,N,12639.3711321,E,RRRR,26,0.62,22.180,17.842,1.0,4095,V*02
$GNGGA,031303.00,3726.9405986,N,12639.3711321,E,4,12,0.62,22.180,M,17.842,M,1.0,4095*50
$GNGSA,A,3,03,17,01,06,14,19,,,,,,,1.19,0.62,1.01,1*03
$GNGSA,A,3,71,75,76,69,85,,,,,,,,1.19,0.62,1.01,2*08
$GNGSA,A,3,03,13,30,21,15,27,,,,,,,1.19,0.62,1.01,3*0E
$GNGSA,A,3,33,07,04,37,28,10,27,14,01,08,,,1.19,0.62,1.01,4*0C
$GPGSV,2,1,08,01,37,047,32,03,58,090,40,06,27,252,40,14,66,212,23,1*6C
$GPGSV,2,2,08,17,59,328,43,19,37,306,47,28,,,45,30,04,210,26,1*59
$GPGSV,2,1,05,01,37,047,33,03,58,090,41,06,27,252,32,14,66,212,22,6*62
$GPGSV,2,2,05,17,59,328,34,6*52
$GPGSV,1,1,04,04,02,125,,08,05,108,,21,14,059,,50,47,179,,0*66
$GLGSV,2,1,06,69,14,031,28,70,34,094,31,71,16,145,17,75,33,211,22,1*77
$GLGSV,2,2,06,76,45,288,43,85,46,029,39,1*75
$GLGSV,2,1,05,69,14,031,25,71,16,145,27,75,33,211,17,76,45,288,37,3*77
$GLGSV,2,2,05,85,46,029,27,3*4E
$GLGSV,1,1,04,77,13,332,,84,02,070,,86,46,312,,87,01,269,,0*7B
$GAGSV,2,1,07,03,14,097,33,13,55,278,32,15,57,033,43,18,73,053,47,2*7D
$GAGSV,2,2,07,21,43,302,45,27,58,209,28,30,15,164,27,2*4D
$GAGSV,2,1,07,03,14,097,27,13,55,278,40,15,57,033,46,18,73,053,44,7*7E
$GAGSV,2,2,07,21,43,302,43,27,58,209,22,30,15,164,30,7*42
$GAGSV,2,1,05,01,03,327,,05,06,048,,08,05,145,,26,06,252,,0*73
$GAGSV,2,2,05,26,06,252,,0*46
$GBGSV,3,1,11,01,43,152,27,02,27,235,37,04,35,132,42,07,80,252,38,1*73
$GBGSV,3,2,11,08,46,224,20,10,70,290,37,14,36,083,44,27,28,287,43,1*7C
$GBGSV,3,3,11,28,67,349,41,33,39,119,43,37,35,243,46,1*47
$GBGSV,2,1,07,01,43,152,30,02,27,235,37,04,35,132,42,07,80,252,38,3*71
$GBGSV,2,2,07,08,46,224,26,10,70,290,36,14,36,083,43,3*4D
$GBGSV,1,1,03,03,43,205,,13,37,225,,23,14,192,,0*4A
$GNRMC,031304.00,A,3726.9405999,N,12639.3711321,E,0.008,,210622,,,R,V*05
$GNVTG,,T,,M,0.008,N,0.014,K,D*35
$GNGNS,031304.00,3726.9405999,N,12639.3711321,E,RRRR,26,0.62,22.183,17.842,2.0,4095,V*0B
$GNGGA,031304.00,3726.9405999,N,12639.3711321,E,4,12,0.62,22.183,M,17.842,M,2.0,4095*59
$GNGSA,A,3,03,17,01,06,14,19,,,,,,,1.19,0.62,1.01,1*03
$GNGSA,A,3,71,75,76,69,85,,,,,,,,1.19,0.62,1.01,2*08
$GNGSA,A,3,03,13,30,21,15,27,,,,,,,1.19,0.62,1.01,3*0E
$GNGSA,A,3,33,07,04,37,28,10,27,14,01,08,,,1.19,0.62,1.01,4*0C
$GPGSV,2,1,08,01,37,047,32,03,58,090,41,06,27,252,41,14,66,212,23,1*6C
$GPGSV,2,2,08,17,59,328,43,19,37,306,47,28,,,45,30,04,210,25,1*5A
$GPGSV,2,1,05,01,37,047,33,03,58,090,42,06,27,252,32,14,66,212,22,6*61
$GPGSV,2,2,05,17,59,328,34,6*52
$GPGSV,1,1,04,04,02,125,,08,05,108,,21,14,059,,50,47,179,,0*66
$GLGSV,2,1,06,69,14,031,27,70,34,094,31,71,16,145,19,75,33,211,21,1*75
$GLGSV,2,2,06,76,45,288,43,85,46,029,38,1*74
$GLGSV,2,1,05,69,14,031,25,71,16,145,27,75,33,211,16,76,45,288,37,3*76
$GLGSV,2,2,05,85,46,029,27,3*4E
$GLGSV,1,1,04,77,13,332,,84,02,070,,86,46,312,,87,01,269,,0*7B
$GAGSV,2,1,07,03,14,097,33,13,55,278,31,15,57,033,42,18,73,053,47,2*7F
$GAGSV,2,2,07,21,43,302,45,27,58,209,27,30,15,164,27,2*42
$GAGSV,2,1,06,13,55,278,39,15,57,033,46,18,73,053,44,21,43,302,43,7*7E
$GAGSV,2,2,06,27,58,209,21,30,15,164,30,7*72
$GAGSV,2,1,05,01,03,327,,05,06,048,,08,05,145,,26,06,252,,0*73
$GAGSV,2,2,05,26,06,252,,0*46
$GBGSV,3,1,11,01,43,152,27,02,27,235,36,04,35,132,41,07,80,252,37,1*7E
$GBGSV,3,2,11,08,46,224,18,10,70,290,36,14,37,082,44,27,28,287,44,1*71
$GBGSV,3,3,11,28,67,349,41,33,39,119,43,37,35,243,46,1*47
$GNRMC,031305.00,A,3726.9405980,N,12639.3711312,E,0.015,,210622,,,R,V*00
$GNVTG,,T,,M,0.015,N,0.027,K,D*39
$GNGNS,031305.00,3726.9405980,N,12639.3711312,E,RRRR,26,0.62,22.175,17.842,2.0,4095,V*0B
$GNGGA,031305.00,3726.9405980,N,12639.3711312,E,4,12,0.62,22.175,M,17.842,M,2.0,4095*59
$GNGSA,A,3,03,17,01,06,14,19,,,,,,,1.19,0.62,1.01,1*03
$GNGSA,A,3,71,75,76,69,85,,,,,,,,1.19,0.62,1.01,2*08
$GNGSA,A,3,03,13,30,21,15,27,,,,,,,1.19,0.62,1.01,3*0E
$GNGSA,A,3,33,07,04,37,28,10,27,14,01,08,,,1.19,0.62,1.01,4*0C
$GPGSV,2,1,08,01,37,047,33,03,58,090,42,06,27,252,41,14,66,212,24,1*69
$GPGSV,2,2,08,17,59,328,43,19,37,306,46,28,,,44,30,04,210,24,1*5B
$GPGSV,2,1,05,01,37,047,33,03,58,090,42,06,27,252,33,14,66,212,21,6*63
$GPGSV,2,2,05,17,59,328,34,6*52
$GPGSV,1,1,04,04,02,125,,08,05,108,,21,14,059,,50,47,179,,0*66
$GLGSV,2,1,06,69,14,031,27,70,34,094,31,71,16,145,19,75,33,211,20,1*74
$GLGSV,2,2,06,76,45,288,43,85,46,029,39,1*75
$GLGSV,2,1,05,69,14,031,26,71,16,145,27,75,33,211,16,76,45,288,37,3*75
$GLGSV,2,2,05,85,46,029,28,3*41
$GLGSV,1,1,04,77,13,332,,84,02,070,,86,46,312,,87,01,269,,0*7B
$GAGSV,2,1,07,03,14,097,32,13,55,278,32,15,57,033,42,18,73,053,47,2*7D
$GAGSV,2,2,07,21,43,302,45,27,58,209,28,30,15,164,27,2*4D
$GAGSV,2,1,07,03,14,097,27,13,55,278,39,15,57,033,46,18,73,053,45,7*71
$GAGSV,2,2,07,21,43,302,42,27,58,209,21,30,15,164,29,7*48
$GAGSV,2,1,05,01,03,327,,05,06,048,,08,05,145,,26,06,252,,0*73
$GAGSV,2,2,05,26,06,252,,0*46
$GBGSV,3,1,11,01,43,152,27,02,27,235,37,04,35,132,41,07,80,252,38,1*70
$GBGSV,3,2,11,08,46,224,19,10,70,290,36,14,37,082,44,27,28,287,45,1*71
$GBGSV,3,3,11,28,67,349,41,33,39,119,42,37,35,243,46,1*46
$GBGSV,2,1,07,01,43,152,30,02,27,235,37,04,35,132,41,07,80,252,37,3*7D
$GBGSV,2,2,07,08,46,224,26,10,70,290,35,14,37,082,43,3*4E
$GBGSV,1,1,03,03,43,205,,13,37,225,,23,14,192,,0*4A
$GNRMC,031306.00,A,3726.9405956,N,12639.3711320,E,0.010,,210622,,,R,V*0C
$GNVTG,,T,,M,0.010,N,0.019,K,D*31
$GNGNS,031306.00,3726.9405956,N,12639.3711320,E,RRRR,26,0.62,22.174,17.842,3.0,4095,V*02
$GNGGA,031306.00,3726.9405956,N,12639.3711320,E,4,12,0.62,22.174,M,17.842,M,3.0,4095*50
$GNGSA,A,3,03,17,01,06,14,19,,,,,,,1.19,0.62,1.01,1*03
$GNGSA,A,3,71,75,76,69,85,,,,,,,,1.19,0.62,1.01,2*08
$GNGSA,A,3,03,13,30,21,15,27,,,,,,,1.19,0.62,1.01,3*0E
$GPGSV,2,1,08,01,37,047,33,03,58,090,45,06,27,252,41,14,66,212,25,1*6F
$GPGSV,2,2,08,17,59,328,43,19,37,306,46,28,,,43,30,04,210,22,1*5A
$GPGSV,2,1,05,01,37,047,33,03,58,090,42,06,27,252,33,14,66,212,21,6*63
$GPGSV,2,2,05,17,59,328,34,6*52
$GPGSV,1,1,04,04,02,125,,08,05,108,,21,14,059,,50,47,179,,0*66
$GLGSV,2,1,06,69,14,031,28,70,34,094,31,71,16,145,20,75,33,211,17,1*75
$GLGSV,2,2,06,76,45,288,44,85,46,029,42,1*7E
$GLGSV,2,1,05,69,14,031,25,71,16,145,26,75,33,211,15,76,45,288,37,3*74
$GLGSV,2,2,05,85,46,029,33,3*4B
$GLGSV,1,1,04,77,13,332,,84,02,070,,86,46,312,,87,01,269,,0*7B
$GAGSV,2,1,07,03,14,097,27,13,55,278,33,15,57,033,44,18,73,053,48,2*71
$GAGSV,2,2,07,21,43,302,44,27,58,209,26,30,15,164,28,2*4D
$GAGSV,2,1,07,03,14,097,35,13,55,278,39,15,57,033,47,18,73,053,48,7*7E
$GAGSV,2,2,07,21,43,302,41,27,58,209,20,30,15,164,29,7*4A
$GAGSV,2,1,05,01,03,327,,05,06,048,,08,05,145,,26,06,252,,0*73
$GAGSV,2,2,05,26,06,252,,0*46
$GBGSV,3,1,10,02,27,235,37,04,35,132,41,07,80,252,38,08,46,224,19,1*72
$GBGSV,3,2,10,10,70,290,36,14,37,082,44,27,28,287,44,28,67,349,41,1*77
$GBGSV,3,3,10,33,39,119,39,37,35,243,46,1*7B
$GNRMC,031307.00,A,3726.9405983,N,12639.3711284,E,0.002,,210622,,,R,V*09
$GNVTG,,T,,M,0.002,N,0.004,K,D*3E
$GNGNS,031307.00,3726.9405983,N,12639.3711284,E,RRRR,25,0.62,22.179,17.842,4.0,4095,V*0D
$GNGGA,031307.00,3726.9405983,N,12639.3711284,E,4,12,0.62,22.179,M,17.842,M,4.0,4095*5C
$GNGSA,A,3,03,17,01,06,14,19,,,,,,,1.19,0.62,1.01,1*03
$GNGSA,A,3,71,75,76,69,85,,,,,,,,1.19,0.62,1.01,2*08
$GNGSA,A,3,03,13,30,21,15,27,,,,,,,1.19,0.62,1.01,3*0E
$GNGSA,A,3,33,07,04,37,28,10,27,14,01,08,,,1.19,0.62,1.01,4*0C
$GPGSV,3,1,09,01,37,047,34,03,58,090,44,06,27,252,42,14,66,212,26,1*69
$GPGSV,3,2,09,17,59,328,42,19,37,306,46,21,14,059,23,28,,,44,1*53
$GPGSV,3,3,09,30,04,210,22,1*59
$GPGSV,2,1,05,01,37,047,33,03,58,090,42,06,27,252,33,14,66,212,20,6*62
$GPGSV,2,2,05,17,59,328,34,6*52
$GPGSV,1,1,03,04,02,125,,08,05,108,,50,47,179,,0*5B
$GLGSV,2,1,06,69,14,031,29,70,34,094,31,71,16,145,23,75,33,211,16,1*76
$GLGSV,2,2,06,76,45,288,44,85,46,029,42,1*7E
$GLGSV,2,1,05,69,14,031,25,71,16,145,26,75,33,211,15,76,45,288,37,3*74
$GLGSV,2,2,05,85,46,029,33,3*4B
$GLGSV,1,1,04,77,13,332,,84,02,070,,86,46,312,,87,01,269,,0*7B
$GAGSV,2,1,07,03,14,097,26,13,55,278,33,15,57,033,42,18,73,053,48,2*76
$GAGSV,2,2,07,21,43,302,44,27,58,209,27,30,15,164,28,2*4C
$GAGSV,2,1,07,03,14,097,35,13,55,278,39,15,57,033,47,18,73,053,48,7*7E
$GAGSV,2,2,07,21,43,302,42,27,58,209,24,30,15,164,29,7*4D
$GAGSV,2,1,05,01,03,327,,05,06,048,,08,05,145,,26,06,252,,0*73
$GAGSV,2,2,05,26,06,252,,0*46
$GBGSV,3,1,10,02,27,235,37,04,35,132,42,07,80,252,39,08,46,224,20,1*7A
$GBGSV,3,2,10,10,70,290,35,14,37,082,44,27,28,287,45,28,67,349,42,1*76
$GBGSV,3,3,10,33,39,119,38,37,35,243,47,1*7B
$GBGSV,2,1,07,01,43,152,30,02,27,235,36,04,35,132,41,07,80,252,38,3*73
$GBGSV,2,2,07,08,46,224,26,10,70,290,35,14,37,082,43,3*4E
$GBGSV,1,1,03,03,43,205,,13,37,225,,23,13,192,,0*4D
$GNRMC,031308.00,A,3726.9405962,N,12639.3711283,E,0.023,,210622,,,R,V*0D
$GNVTG,,T,,M,0.023,N,0.042,K,D*3F
$GNGNS,031308.00,3726.9405962,N,12639.3711283,E,RRRR,27,0.62,22.182,17.842,2.0,4095,V*0A
$GNGGA,031308.00,3726.9405962,N,12639.3711283,E,4,12,0.62,22.182,M,17.842,M,2.0,4095*59
$GNGSA,A,3,03,17,01,06,14,19,,,,,,,1.19,0.62,1.01,1*03
$GNGSA,A,3,71,75,76,69,85,,,,,,,,1.19,0.62,1.01,2*08
$GNGSA,A,3,03,13,30,21,15,27,,,,,,,1.19,0.62,1.01,3*0E
$GNGSA,A,3,33,07,04,37,28,10,27,14,01,08,,,1.19,0.62,1.01,4*0C
$GPGSV,3,1,09,01,37,047,35,03,58,090,44,06,27,252,42,14,66,212,26,1*68
$GPGSV,3,2,09,17,59,328,42,19,37,306,46,21,14,059,22,28,,,44,1*52
$GPGSV,3,3,09,30,04,210,22,1*59
$GPGSV,2,1,05,01,37,047,33,03,58,090,42,06,27,252,34,14,66,212,20,6*65
$GPGSV,2,2,05,17,59,328,34,6*52
$GPGSV,1,1,03,04,02,125,,08,05,108,,50,47,179,,0*5B
$GLGSV,2,1,06,69,14,031,30,70,34,094,31,71,16,145,24,75,33,211,13,1*7C
$GLGSV,2,2,06,76,45,288,45,85,46,029,42,1*7F
$GLGSV,2,1,05,69,14,031,26,71,16,145,26,75,33,211,15,76,45,288,37,3*77
$GLGSV,2,2,05,85,46,029,34,3*4C
$GLGSV,1,1,04,77,13,332,,84,02,070,,86,46,312,,87,01,269,,0*7B
$GAGSV,2,1,07,03,14,097,26,13,55,278,33,15,57,033,41,18,73,053,49,2*74
$GAGSV,2,2,07,21,43,302,44,27,58,209,26,30,15,164,29,2*4C
$GAGSV,2,1,07,03,14,097,35,13,55,278,39,15,57,033,47,18,73,053,48,7*7E
$GAGSV,2,2,07,21,43,302,43,27,58,209,26,30,15,164,28,7*4F
$GAGSV,2,1,05,01,03,327,,05,06,048,,08,05,145,,26,06,252,,0*73
$GAGSV,2,2,05,26,06,252,,0*46
$GBGSV,3,1,10,02,27,235,37,04,35,132,42,07,80,252,39,08,46,224,20,1*7A
$GBGSV,3,2,10,10,70,290,35,14,37,082,44,27,28,287,45,28,67,349,43,1*77
$GBGSV,3,3,10,33,39,119,38,37,35,243,46,1*7A
$GBGSV,2,1,07,01,43,152,30,02,27,235,36,04,35,132,41,07,80,252,38,3*73
$GBGSV,2,2,07,08,46,224,26,10,70,290,34,14,37,082,43,3*4F
$GBGSV,1,1,03,03,43,205,,13,37,225,,23,13,192,,0*4D
$GNRMC,031309.00,A,3726.9405943,N,12639.3711294,E,0.007,,210622,,,R,V*0F
$GNVTG,,T,,M,0.007,N,0.012,K,D*3C
$GNGNS,031309.00,3726.9405943,N,12639.3711294,E,RRRR,26,0.62,22.186,17.842,2.0,4095,V*0B
$GNGGA,031309.00,3726.9405943,N,12639.3711294,E,4,12,0.62,22.186,M,17.842,M,2.0,4095*59
$GNGSA,A,3,03,17,01,06,14,19,,,,,,,1.19,0.62,1.01,1*03
$GNGSA,A,3,71,75,70,76,69,85,,,,,,,1.19,0.62,1.01,2*0F
$GNGSA,A,3,03,13,30,21,15,27,,,,,,,1.19,0.62,1.01,3*0E
$GNGSA,A,3,33,07,04,37,28,10,27,14,01,08,,,1.19,0.62,1.01,4*0C
$GPGSV,2,1,08,01,37,047,35,03,58,090,43,06,27,252,42,14,66,212,26,1*6F
$GPGSV,2,2,08,17,59,328,42,19,37,306,46,28,,,44,30,04,210,22,1*5C
$GPGSV,2,1,05,01,37,047,34,03,58,090,43,06,27,252,34,14,66,212,21,6*62
$GPGSV,2,2,05,17,59,328,34,6*52
$GPGSV,1,1,04,04,02,125,,08,05,108,,21,14,059,,50,47,179,,0*66
$GLGSV,2,1,06,69,14,031,31,70,34,094,31,71,16,145,26,75,33,211,10,1*7C
$GLGSV,2,2,06,76,45,288,45,85,46,029,42,1*7F
$GLGSV,2,1,05,69,14,031,26,71,16,145,26,75,33,211,15,76,45,288,37,3*77
$GLGSV,2,2,05,85,46,029,34,3*4C
$GLGSV,1,1,04,77,13,332,,84,02,070,,86,46,312,,87,01,269,,0*7B
$GAGSV,2,1,07,03,14,097,25,13,55,278,34,15,57,033,41,18,73,053,49,2*70
$GAGSV,2,2,07,21,43,302,44,27,58,209,26,30,15,164,29,2*4C
$GAGSV,2,1,07,03,14,097,34,13,55,278,38,15,57,033,48,18,73,053,48,7*71
$GAGSV,2,2,07,21,43,302,44,27,58,209,27,30,15,164,28,7*49
$GAGSV,2,1,05,01,03,327,,05,06,048,,08,05,145,,26,06,252,,0*73
$GAGSV,2,2,05,26,06,252,,0*46
$GBGSV,3,1,10,02,27,235,36,04,35,132,42,07,80,252,39,08,46,224,20,1*7B
$GBGSV,3,2,10,10,70,290,35,14,37,082,44,27,28,287,45,28,67,349,43,1*77
$GBGSV,3,3,10,33,39,119,39,37,35,243,46,1*7B
$GBGSV,2,1,07,01,43,152,30,02,27,235,36,04,35,132,41,07,80,252,39,3*72
$GBGSV,2,2,07,08,46,224,27,10,70,290,35,14,37,082,43,3*4F
$GBGSV,1,1,03,03,43,205,,13,37,225,,23,13,192,,0*4D
$GNRMC,031310.00,A,3726.9405946,N,12639.3711230,E,0.010,,210622,,,R,V*0A
$GNVTG,,T,,M,0.010,N,0.018,K,D*30
$GNGNS,031310.00,3726.9405946,N,12639.3711230,E,RRRR,27,0.62,22.181,17.842,2.0,4095,V*0E
$GNGGA,031310.00,3726.9405946,N,12639.3711230,E,4,12,0.62,22.181,M,17.842,M,2.0,4095*5D
$GNGSA,A,3,03,17,01,06,14,19,,,,,,,1.19,0.62,1.01,1*03
$GNGSA,A,3,71,75,70,76,69,85,,,,,,,1.19,0.62,1.01,2*0F
$GNGSA,A,3,03,13,30,21,15,27,,,,,,,1.19,0.62,1.01,3*0E
$GNGSA,A,3,33,07,04,37,28,10,27,14,01,08,,,1.19,0.62,1.01,4*0C
$GPGSV,2,1,08,01,37,047,35,03,58,090,43,06,27,252,40,14,66,212,26,1*6D
$GPGSV,2,2,08,17,59,328,43,19,37,306,47,28,,,45,30,04,210,23,1*5C
$GPGSV,2,1,05,01,37,047,34,03,58,090,43,06,27,252,34,14,66,212,22,6*61
$GPGSV,2,2,05,17,59,328,34,6*52
$GPGSV,1,1,04,04,02,125,,08,05,108,,21,14,059,,50,47,179,,0*66
$GLGSV,2,1,06,69,14,031,32,70,35,093,30,71,16,145,30,75,33,211,11,1*7E
$GLGSV,2,2,06,76,45,288,41,85,46,029,41,1*78
$GLGSV,2,1,05,69,14,031,26,71,16,145,26,75,33,211,14,76,45,288,38,3*79
$GLGSV,2,2,05,85,46,029,34,3*4C
$GLGSV,1,1,04,77,13,332,,84,02,070,,86,46,312,,87,01,269,,0*7B
$GAGSV,2,1,07,03,14,097,24,13,55,278,35,15,57,033,41,18,73,053,49,2*70
$GAGSV,2,2,07,21,43,302,44,27,58,209,26,30,15,164,29,2*4C
$GAGSV,2,1,07,03,14,097,34,13,55,278,38,15,57,033,48,18,73,053,48,7*71
$GAGSV,2,2,07,21,43,302,43,27,58,209,28,30,15,164,28,7*41
$GNRMC,031311.00,A,3726.9405925,N,12639.3711270,E,0.010,,210622,,,R,V*0A
$GNVTG,,T,,M,0.010,N,0.019,K,D*31
$GNGNS,031311.00,3726.9405925,N,12639.3711270,E,RRRR,27,0.62,22.178,17.842,2.0,4095,V*08
$GNGGA,031311.00,3726.9405925,N,12639.3711270,E,4,12,0.62,22.178,M,17.842,M,2.0,4095*5B
$GNGSA,A,3,03,17,01,06,14,19,,,,,,,1.19,0.62,1.01,1*03
$GNGSA,A,3,71,75,70,76,69,85,,,,,,,1.19,0.62,1.01,2*0F
$GNGSA,A,3,03,13,30,21,15,27,,,,,,,1.19,0.62,1.01,3*0E
$GNGSA,A,3,33,07,04,37,28,10,27,14,01,08,,,1.19,0.62,1.01,4*0C
$GPGSV,2,1,08,01,37,047,35,03,58,090,44,06,27,252,41,14,66,212,25,1*68
$GPGSV,2,2,08,17,59,328,43,19,37,306,47,28,,,45,30,04,210,23,1*5C
$GPGSV,2,1,05,01,37,047,34,03,58,090,44,06,27,252,34,14,66,212,23,6*67
$GPGSV,2,2,05,17,59,328,34,6*52
$GPGSV,1,1,04,04,02,125,,08,05,108,,21,14,059,,50,47,179,,0*66
$GLGSV,2,1,06,69,14,031,31,70,35,093,28,71,16,145,29,75,33,211,15,1*78
$GLGSV,2,2,06,76,45,288,41,85,46,029,41,1*78
$GLGSV,2,1,05,69,14,031,26,71,16,145,25,75,33,211,11,76,45,288,38,3*7F
$GLGSV,2,2,05,85,46,029,35,3*4D
$GLGSV,1,1,04,77,13,332,,84,02,070,,86,46,312,,87,01,269,,0*7B
$GAGSV,2,1,07,03,14,097,22,13,55,278,35,15,57,033,42,18,73,053,49,2*75
$GAGSV,2,2,07,21,43,302,44,27,58,209,25,30,15,164,29,2*4F
$GAGSV,2,1,07,03,14,097,33,13,55,278,38,15,57,033,48,18,73,053,48,7*76
$GAGSV,2,2,07,21,43,302,42,27,58,209,28,30,15,164,29,7*41
$GAGSV,2,1,05,01,03,327,,05,06,048,,08,05,145,,26,06,252,,0*73
$GAGSV,2,2,05,26,06,252,,0*46
$GBGSV,3,1,10,02,27,235,35,04,35,132,41,07,80,252,40,08,46,224,22,1*77
$GNRMC,031312.00,A,3726.9405920,N,12639.3711280,E,0.015,,210622,,,R,V*06
$GNGNS,031312.00,3726.9405920,N,12639.3711280,E,RRRR,26,0.62,22.176,17.842,3.0,4095,V*0F
$GNGGA,031312.00,3726.9405920,N,12639.3711280,E,4,12,0.62,22.176,M,17.842,M,3.0,4095*5D
$GNGSA,A,3,71,75,70,76,69,85,,,,,,,1.24,0.62,1.07,2*07
$GNGSA,A,3,03,13,30,21,15,27,,,,,,,1.24,0.62,1.07,3*06
$GNGSA,A,3,33,07,04,37,28,10,27,14,01,08,,,1.24,0.62,1.07,4*04
$GPGSV,2,1,08,01,37,047,35,03,58,090,38,06,27,252,41,14,66,212,23,1*65
$GPGSV,2,2,08,17,59,328,42,19,37,306,48,28,,,47,30,04,210,23,1*50
$GPGSV,2,1,05,01,37,047,34,03,58,090,42,06,27,252,37,14,66,212,22,6*63
$GPGSV,2,2,05,17,59,328,35,6*53
$GPGSV,1,1,04,04,02,125,,08,05,108,,21,14,059,,50,47,179,,0*66
$GLGSV,2,1,06,69,14,031,30,70,35,093,28,71,16,145,29,75,33,211,18,1*74
$GLGSV,2,2,06,76,45,288,42,85,46,029,36,1*7B
$GLGSV,2,1,05,69,14,031,25,71,16,145,25,75,33,211,09,76,45,288,36,3*7B
$GLGSV,2,2,05,85,46,029,31,3*49
$GLGSV,1,1,04,77,13,332,,84,02,070,,86,46,312,,87,01,269,,0*7B
$GAGSV,2,1,07,03,14,097,24,13,55,278,36,15,57,033,40,18,73,053,48,2*73
$GAGSV,2,2,07,21,43,302,44,27,58,209,26,30,15,164,29,2*4C
$GAGSV,2,1,07,03,14,097,33,13,55,278,41,15,57,033,47,18,73,053,45,7*7A
$GAGSV,2,2,07,21,43,302,45,27,58,209,28,30,15,164,28,7*47
$GBGSV,2,1,07,01,43,152,31,02,27,235,37,04,35,132,43,07,80,252,40,3*7E
$GBGSV,2,2,07,08,46,224,27,10,70,290,36,14,37,082,45,3*4A
$GBGSV,1,1,03,03,43,205,,13,37,225,,23,13,192,,0*4D
$GNRMC,031313.00,A,3726.9405972,N,12639.3711243,E,0.005,,210622,,,R,V*0E
$GNVTG,,T,,M,0.005,N,0.009,K,D*34
$GNGNS,031313.00,3726.9405972,N,12639.3711243,E,RRRR,27,0.62,22.179,17.842,4.0,4095,V*0F
$GNGGA,031313.00,3726.9405972,N,12639.3711243,E,4,12,0.62,22.179,M,17.842,M,4.0,4095*5C
$GNGSA,A,3,03,17,01,06,14,19,,,,,,,1.24,0.62,1.07,1*0B
$GNGSA,A,3,71,75,70,76,69,85,,,,,,,1.24,0.62,1.07,2*07
$GNGSA,A,3,03,13,30,21,15,27,,,,,,,1.24,0.62,1.07,3*06
$GNGSA,A,3,33,07,04,37,28,10,27,14,01,08,,,1.24,0.62,1.07,4*04
$GPGSV,2,1,08,01,37,047,35,03,58,090,36,06,27,252,43,14,66,212,23,1*69
$GPGSV,2,2,08,17,59,328,42,19,37,306,48,28,,,47,30,04,210,23,1*50
$GPGSV,2,1,05,01,37,047,34,03,58,090,42,06,27,252,36,14,66,212,23,6*63
$GPGSV,2,2,05,17,59,328,35,6*53
$GPGSV,1,1,04,04,02,125,,08,05,108,,21,14,059,,50,47,179,,0*66
$GLGSV,2,1,06,69,14,031,29,70,35,093,28,71,16,145,28,75,33,211,19,1*7C
$GLGSV,2,2,06,76,45,288,43,85,46,029,37,1*7B
$GLGSV,2,1,05,69,14,031,24,71,16,145,24,75,33,211,12,76,45,288,36,3*71
$GLGSV,2,2,05,85,46,029,32,3*4A
$GLGSV,1,1,04,77,13,332,,84,02,070,,86,46,312,,87,01,269,,0*7B
$GAGSV,2,1,07,03,14,097,32,13,55,278,33,15,57,033,41,18,73,053,48,2*70
$GAGSV,2,2,07,21,43,302,44,27,58,209,27,30,15,164,28,2*4C
$GAGSV,2,1,07,03,14,097,31,13,55,278,41,15,57,033,46,18,73,053,44,7*78
$GAGSV,2,2,07,21,43,302,44,27,58,209,26,30,15,164,28,7*48
$GAGSV,2,1,05,01,03,327,,05,06,048,,08,05,145,,26,06,252,,0*73
$GAGSV,2,2,05,26,06,252,,0*46
$GBGSV,3,1,10,02,27,235,36,04,35,132,42,07,80,252,38,08,46,224,22,1*78
$GBGSV,3,2,10,10,70,290,36,14,37,082,44,27,29,287,45,28,67,351,42,1*7D
$GBGSV,3,3,10,33,39,119,43,37,35,243,47,1*77
$GBGSV,2,1,07,01,43,152,30,02,27,235,37,04,35,132,43,07,80,252,39,3*71
$GBGSV,2,2,07,08,46,224,27,10,70,290,36,14,37,082,44,3*4B
$GBGSV,1,1,03,03,43,205,,13,37,225,,23,13,192,,0*4D
$GNRMC,031314.00,A,3726.9405978,N,12639.3711271,E,0.005,,210622,,,R,V*02
$GNVTG,,T,,M,0.005,N,0.009,K,D*34
$GNGNS,031314.00,3726.9405978,N,12639.3711271,E,RRRR,27,0.62,22.171,17.842,5.0,4095,V*0A
$GNGGA,031314.00,3726.9405978,N,12639.3711271,E,4,12,0.62,22.171,M,17.842,M,5.0,4095*59
$GNGSA,A,3,03,17,01,06,14,19,,,,,,,1.24,0.62,1.07,1*0B
$GNGSA,A,3,71,75,70,76,69,85,,,,,,,1.24,0.62,1.07,2*07
$GNGSA,A,3,03,13,30,21,15,27,,,,,,,1.24,0.62,1.07,3*06
$GNGSA,A,3,33,07,04,37,28,10,27,14,01,08,,,1.24,0.62,1.07,4*04
$GPGSV,2,1,08,01,37,047,35,03,58,090,35,06,27,252,43,14,66,212,24,1*6D
$GPGSV,2,2,08,17,59,328,42,19,37,306,48,28,,,46,30,04,210,23,1*51
$GPGSV,2,1,05,01,37,047,33,03,58,090,42,06,27,252,32,14,66,212,22,6*61
$GPGSV,2,2,05,17,59,328,34,6*52
$GPGSV,1,1,04,04,02,125,,08,05,108,,21,14,059,,50,47,179,,0*66
$GLGSV,2,1,06,69,14,031,29,70,35,093,28,71,16,145,29,75,33,211,18,1*7C
$GLGSV,2,2,06,76,45,288,44,85,46,029,36,1*7D
$GLGSV,2,1,05,69,14,031,23,71,16,145,25,75,33,211,16,76,45,288,36,3*73
$GLGSV,2,2,05,85,46,029,32,3*4A
$GLGSV,1,1,04,77,13,332,,84,02,070,,86,46,312,,87,01,269,,0*7B
$GAGSV,2,1,07,03,14,097,33,13,55,278,32,15,57,033,41,18,73,053,47,2*7F
$GAGSV,2,2,07,21,43,302,45,27,58,209,27,30,15,164,29,2*4C
$GAGSV,2,1,07,03,14,097,29,13,55,278,41,15,57,033,46,18,73,053,42,7*77
$GAGSV,2,2,07,21,43,302,44,27,58,209,25,30,15,164,29,7*4A
$GAGSV,2,1,05,01,03,327,,05,06,048,,08,05,145,,26,06,252,,0*73
$GAGSV,2,2,05,26,06,252,,0*46
$GBGSV,3,1,10,02,27,235,37,04,35,132,42,07,80,252,38,08,46,224,21,1*7A
$GBGSV,3,2,10,10,70,290,36,14,37,082,44,27,29,287,45,28,67,351,42,1*7D
$GBGSV,3,3,10,33,39,119,44,37,35,243,47,1*70
$GBGSV,2,1,07,01,43,152,30,02,27,235,37,04,35,132,43,07,80,252,39,3*71
$GBGSV,2,2,07,08,46,224,27,10,70,290,35,14,37,082,43,3*4F
$GBGSV,1,1,03,03,43,205,,13,37,225,,23,13,192,,0*4D
$GNRMC,031315.00,A,3726.9405939,N,12639.3711271,E,0.010,,210622,,,R,V*02
$GNVTG,,T,,M,0.010,N,0.018,K,D*30
$GNGNS,031315.00,3726.9405939,N,12639.3711271,E,RRRR,28,0.62,22.180,17.842,6.0,4095,V*0C
$GNGGA,031315.00,3726.9405939,N,12639.3711271,E,4,12,0.62,22.180,M,17.842,M,6.0,4095*50
$GNGSA,A,3,03,17,01,06,14,19,,,,,,,1.24,0.62,1.07,1*0B
$GNGSA,A,3,71,75,70,76,69,85,,,,,,,1.24,0.62,1.07,2*07
$GNGSA,A,3,03,13,30,21,15,27,,,,,,,1.24,0.62,1.07,3*06
$GNGSA,A,3,33,07,04,37,28,02,10,27,14,01,08,,1.24,0.62,1.07,4*06
$GPGSV,2,1,08,01,37,047,35,03,58,090,36,06,27,252,42,14,66,212,23,1*68
$GPGSV,2,2,08,17,59,328,43,19,37,306,47,28,,,45,30,04,210,22,1*5D
$GPGSV,2,1,05,01,37,047,33,03,58,090,42,06,27,252,34,14,66,212,22,6*67
$GPGSV,2,2,05,17,59,328,33,6*55
$GPGSV,1,1,04,04,02,125,,08,05,108,,21,14,059,,50,47,179,,0*66
$GLGSV,2,1,06,69,14,031,30,70,35,093,29,71,16,145,28,75,33,211,23,1*7C
$GLGSV,2,2,06,76,45,288,45,85,46,029,39,1*73
$GLGSV,2,1,05,69,14,031,24,71,16,145,25,75,33,211,15,76,45,288,36,3*77
$GLGSV,2,2,05,85,46,029,31,3*49
$GLGSV,1,1,04,77,13,332,,84,02,070,,86,46,312,,87,01,269,,0*7B
$GAGSV,2,1,07,03,14,097,29,13,55,278,31,15,57,033,41,18,73,053,47,2*77
$GAGSV,2,2,07,21,43,302,45,27,58,209,28,30,15,164,28,2*42
$GAGSV,2,1,07,03,14,097,28,13,55,278,39,15,57,033,45,18,73,053,42,7*7A
$GAGSV,2,2,07,21,43,302,43,27,58,209,24,30,15,164,29,7*4C
$GAGSV,2,1,05,01,03,327,,05,06,048,,08,05,145,,26,06,252,,0*73
$GAGSV,2,2,05,26,06,252,,0*46
$GBGSV,3,1,10,02,27,235,37,04,35,132,42,07,80,252,38,08,46,224,22,1*79
$GBGSV,3,2,10,10,70,290,35,14,37,082,44,27,29,287,45,28,67,351,41,1*7D
$GBGSV,3,3,10,33,39,118,43,37,35,243,46,1*77
$GBGSV,2,1,07,01,43,152,30,02,27,235,36,04,35,132,43,07,80,252,38,3*71
$GBGSV,2,2,07,08,46,224,27,10,70,290,35,14,37,082,42,3*4E
$GBGSV,1,1,03,03,43,205,,13,37,225,,23,13,192,,0*4D
$GNRMC,031316.00,A,3726.9405956,N,12639.3711273,E,0.013,,210622,,,R,V*09
$GNVTG,,T,,M,0.013,N,0.024,K,D*3C
$GNGNS,031316.00,3726.9405956,N,12639.3711273,E,RRRR,27,0.62,22.183,17.842,7.0,4095,V*09
$GNGGA,031316.00,3726.9405956,N,12639.3711273,E,4,12,0.62,22.183,M,17.842,M,7.0,4095*5A
$GNGSA,A,3,03,17,01,06,14,19,,,,,,,1.24,0.62,1.07,1*0B
$GNGSA,A,3,71,75,70,76,69,85,,,,,,,1.24,0.62,1.07,2*07
$GNGSA,A,3,03,13,30,21,15,27,,,,,,,1.24,0.62,1.07,3*06
$GNGSA,A,3,33,07,04,37,28,02,10,27,14,01,08,,1.24,0.62,1.07,4*06
$GPGSV,2,1,08,01,37,047,35,03,58,090,36,06,27,252,42,14,66,212,21,1*6A
$GPGSV,2,2,08,17,59,328,43,19,37,306,47,28,,,45,30,04,210,22,1*5D
$GPGSV,2,1,05,01,37,047,34,03,58,090,43,06,27,252,34,14,66,212,20,6*63
$GPGSV,2,2,05,17,59,328,33,6*55
$GPGSV,1,1,04,04,02,125,,08,05,108,,21,14,059,,50,47,179,,0*66
$GLGSV,2,1,06,69,14,031,29,70,35,093,29,71,16,145,27,75,33,211,25,1*7D
$GLGSV,2,2,06,76,45,288,46,85,46,029,41,1*7F
$GLGSV,2,1,05,69,14,031,24,71,16,145,24,75,33,211,16,76,45,288,36,3*75
$GLGSV,2,2,05,85,46,029,31,3*49
$GLGSV,1,1,04,77,13,332,,84,02,070,,86,46,312,,87,01,269,,0*7B
$GAGSV,2,1,07,03,14,097,28,13,55,278,31,15,57,033,41,18,73,053,47,2*76
$GAGSV,2,2,07,21,43,302,45,27,58,209,27,30,15,164,28,2*4D
$GAGSV,2,1,07,03,14,097,27,13,55,278,40,15,57,033,45,18,73,053,43,7*7A
$GAGSV,2,2,07,21,43,302,43,27,58,209,23,30,15,164,29,7*4B
$GAGSV,2,1,05,01,03,327,,05,06,048,,08,05,145,,26,06,252,,0*73
$GAGSV,2,2,05,26,06,252,,0*46
$GBGSV,3,1,10,02,27,235,37,04,35,132,41,07,80,252,38,08,46,224,23,1*7B
$GBGSV,3,2,10,10,70,290,35,14,37,082,44,27,29,287,46,28,67,351,41,1*7E
$GBGSV,3,3,10,33,39,118,42,37,34,242,46,1*76
$GBGSV,2,1,07,01,43,152,30,02,27,235,37,04,35,132,43,07,80,252,38,3*70
$GBGSV,2,2,07,08,46,224,26,10,70,290,35,14,37,082,42,3*4F
$GBGSV,1,1,03,03,43,205,,13,37,225,,23,13,192,,0*4D
$GNRMC,031317.00,A,3726.9405974,N,12639.3711258,E,0.014,,210622,,,R,V*06
$GNVTG,,T,,M,0.014,N,0.025,K,D*3A
$GNGNS,031317.00,3726.9405974,N,12639.3711258,E,RRRR,29,0.63,22.186,17.842,8.0,4095,V*04
$GNGGA,031317.00,3726.9405974,N,12639.3711258,E,4,12,0.63,22.186,M,17.842,M,8.0,4095*59
$GNGSA,A,3,03,17,01,06,14,19,,,,,,,1.28,0.63,1.11,1*01
$GNGSA,A,3,71,75,70,76,69,85,,,,,,,1.28,0.63,1.11,2*0D
$GNGSA,A,3,03,13,30,21,15,27,,,,,,,1.28,0.63,1.11,3*0C
$GNGSA,A,3,33,07,04,37,28,02,10,27,14,01,08,,1.28,0.63,1.11,4*0C
$GPGSV,2,1,07,01,37,047,35,03,58,090,32,06,27,252,42,17,59,328,44,1*65
$GPGSV,2,2,07,19,37,306,48,28,,,44,30,04,210,23,1*69
$GPGSV,2,1,05,01,37,047,33,03,58,090,43,06,27,252,34,14,66,212,20,6*64
$GPGSV,2,2,05,17,59,328,33,6*55
$GPGSV,1,1,04,04,02,125,,08,05,108,,21,14,059,,50,47,179,,0*66
$GLGSV,2,1,06,69,14,031,29,70,35,093,29,71,16,145,27,75,33,211,26,1*7E
$GLGSV,2,2,06,76,45,288,46,85,46,029,40,1*7E
$GLGSV,2,1,05,69,14,031,23,71,16,145,24,75,33,211,10,76,45,288,36,3*74
$GLGSV,2,2,05,85,46,029,30,3*48
$GLGSV,1,1,04,77,13,332,,84,02,070,,86,46,312,,87,01,269,,0*7B
$GAGSV,2,1,07,03,14,097,29,13,55,278,32,15,57,033,41,18,73,053,47,2*74
$GAGSV,2,2,07,21,43,302,45,27,58,209,28,30,15,164,28,2*42
$GAGSV,2,1,07,03,14,097,28,13,55,278,38,15,57,033,45,18,73,053,42,7*7B
$GAGSV,2,2,07,21,43,302,43,27,58,209,23,30,15,164,29,7*4B
$GAGSV,2,1,05,01,03,327,,05,06,048,,08,05,145,,26,06,252,,0*73
$GAGSV,2,2,05,26,06,252,,0*46
$GBGSV,3,1,10,02,27,235,37,04,35,132,41,07,80,252,38,08,46,224,23,1*7B
$GBGSV,3,2,10,10,70,290,35,14,37,082,44,27,29,287,45,28,67,351,40,1*7C
$GBGSV,3,3,10,33,39,118,44,37,34,242,46,1*70
$GBGSV,2,1,07,01,43,152,30,02,27,235,37,04,35,132,43,07,80,252,38,3*70
$GBGSV,2,2,07,08,46,224,27,10,70,290,34,14,37,082,42,3*4F
$GBGSV,1,1,03,03,43,205,,13,37,225,,23,13,192,,0*4D
$GNRMC,031318.00,A,3726.9406050,N,12639.3711323,E,0.010,,210622,,,R,V*0C
$GNVTG,,T,,M,0.010,N,0.018,K,D*30
$GNGNS,031318.00,3726.9406050,N,12639.3711323,E,RRRR,26,0.63,22.181,17.842,9.0,4095,V*03
$GNGGA,031318.00,3726.9406050,N,12639.3711323,E,4,12,0.63,22.181,M,17.842,M,9.0,4095*51
$GNGSA,A,3,03,17,01,06,14,19,,,,,,,1.28,0.63,1.11,1*01
$GNGSA,A,3,71,75,70,76,69,85,,,,,,,1.28,0.63,1.11,2*0D
$GNGSA,A,3,03,13,30,21,15,27,,,,,,,1.28,0.63,1.11,3*0C
$GNGSA,A,3,33,07,04,37,28,02,10,27,14,01,08,,1.28,0.63,1.11,4*0C
$GPGSV,2,1,08,01,37,047,34,03,58,090,33,06,27,252,40,14,66,212,27,1*6A
$GPGSV,2,2,08,17,59,328,44,19,37,306,48,28,,,44,30,04,210,23,1*55
$GPGSV,2,1,05,01,37,047,32,03,58,090,43,06,27,252,34,14,66,212,21,6*64
$GPGSV,2,2,05,17,59,328,34,6*52
$GPGSV,1,1,04,04,02,125,,08,05,108,,21,14,059,,50,47,179,,0*66
$GLGSV,2,2,06,76,45,288,45,85,46,029,38,1*72
$GLGSV,2,1,05,69,14,031,22,71,16,145,24,75,33,211,12,76,45,288,36,3*77
$GLGSV,2,2,05,85,46,029,28,3*41
$GLGSV,1,1,04,77,13,332,,84,02,070,,86,46,312,,87,01,269,,0*7B
$GAGSV,2,1,07,03,14,097,31,13,55,278,33,15,57,033,41,18,73,053,46,2*7D
$GAGSV,2,2,07,21,43,302,46,27,58,209,28,30,15,164,28,2*41
$GAGSV,2,1,07,03,14,097,29,13,55,278,38,15,57,033,45,18,73,053,42,7*7A
$GAGSV,2,2,07,21,43,302,43,27,58,209,23,30,15,164,28,7*4A
$GAGSV,2,1,05,01,03,327,,05,06,048,,08,05,145,,26,06,252,,0*73
$GAGSV,2,2,05,26,06,252,,0*46
$GBGSV,3,1,10,02,27,235,36,04,35,132,43,07,80,252,38,08,46,224,22,1*79
$GBGSV,3,2,10,10,70,290,34,14,37,082,44,27,29,287,45,28,67,351,40,1*7D
$GBGSV,3,3,10,33,39,118,44,37,34,242,46,1*70
$GBGSV,2,1,07,01,43,152,30,02,27,235,37,04,35,132,44,07,80,252,38,3*77
$GBGSV$GNRMC,031319.00,A,3726.9405983,N,12639.3711331,E,0.010,,210622,,,R,V*0A
$GNVTG,,T,,M,0.010,N,0.018,K,D*30
$GNGNS,031319.00,3726.9405983,N,12639.3711331,E,RRRR,28,0.63,22.177,17.842,10.0,4095,V*3A
$GNGGA,031319.00,3726.9405983,N,12639.3711331,E,4,12,0.63,22.177,M,17.842,M,10.0,4095*66
$GNGSA,A,3,03,17,01,06,14,19,,,,,,,1.28,0.63,1.11,1*01
$GNGSA,A,3,71,75,70,76,69,85,,,,,,,1.28,0.63,1.11,2*0D
$GNGSA,A,3,03,13,30,21,15,27,,,,,,,1.28,0.63,1.11,3*0C
$GNGSA,A,3,33,07,04,37,28,02,10,27,14,01,08,,1.28,0.63,1.11,4*0C
$GPGSV,2,1,08,01,37,047,33,03,58,090,33,06,27,252,41,14,66,212,26,1*6D
$GPGSV,2,2,08,17,59,328,44,19,37,306,48,28,,,44,30,04,210,23,1*55
$GPGSV,2,1,05,01,37,047,31,03,58,090,43,06,27,252,34,14,66,212,21,6*67
$GPGSV,2,2,05,17,59,328,34,6*52
$GPGSV,1,1,04,04,02,125,,08,05,108,,21,14,059,,50,47,179,,0*66
$GLGSV,2,1,06,69,14,031,26,70,35,093,30,71,16,145,30,75,33,211,25,1*7C
$GLGSV,2,2,06,76,45,288,46,85,46,029,40,1*7E
$GLGSV,2,1,05,69,14,031,21,71,16,145,24,75,33,211,10,76,45,288,37,3*77
$GLGSV,2,2,05,85,46,029,27,3*4E
$GLGSV,1,1,04,77,13,332,,84,02,070,,86,46,312,,87,01,269,,0*7B
$GAGSV,2,1,07,03,14,097,33,13,55,278,33,15,57,033,41,18,73,053,46,2*7F
$GAGSV,2,2,07,21,43,302,46,27,58,209,28,30,15,164,28,2*41
$GAGSV,2,1,07,03,14,097,31,13,55,278,38,15,57,033,44,18,73,053,42,7*72
$GAGSV,2,2,07,21,43,302,43,27,58,209,22,30,15,164,28,7*4B
$GAGSV,2,1,05,01,03,327,,05,06,048,,08,05,145,,26,06,252,,0*73
$GAGSV,2,2,05,26,06,252,,0*46
$GBGSV,3,1,10,02,27,235,36,04,35,132,43,07,80,252,38,08,46,224,21,1*7A
$GBGSV,3,2,10,10,70,290,34,14,37,082,44,27,29,287,46,28,67,351,40,1*7E
$GBGSV,3,3,10,33,39,118,45,37,34,242,46,1*71
$GBGSV,2,1,07,01,43,152,30,02,27,235,37,04,35,132,44,07,80,252,38,3*77
$GBGSV,2,2,07,08,46,224,27,10,70,290,32,14,37,082,42,3*49
$GBGSV,1,1,03,03,43,205,,13,37,225,,23,13,192,,0*4D
$GNRMC,031320.00,A,3726.9406031,N,12639.3711311,E,0.013,,210622,,,R,V*02
$GNVTG,,T,,M,0.013,N,0.024,K,D*3C
$GNGNS,031320.00,3726.9406031,N,12639.3711311,E,RRRR,28,0.63,22.177,17.842,11.0,4095,V*30
$GNGGA,031320.00,3726.9406031,N,12639.3711311,E,4,12,0.63,22.177,M,17.842,M,11.0,4095*6C
$GNGSA,A,3,03,17,01,06,14,19,,,,,,,1.28,0.63,1.11,1*01
$GNGSA,A,3,71,75,70,76,69,85,,,,,,,1.28,0.63,1.11,2*0D
$GNGSA,A,3,03,13,30,21,15,27,,,,,,,1.28,0.63,1.11,3*0C
$GNGSA,A,3,33,07,04,37,28,02,10,27,14,01,08,,1.28,0.63,1.11,4*0C
$GPGSV,2,1,08,01,37,047,33,03,58,090,34,06,27,252,41,14,66,212,26,1*6A
$GPGSV,2,2,08,17,59,328,44,19,37,306,48,28,,,44,30,04,210,22,1*54
$GPGSV,2,1,05,01,37,047,31,03,58,090,43,06,27,252,33,14,66,212,21,6*60
$GPGSV,2,2,05,17,59,328,34,6*52
$GLGSV,2,1,06,69,14,031,25,70,35,093,31,71,16,145,31,75,33,211,25,1*7F
$GLGSV,2,2,06,76,45,288,46,85,46,029,38,1*71
$GLGSV,2,1,05,69,14,031,20,71,16,145,23,75,33,211,12,76,45,288,37,3*73
$GLGSV,2,2,05,85,46,029,27,3*4E
$GLGSV,1,1,04,77,13,332,,84,02,070,,86,46,312,,87,01,269,,0*7B
$GAGSV,2,1,07,03,14,097,34,13,55,278,33,15,57,033,41,18,73,053,46,2*78
$GAGSV,2,2,07,21,43,302,46,27,58,209,28,30,15,164,28,2*41
$GAGSV,2,1,07,03,14,097,32,13,55,278,38,15,57,033,44,18,73,053,42,7*71
$GAGSV,2,2,07,21,43,302,43,27,58,209,23,30,15,164,26,7*44
$GAGSV,2,1,05,01,03,327,,05,06,048,,08,05,145,,26,06,252,,0*73
$GAGSV,2,2,05,26,06,252,,0*46
$GBGSV,3,1,10,02,27,235,36,04,35,132,43,07,80,252,38,08,46,224,20,1*7B
$GBGSV,3,2,10,10,70,290,34,14,37,082,43,27,29,287,46,28,67,351,39,1*77
$GBGSV,3,3,10,33,39,118,45,37,34,242,45,1*72
$GBGSV,2,1,07,01,43,152,30,02,27,235,37,04,35,132,44,07,80,252,38,3*77
$GBGSV,2,2,07,08,46,224,27,10,70,290,32,14,37,082,42,3$GBGSV,1,1,03,03,43,205,,13,37,225,,23,13,192,,0*4D
$GNRMC,031321.00,A,3726.9406036,N,12639.3711294,E,0.009,,210622,,,R,V*03
$GNVTG,,T,,M,0.009,N,0.017,K,D*37
$GNGNS,031321.00,3726.9406036,N,12639.3711294,E,RRRR,28,0.63,22.179,17.842,12.0,4095,V*37
$GNGGA,031321.00,3726.9406036,N,12639.3711294,E,4,12,0.63,22.179,M,17.842,M,12.0,4095*6B
$GNGSA,A,3,03,17,01,06,14,19,,,,,,,1.28,0.63,1.11,1*01
$GNGSA,A,3,71,75,70,76,69,85,,,,,,,1.28,0.63,1.11,2*0D
$GNGSA,A,3,03,13,30,21,15,27,,,,,,,1.28,0.63,1.11,3*0C
$GNGSA,A,3,33,07,04,37,28,02,10,27,14,01,08,,1.28,0.63,1.11,4*0C
$GPGSV,2,1,08,01,37,047,33,03,58,090,31,06,27,252,41,14,66,212,26,1*6F
$GPGSV,2,2,08,17,59,328,43,19,37,306,47,28,,,44,30,04,210,22,1*5C
$GPGSV,2,1,05,01,37,047,31,03,58,090,43,06,27,252,34,14,66,212,22,6*64
$GPGSV,2,2,05,17,59,328,33,6*55
$GPGSV,1,1,04,04,02,125,,08,05,108,,21,14,059,,50,47,179,,0*66
$GLGSV,2,1,06,69,14,031,24,70,35,093,30,71,16,145,31,75,33,211,26,1*7C
$GLGSV,2,2,06,76,45,288,46,85,46,029,37,1*7E
$GLGSV,2,1,05,69,14,031,20,71,16,145,23,75,33,211,16,76,45,288,36,3*76
$GLGSV,2,2,05,85,46,029,28,3*41
$GLGSV,1,1,04,77,13,332,,84,02,070,,86,46,312,,87,01,269,,0*7B
$GAGSV,2,1,07,03,14,097,33,13,55,278,32,15,57,033,41,18,73,053,46,2*7E
$GAGSV,2,2,07,21,43,302,46,27,58,209,27,30,15,164,28,2*4E
$GAGSV,2,1,07,03,14,097,30,13,55,278,39,15,57,033,44,18,73,053,42,7*72
$GAGSV,2,2,07,21,43,302,43,27,58,209,22,30,15,164,27,7*44
$GAGSV,2,1,05,01,03,327,,05,06,048,,08,05,145,,26,06,252,,0*73
$GAGSV,2,2,05,26,06,252,,0*46
$GBGSV,3,1,10,02,27,235,36,04,35,132,42,07,80,252,38,08,46,224,21,1*7B
$GBGSV,3,2,10,10,70,290,35,14,37,082,44,27,29,287,46,28,67,351,40,1*7F
$GBGSV,3,3,10,33,39,118,44,37,34,242,46,1*70
$GBGSV,2,1,07,01,43,152,30,02,27,235,37,04,35,132,44,07,80,252,38,3*77
$GBGSV,2,2,07,08,46,224,26,10,70,290,33,14,37,082,42,3*49
$GBGSV,1,1,03,03,43,205,,13,37,225,,23,13,192,,0*4D
$GNRMC,031322.00,A,3726.9405994,N,12639.3711313,E,0.024,,210622,,,R,V*03
$GNVTG,,T,,M,0.024,N,0.044,K,D*3E
$GNGNS,031322.00,3726.9405994,N,12639.3711313,E,RRRR,27,0.64,22.196,17.842,13.0,4095,V*30
$GNGGA,031322.00,3726.9405994,N,12639.3711313,E,4,12,0.64,22.196,M,17.842,M,13.0,4095*63
$GNGSA,A,3,71,75,70,76,69,85,,,,,,,1.26,0.64,1.09,2*0D
$GNGSA,A,3,03,13,30,21,15,27,,,,,,,1.26,0.64,1.09,3*0C
$GNGSA,A,3,33,07,04,37,28,02,10,27,14,01,08,,1.26,0.64,1.09,4*0C
$GPGSV,2,1,08,01,37,047,33,03,58,090,34,06,27,252,40,14,66,212,25,1*68
$GPGSV,2,2,08,17,59,328,44,19,37,306,47,28,,,44,30,04,210,22,1*5B
$GPGSV,2,1,05,01,37,047,31,03,58,090,43,06,27,252,33,14,66,212,22,6*63
$GPGSV,2,2,05,17,59,328,34,6*52
$GPGSV,1,1,04,04,02,125,,08,05,108,,21,14,059,,50,47,179,,0*66
$GLGSV,2,1,06,69,14,031,25,70,35,093,30,71,16,145,31,75,33,211,25,1*7E
$GLGSV,2,2,06,76,45,288,46,85,46,029,37,1*7E
$GLGSV,2,1,05,69,14,031,19,71,16,145,23,75,33,211,10,76,45,288,37,3*7B
$GLGSV,2,2,05,85,46,029,30,3*48
$GLGSV,1,1,04,77,13,332,,84,02,070,,86,46,312,,87,01,269,,0*7B
$GAGSV,2,1,07,03,14,097,34,13,55,278,32,15,57,033,41,18,73,053,46,2*79
