$GNRMC,035440.00,A,3726.9121854,N,12639.1218974,E,0.022,,210622,,,F,V*1D
$GNVTG,,T,,M,0.022,N,0.041,K,D*3D
$GNGNS,035440.00,3726.9121854,N,12639.1218974,E,FFFF,29,0.76,9.146,17.834,2.0,4095,V*34
$GNGGA,035440.00,3726.9121854,N,12639.1218974,E,5,12,0.76,9.146,M,17.834,M,2.0,4095*68
$GNGSA,A,3,19,04,03,17,06,01,,,,,,,1.61,0.76,1.41,1*0C
$GNGSA,A,3,75,76,70,87,85,71,77,,,,,,1.61,0.76,1.41,2*01
$GNGSA,A,3,13,01,03,21,27,08,15,,,,,,1.61,0.76,1.41,3*0A
$GNGSA,A,3,01,28,04,08,10,37,07,33,27,,,,1.61,0.76,1.41,4*07
$GPGSV,3,1,09,01,22,058,42,03,50,059,47,04,14,111,37,06,40,270,38,1*64
$GPGSV,3,2,09,09,09,142,25,14,47,194,26,17,72,001,40,19,52,320,47,1*69
$GPGSV,3,3,09,28,,,45,1*66
$GPGSV,2,1,06,01,22,058,40,03,50,059,41,04,14,111,39,06,40,270,27,6*69
$GPGSV,2,2,06,09,09,142,15,17,72,001,38,6*6F
$GPGSV,1,1,04,02,01,258,,11,05,252,,21,02,070,,50,47,179,,0*62
$GLGSV,2,1,07,70,39,065,32,71,36,132,41,75,13,202,30,76,38,258,27,1*76
$GLGSV,2,2,07,77,24,315,28,85,36,055,44,87,13,287,30,1*4F
$GLGSV,2,1,06,69,01,017,08,71,36,132,35,75,13,202,28,76,38,258,19,3*7D
$GLGSV,2,2,06,77,24,315,25,85,36,055,40,3*76
$GLGSV,1,1,02,72,05,171,,86,52,346,,0*74
$GAGSV,2,1,07,01,14,322,34,03,22,083,40,08,17,136,27,13,61,306,42,2*77
$GAGSV,2,2,07,15,46,048,40,18,53,100,45,21,48,281,40,2*40
$GAGSV,2,1,08,01,14,322,40,03,22,083,42,08,17,136,32,13,61,306,46,7*7C
$GAGSV,2,2,08,15,46,048,46,18,53,100,51,21,48,281,40,27,41,201,24,7*7C
$GAGSV,1,1,04,05,05,036,,26,15,265,,30,01,165,,34,01,071,,0*74
$GBGSV,3,1,10,01,43,152,27,04,35,132,39,07,74,226,43,08,51,241,21,1*75
$GBGSV,3,2,10,10,70,270,44,13,41,238,16,27,40,302,45,28,66,034,46,1*72
$GBGSV,3,3,10,33,48,095,44,37,21,228,29,1*73
$GBGSV,1,1,03,04,35,132,37,07,74,226,40,10,70,270,40,3*40
$GBGSV,1,1,04,02,27,236,,03,44,206,,05,08,255,,23,00,185,,0*76
$GNRMC,035441.00,A,3726.9121545,N,12639.1219910,E,0.028,,210622,,,F,V*18
$GNVTG,,T,,M,0.028,N,0.052,K,D*35
$GNGNS,035441.00,3726.9121545,N,12639.1219910,E,FFFF,29,0.72,9.543,17.834,2.0,4095,V*3E
$GNGGA,035441.00,3726.9121545,N,12639.1219910,E,5,12,0.72,9.543,M,17.834,M,2.0,4095*62
$GNGSA,A,3,19,04,03,14,17,06,01,,,,,,1.58,0.72,1.41,1*07
$GNGSA,A,3,75,76,70,87,85,71,77,,,,,,1.58,0.72,1.41,2*0F
$GNGSA,A,3,13,01,03,21,08,15,,,,,,,1.58,0.72,1.41,3*01
$GNGSA,A,3,01,28,04,08,10,37,07,33,27,,,,1.58,0.72,1.41,4*09
$GPGSV,3,1,09,01,22,058,42,03,50,059,47,04,14,111,36,06,40,270,38,1*65
$GPGSV,3,2,09,09,09,142,25,14,47,194,26,17,72,001,40,19,52,320,48,1*66
$GPGSV,3,3,09,28,,,46,1*65
$GPGSV,2,1,06,01,22,058,40,03,50,059,41,04,14,111,38,06,40,270,27,6*68
$GPGSV,2,2,06,09,09,142,15,17,72,001,38,6*6F
$GPGSV,1,1,04,02,01,258,,11,05,252,,21,02,070,,50,47,179,,0*62
$GLGSV,2,1,07,70,39,065,32,71,36,132,41,75,12,202,30,76,38,258,27,1*77
$GLGSV,2,2,07,77,24,315,28,85,36,055,44,87,13,287,29,1*47
$GLGSV,2,1,05,69,01,017,08,71,36,132,35,76,38,258,20,77,24,315,24,3*79
$GLGSV,2,2,05,85,36,055,40,3*43
$GLGSV,1,1,02,72,05,171,,86,52,346,,0*74
$GAGSV,2,1,07,01,14,322,36,03,22,083,43,08,17,136,28,13,61,306,44,2*7F
$GAGSV,2,2,07,15,46,048,43,18,53,100,47,21,48,281,42,2*43
$GAGSV,2,1,08,01,14,322,40,03,22,083,42,08,17,136,32,13,61,306,46,7*7C
$GAGSV,2,2,08,15,46,048,46,18,53,100,51,21,48,281,40,27,41,201,24,7*7C
$GAGSV,1,1,04,05,05,036,,26,15,265,,30,01,165,,34,01,071,,0*74
$GBGSV,3,1,10,01,43,152,27,04,35,132,39,07,74,226,43,08,51,241,21,1*75
$GBGSV,3,2,10,10,70,270,44,13,41,238,16,27,40,302,45,28,66,034,46,1*72
$GBGSV,3,3,10,33,48,095,45,37,21,228,29,1*72
$GBGSV,1,1,03,04,35,132,38,07,74,226,41,10,70,270,42,3*4C
$GBGSV,1,1,04,02,27,236,,03,44,206,,05,08,255,,23,00,185,,0*76
$GNRMC,035442.00,A,3726.9121107,N,12639.1220805,E,0.016,,210622,,,F,V*1B
$GNVTG,,T,,M,0.016,N,0.030,K,D*3C
$GNGNS,035442.00,3726.9121107,N,12639.1220805,E,FFFF,29,0.72,9.892,17.834,2.0,4095,V*31
$GNGGA,035442.00,3726.9121107,N,12639.1220805,E,5,12,0.72,9.892,M,17.834,M,2.0,4095*6D
$GPGSV,3,1,09,01,22,058,42,03,50,059,47,04,14,111,36,06,40,270,38,1*65
$GPGSV,3,2,09,09,09,142,24,14,47,194,26,17,72,001,40,19,52,320,48,1*67
$GPGSV,3,3,09,28,,,46,1*65
$GPGSV,2,1,06,01,22,058,40,03,50,059,41,04,14,111,39,06,40,270,27,6*69
$GPGSV,2,2,06,09,09,142,15,17,72,001,38,6*6F
$GPGSV,1,1,04,02,01,258,,11,05,252,,21,02,070,,50,47,179,,0*62
$GLGSV,2,1,07,70,39,065,32,71,36,132,41,75,12,202,29,76,38,256,28,1*7E
$GLGSV,2,2,07,77,24,315,28,85,36,055,45,87,13,287,29,1*46
$GLGSV,2,1,05,71,36,132,35,75,12,202,27,76,38,256,20,77,24,315,24,3*73
$GLGSV,2,2,05,85,36,055,40,3*43
$GLGSV,1,1,03,69,01,017,,72,05,171,,86,52,346,,0*4D
$GAGSV,2,1,07,01,14,322,37,03,22,083,43,08,17,136,28,13,61,306,44,2*7E
$GAGSV,2,2,07,15,46,048,43,18,53,100,48,21,48,281,42,2*4C
$GAGSV,2,1,08,01,14,322,40,03,22,083,42,08,17,136,32,13,61,306,46,7*7C
$GAGSV,2,2,08,15,46,048,46,18,53,100,51,21,48,281,40,27,41,201,25,7*7D
$GAGSV,1,1,04,05,05,036,,26,15,265,,30,01,165,,34,01,071,,0*74
$GBGSV,3,1,10,01,43,152,27,04,35,132,39,07,74,226,43,08,51,241,20,1*74
$GBGSV,3,2,10,10,70,270,45,13,41,238,16,27,40,302,45,28,66,034,46,1*73
$GBGSV,3,3,10,33,48,095,45,37,21,228,29,1*72
$GBGSV,2,1,05,04,35,132,39,07,74,226,41,10,70,270,42,27,40,302,18,3*71
$GBGSV,2,2,05,33,48,095,19,3*49
$GNRMC,035443.00,A,3726.9120801,N,12639.1221627,E,0.004,,210622,,,F,V*18
$GNVTG,,T,,M,0.004,N,0.007,K,D*3B
$GNGNS,035443.00,3726.9120801,N,12639.1221627,E,FFFF,29,0.76,10.215,17.834,1.0,4095,V*0B
$GNGGA,035443.00,3726.9120801,N,12639.1221627,E,5,12,0.76,10.215,M,17.834,M,1.0,4095*57
$GNGSA,A,3,19,04,03,14,17,06,01,,,,,,1.62,0.76,1.43,1*08
$GNGSA,A,3,75,76,70,87,85,71,77,,,,,,1.62,0.76,1.43,2*00
$GNGSA,A,3,13,01,03,21,08,15,,,,,,,1.62,0.76,1.43,3*0E
$GNGSA,A,3,13,28,04,08,10,37,07,33,27,,,,1.62,0.76,1.43,4*05
$GPGSV,3,1,09,01,22,058,42,03,50,059,47,04,14,111,36,06,40,270,38,1*65
$GPGSV,3,2,09,09,09,142,23,14,47,194,26,17,72,001,40,19,52,320,48,1*60
$GPGSV,3,3,09,28,,,46,1*65
$GPGSV,2,1,06,01,22,058,40,03,50,059,41,04,14,111,38,06,40,270,27,6*68
$GPGSV,2,2,06,09,09,142,13,17,72,001,38,6*69
$GPGSV,1,1,04,02,01,258,,11,05,252,,21,02,070,,50,47,179,,0*62
$GLGSV,2,1,07,70,39,065,32,71,36,132,41,75,12,202,28,76,38,256,28,1*7F
$GLGSV,2,2,07,77,25,314,28,85,36,055,44,87,13,287,28,1*46
$GLGSV,2,1,05,71,36,132,35,75,12,202,27,76,38,256,20,77,25,314,24,3*73
$GLGSV,2,2,05,85,36,055,39,3*4D
$GLGSV,1,1,03,69,01,017,,72,05,171,,86,52,346,,0*4D
$GAGSV,2,1,07,01,14,322,35,03,22,083,42,08,17,136,27,13,61,306,43,2*75
$GAGSV,2,2,07,15,46,048,42,18,53,100,46,21,48,281,41,2*40
$GAGSV,2,1,08,01,14,322,40,03,22,083,42,08,17,136,32,13,61,306,46,7*7C
$GAGSV,2,2,08,15,46,048,46,18,53,100,51,21,48,281,40,27,41,201,24,7*7C
$GAGSV,1,1,04,05,05,036,,26,15,265,,30,01,165,,34,01,071,,0*74
$GBGSV,3,1,09,04,35,132,39,07,74,226,43,08,51,241,20,10,70,270,44,1*7A
$GBGSV,3,2,09,13,41,238,16,27,40,302,45,28,66,034,46,33,48,095,45,1*78
$GBGSV,3,3,09,37,21,228,29,1*4B
$GBGSV,2,1,05,04,35,132,38,07,74,226,40,10,70,270,41,27,40,302,15,3*7F
$GBGSV,2,2,05,33,48,095,15,3*45
$GBGSV,2,1,05,01,43,152,,02,27,236,,03,44,206,,05,08,255,,0*79
$GBGSV,2,2,05,05,08,255,,0*4D
$GNRMC,035444.00,A,3726.9120560,N,12639.1222378,E,0.015,,210622,,,F,V*19
$GNVTG,,T,,M,0.015,N,0.028,K,D*36
$GNGNS,035444.00,3726.9120560,N,12639.1222378,E,FFFF,29,0.76,10.557,17.834,2.0,4095,V*08
$GNGGA,035444.00,3726.9120560,N,12639.1222378,E,5,12,0.76,10.557,M,17.834,M,2.0,4095*54
$GNGSA,A,3,19,04,03,14,17,06,01,,,,,,1.62,0.76,1.43,1*08
$GNGSA,A,3,75,76,70,87,85,71,77,,,,,,1.62,0.76,1.43,2*00
$GNGSA,A,3,13,01,03,21,08,15,,,,,,,1.62,0.76,1.43,3*0E
$GNGSA,A,3,13,28,04,08,10,37,07,33,27,,,,1.62,0.76,1.43,4*05
$GPGSV,3,1,09,01,22,058,42,03,50,059,46,04,14,111,36,06,40,270,38,1*64
$GPGSV,3,2,09,09,09,142,23,14,47,194,26,17,72,001,40,19,52,320,48,1*60
$GPGSV,3,3,09,28,,,46,1*65
$GPGSV,2,1,06,01,22,058,40,03,50,059,41,04,14,111,39,06,40,270,27,6*69
$GPGSV,2,2,06,09,09,142,13,17,72,001,38,6*69
$GPGSV,1,1,04,02,01,258,,11,05,252,,21,02,070,,50,47,179,,0*62
$GLGSV,2,1,07,70,39,065,32,71,36,132,42,75,12,202,26,76,38,256,28,1*72
$GLGSV,2,2,07,77,25,314,28,85,36,055,44,87,13,287,28,1*46
$GLGSV,2,1,05,71,36,132,35,75,12,202,26,76,38,256,20,77,25,314,24,3*72
$GLGSV,2,2,05,85,36,055,40,3*43
$GLGSV,1,1,03,69,01,017,,72,05,171,,86,52,346,,0*4D
$GAGSV,2,1,07,01,14,322,36,03,22,083,43,08,17,136,27,13,61,306,43,2*77
$GAGSV,2,2,07,15,46,048,43,18,53,100,47,21,48,281,42,2*43
$GAGSV,2,1,08,01,14,322,40,03,22,083,42,08,17,136,32,13,61,306,46,7*7C
$GAGSV,2,2,08,15,46,048,45,18,53,100,51,21,48,281,40,27,41,201,25,7*7E
$GAGSV,1,1,04,05,05,036,,26,15,265,,30,01,165,,34,01,071,,0*74
$GBGSV,3,1,09,04,35,132,39,07,74,226,43,08,51,241,21,10,70,270,45,1*7A
$GBGSV,3,2,09,13,41,238,16,27,40,302,45,28,66,034,46,33,48,095,45,1*78
$GBGSV,3,3,09,37,21,228,29,1*4B
$GBGSV,2,1,05,04,35,132,38,07,74,226,41,10,70,270,41,27,40,302,11,3*7A
$GBGSV,2,2,05,33,48,095,10,3*40
$GBGSV,2,1,05,01,43,152,,02,27,236,,03,44,206,,05,08,255,,0*79
$GBGSV,2,2,05,05,08,255,,0*4D
$GNRMC,035445.00,A,3726.9120211,N,12639.1223042,E,0.020,,210622,,,F,V*14
$GNVTG,,T,,M,0.020,N,0.037,K,D*3E
$GNGNS,035445.00,3726.9120211,N,12639.1223042,E,FFFF,29,0.76,10.830,17.834,2.0,4095,V*0F
$GNGGA,035445.00,3726.9120211,N,12639.1223042,E,5,12,0.76,10.830,M,17.834,M,2.0,4095*53
$GNGSA,A,3,19,04,03,14,17,06,01,,,,,,1.62,0.76,1.43,1*08
$GNGSA,A,3,75,76,70,87,85,71,77,,,,,,1.62,0.76,1.43,2*00
$GNGSA,A,3,13,01,03,21,08,15,,,,,,,1.62,0.76,1.43,3*0E
$GNGSA,A,3,13,28,04,08,10,37,07,33,27,,,,1.62,0.76,1.43,4*05
$GPGSV,3,1,09,01,22,058,42,03,50,059,46,04,14,111,36,06,40,270,38,1*64
$GPGSV,3,2,09,09,09,142,22,14,47,194,26,17,72,001,40,19,52,320,48,1*61
$GPGSV,3,3,09,28,,,46,1*65
$GPGSV,2,1,06,01,22,058,40,03,50,059,41,04,14,111,39,06,40,270,28,6*66
$GPGSV,2,2,06,09,09,142,13,17,72,001,38,6*69
$GPGSV,1,1,04,02,01,258,,11,05,252,,21,02,070,,50,47,179,,0*62
$GLGSV,2,1,07,70,39,065,32,71,36,132,42,75,12,202,25,76,38,256,28,1*71
$GLGSV,2,2,07,77,25,314,28,85,36,055,44,87,13,287,28,1*46
$GLGSV,2,1,05,71,36,132,35,75,12,202,27,76,38,256,19,77,25,314,24,3*79
$GLGSV,2,2,05,85,36,055,40,3*43
$GLGSV,1,1,03,69,01,017,,72,05,171,,86,52,346,,0*4D
$GAGSV,2,1,07,01,14,322,37,03,22,083,43,08,17,136,28,13,61,306,44,2*7E
$GAGSV,2,2,07,15,46,048,43,18,53,100,47,21,48,281,42,2*43
$GAGSV,2,1,08,01,14,322,40,03,22,083,42,08,17,136,33,13,61,306,46,7*7D
$GAGSV,2,2,08,15,46,048,46,18,53,100,51,21,48,281,40,27,41,201,25,7*7D
$GAGSV,1,1,04,05,05,036,,26,15,265,,30,01,165,,34,01,071,,0*74
$GBGSV,3,1,09,04,35,132,39,07,74,226,43,08,51,241,22,10,70,270,45,1*79
$GBGSV,3,2,09,13,41,238,16,27,40,302,45,28,66,034,46,33,48,095,45,1*78
$GBGSV,3,3,09,37,21,228,28,1*4A
$GBGSV,2,1,05,04,35,132,38,07,74,226,40,10,70,270,40,27,40,302,09,3*73
$GBGSV,2,2,05,33,48,095,09,3*48
$GBGSV,2,1,05,01,43,152,,02,27,236,,03,44,206,,05,08,255,,0*79
$GBGSV,2,2,05,05,08,255,,0*4D
$GNRMC,035446.00,A,3726.9119902,N,12639.1223674,E,0.020,,210622,,,F,V*17
$GNVTG,,T,,M,0.020,N,0.037,K,D*3E
$GNGNS,035446.00,3726.9119902,N,12639.1223674,E,FFFF,29,0.76,11.056,17.834,3.0,4095,V*04
$GNGGA,035446.00,3726.9119902,N,12639.1223674,E,5,12,0.76,11.056,M,17.834,M,3.0,4095*58
$GNGSA,A,3,19,04,03,14,17,06,01,,,,,,1.62,0.76,1.43,1*08
$GNGSA,A,3,75,76,70,87,85,71,77,,,,,,1.62,0.76,1.43,2*00
$GNGSA,A,3,13,01,03,21,08,15,,,,,,,1.62,0.76,1.43,3*0E
$GNGSA,A,3,13,28,04,08,10,37,07,33,27,,,,1.62,0.76,1.43,4*05
$GPGSV,3,1,09,01,22,058,41,03,50,059,46,04,14,111,35,06,40,270,38,1*64
$GPGSV,3,2,09,09,09,142,22,14,47,194,25,17,72,001,41,19,52,320,47,1*6C
$GPGSV,3,3,09,28,,,46,1*65
$GPGSV,1,1,01,14,47,194,20,5*59
$GPGSV,2,1,06,01,22,058,42,03,50,059,43,04,14,111,40,06,40,270,28,6*68
$GPGSV,2,2,06,09,09,142,13,17,72,001,39,6*68
$GPGSV,1,1,04,02,01,258,,11,05,252,,21,02,070,,50,47,179,,0*62
$GLGSV,2,1,07,70,39,065,32,71,36,132,42,75,12,202,24,76,38,256,28,1*70
$GLGSV,2,2,07,77,25,314,29,85,36,055,44,87,13,287,28,1*47
$GLGSV,2,1,05,71,36,132,35,75,12,202,27,76,38,256,19,77,25,314,23,3*7E
$GLGSV,2,2,05,85,36,055,39,3*4D
$GLGSV,1,1,03,69,01,017,,72,05,171,,86,52,346,,0*4D
$GAGSV,2,1,07,01,14,322,34,03,22,083,43,08,17,136,28,13,61,306,44,2*7D
$GAGSV,2,2,07,15,46,048,43,18,53,100,47,21,48,281,42,2*43
$GAGSV,2,1,08,01,14,322,40,03,22,083,41,08,17,136,33,13,61,306,46,7*7E
$GAGSV,2,2,08,15,46,048,46,18,53,100,51,21,48,281,40,27,41,201,25,7*7D
$GAGSV,1,1,04,05,05,036,,26,15,265,,30,01,165,,34,01,071,,0*74
$GBGSV,3,1,09,04,35,132,39,07,74,226,43,08,51,241,20,10,70,270,45,1*7B
$GBGSV,3,2,09,13,41,238,17,27,40,302,46,28,66,034,46,33,48,095,45,1*7A
$GBGSV,3,3,09,37,21,228,28,1*4A
$GBGSV,2,1,05,04,35,132,36,07,74,226,39,10,70,270,39,27,40,302,07,3*73
$GBGSV,2,2,05,33,48,095,09,3*48
$GNRMC,035447.00,A,3726.9119448,N,12639.1224238,E,0.016,,210622,,,F,V*1B
$GNVTG,,T,,M,0.016,N,0.029,K,D*34
$GNGNS,035447.00,3726.9119448,N,12639.1224238,E,FFFF,29,0.76,11.283,17.834,2.0,4095,V*06
$GNGGA,035447.00,3726.9119448,N,12639.1224238,E,5,12,0.76,11.283,M,17.834,M,2.0,4095*5A
$GNGSA,A,3,19,04,03,14,17,06,01,,,,,,1.62,0.76,1.43,1*08
$GNGSA,A,3,75,76,70,87,85,71,77,,,,,,1.62,0.76,1.43,2*00
$GNGSA,A,3,13,01,03,21,08,15,,,,,,,1.62,0.76,1.43,3*0E
$GNGSA,A,3,13,28,04,08,10,37,07,33,27,,,,1.62,0.76,1.43,4*05
$GPGSV,3,1,09,01,22,058,41,03,50,059,46,04,14,111,35,06,40,270,38,1*64
$GPGSV,3,2,09,09,09,142,21,14,47,194,24,17,72,001,41,19,52,320,47,1*6E
$GPGSV,3,3,09,28,,,45,1*66
$GPGSV,2,1,07,01,22,058,41,03,50,059,42,04,14,111,39,06,40,270,28,6*65
$GPGSV,2,2,07,09,09,142,11,14,47,194,16,17,72,001,39,6*56
$GPGSV,1,1,04,02,01,258,,11,05,252,,21,02,070,,50,47,179,,0*62
$GLGSV,2,1,07,70,39,065,31,71,36,132,42,75,12,202,23,76,38,256,28,1*74
$GLGSV,2,2,07,77,25,314,29,85,36,055,44,87,13,287,28,1*47
$GLGSV,2,1,05,71,36,132,35,75,12,202,27,76,38,256,20,77,25,314,23,3*74
$GLGSV,2,2,05,85,36,055,39,3*4D
$GLGSV,1,1,03,69,01,017,,72,05,171,,86,52,346,,0*4D
$GAGSV,2,1,07,01,14,322,36,03,22,083,42,08,17,136,27,13,61,306,42,2*77
$GAGSV,2,2,07,15,46,048,42,18,53,100,46,21,48,281,41,2*40
$GAGSV,2,1,08,01,14,322,40,03,22,083,42,08,17,136,33,13,61,306,46,7*7D
$GAGSV,2,2,08,15,46,048,46,18,53,100,51,21,48,281,40,27,41,201,25,7*7D
$GAGSV,1,1,04,05,05,036,,26,15,265,,30,01,165,,34,01,071,,0*74
$GBGSV,3,1,09,04,35,132,39,07,74,226,43,08,51,241,21,10,70,270,44,1*7B
$GBGSV,3,2,09,13,41,238,17,27,40,302,45,28,66,034,46,33,48,095,45,1*79
$GBGSV,3,3,09,37,21,228,28,1*4A
$GBGSV,2,1,05,04,35,132,37,07,74,226,40,10,70,270,40,27,40,302,08,3*7D
$GBGSV,2,2,05,33,48,095,07,3*46
$GBGSV,2,1,05,01,43,152,,02,27,236,,03,44,206,,05,08,255,,0*79
$GBGSV,2,2,05,05,08,255,,0*4D
$GNRMC,035448.00,A,3726.9119067,N,12639.1224864,E,0.020,,210622,,,F,V*1B
$GNVTG,,T,,M,0.020,N,0.037,K,D*3E
$GNGNS,035448.00,3726.9119067,N,12639.1224864,E,FFFF,29,0.72,11.543,17.834,2.0,4095,V*0C
$GNGGA,035448.00,3726.9119067,N,12639.1224864,E,5,12,0.72,11.543,M,17.834,M,2.0,4095*50
$GNGSA,A,3,19,04,03,14,17,06,01,,,,,,1.45,0.72,1.25,1*09
$GNGSA,A,3,75,76,70,87,85,71,77,,,,,,1.45,0.72,1.25,2*01
$GNGSA,A,3,13,01,03,21,08,15,,,,,,,1.45,0.72,1.25,3*0F
$GNGSA,A,3,13,28,04,08,10,37,07,33,27,,,,1.45,0.72,1.25,4*04
$GPGSV,3,1,09,01,22,058,41,03,50,059,46,04,14,111,36,06,40,270,38,1*67
$GPGSV,3,3,09,28,,,45,1*66
$GPGSV,2,1,06,01,22,058,40,03,50,059,42,04,14,111,39,06,40,270,28,6*65
$GPGSV,2,2,06,09,09,142,13,17,72,001,39,6*68
$GPGSV,1,1,04,02,01,258,,11,05,252,,21,02,070,,50,47,179,,0*62
$GLGSV,2,1,07,70,39,065,31,71,36,132,42,75,12,202,21,76,38,256,27,1*79
$GLGSV,2,2,07,77,25,314,29,85,36,055,44,87,13,287,28,1*47
$GLGSV,2,2,05,85,36,055,39,3*4D
$GLGSV,1,1,03,69,01,017,,72,05,171,,86,52,346,,0*4D
$GAGSV,2,1,07,01,14,322,37,03,22,083,43,08,17,136,28,13,61,306,44,2*7E
$GAGSV,2,2,07,15,46,048,43,18,53,100,47,21,48,281,42,2*43
$GAGSV,2,1,08,01,14,322,40,03,22,083,42,08,17,136,33,13,61,306,46,7*7D
$GAGSV,2,2,08,15,46,048,46,18,53,100,51,21,48,281,39,27,41,201,25,7*73
$GAGSV,1,1,04,05,05,036,,26,15,265,,30,01,165,,34,01,071,,0*74
$GBGSV,3,1,09,04,35,132,39,07,74,226,44,08,51,241,20,10,70,270,45,1*7C
$GBGSV,3,2,09,13,41,238,16,27,40,302,45,28,66,034,46,33,48,095,45,1*78
$GBGSV,3,3,09,37,21,228,27,1*45
$GBGSV,2,1,05,04,35,132,37,07,74,226,40,10,70,270,40,27,40,302,07,3*72
$GBGSV,2,2,05,33,48,095,08,3*49
$GBGSV,2,1,05,01,43,152,,02,27,236,,03,44,206,,05,08,255,,0*79
$GBGSV,2,2,05,05,08,255,,0*4D
$GNRMC,035449.00,A,3726.9118803,N,12639.1225460,E,0.011,,210622,,,F,V*1A
$GNVTG,,T,,M,0.011,N,0.021,K,D*3B
$GNGNS,035449.00,3726.9118803,N,12639.1225460,E,FFFF,29,0.72,11.812,17.834,2.0,4095,V*06
$GNGGA,035449.00,3726.9118803,N,12639.1225460,E,5,12,0.72,11.812,M,17.834,M,2.0,4095*5A
$GNGSA,A,3,19,04,03,14,17,06,01,,,,,,1.45,0.72,1.25,1*09
$GNGSA,A,3,75,76,70,87,85,71,77,,,,,,1.45,0.72,1.25,2*01
$GNGSA,A,3,27,13,01,03,21,08,15,,,,,,1.45,0.72,1.25,3*0A
$GNGSA,A,3,28,04,08,10,37,07,33,27,,,,,1.45,0.72,1.25,4*06
$GPGSV,3,1,09,01,22,058,41,03,50,059,46,04,14,111,36,06,40,270,38,1*67
$GPGSV,3,2,09,09,09,142,22,14,47,194,25,17,72,001,41,19,52,320,48,1*63
$GPGSV,3,3,09,28,,,45,1*66
$GPGSV,2,1,06,01,22,058,39,03,50,059,40,04,14,111,37,06,40,270,28,6*67
$GPGSV,2,2,06,09,09,142,15,17,72,001,37,6*60
$GPGSV,1,1,04,02,01,258,,11,05,252,,21,02,070,,50,47,179,,0*62
$GLGSV,2,1,07,70,39,065,31,71,36,132,41,75,12,202,20,76,38,256,27,1*7B
$GLGSV,2,2,07,77,25,314,29,85,36,055,44,87,13,287,28,1*47
$GLGSV,2,1,05,71,36,132,35,75,12,202,27,76,38,256,20,77,25,314,22,3*75
$GLGSV,2,2,05,85,36,055,39,3*4D
$GLGSV,1,1,03,69,01,017,,72,05,171,,86,52,346,,0*4D
$GAGSV,2,1,07,01,14,322,36,03,22,083,42,08,17,136,27,13,61,306,43,2*76
$GAGSV,2,2,07,15,46,048,42,18,53,100,46,21,48,281,41,2*40
$GAGSV,2,1,08,01,14,322,40,03,22,083,42,08,17,136,33,13,61,306,46,7*7D
$GAGSV,2,2,08,15,46,048,46,18,53,100,51,21,48,281,39,27,41,201,25,7*73
$GAGSV,1,1,04,05,05,036,,26,15,265,,30,01,165,,34,01,071,,0*74
$GBGSV,3,1,09,04,35,132,39,07,74,226,44,08,51,241,20,10,70,270,44,1*7D
$GBGSV,3,2,09,13,41,238,16,27,40,302,45,28,66,034,46,33,48,095,45,1*78
$GBGSV,3,3,09,37,21,228,27,1*45
$GBGSV,2,1,05,04,35,132,37,07,74,226,40,10,70,270,40,27,40,302,08,3*7D
$GBGSV,2,2,05,33,48,095,08,3*49
$GBGSV,2,1,05,01,43,152,,02,27,236,,03,44,206,,05,08,255,,0*79
$GBGSV,2,2,05,05,08,255,,0*4D
$GNRMC,035450.00,A,3726.9118743,N,12639.1226028,E,0.012,,210622,,,F,V*11
$GNVTG,,T,,M,0.012,N,0.022,K,D*3B
$GNGNS,035450.00,3726.9118743,N,12639.1226028,E,FFFF,29,0.76,12.088,17.834,3.0,4095,V*03
$GNGGA,035450.00,3726.9118743,N,12639.1226028,E,5,12,0.76,12.088,M,17.834,M,3.0,4095*5F
$GNGSA,A,3,19,04,03,14,17,06,01,,,,,,1.62,0.76,1.43,1*08
$GNGSA,A,3,75,76,70,87,85,71,77,,,,,,1.62,0.76,1.43,2*00
$GNGSA,A,3,27,13,01,03,21,08,15,,,,,,1.62,0.76,1.43,3*0B
$GNGSA,A,3,28,04,08,10,37,07,33,27,,,,,1.62,0.76,1.43,4*07
$GPGSV,3,1,09,01,22,058,41,03,50,059,46,04,14,111,36,06,40,270,38,1*67
$GPGSV,3,2,09,09,09,142,22,14,47,194,25,17,72,001,42,19,52,320,47,1*6F
$GPGSV,3,3,09,28,,,45,1*66
$GPGSV,2,1,06,01,22,058,39,03,50,059,41,04,14,111,37,06,40,270,28,6*66
$GPGSV,2,2,06,09,09,142,17,17,72,001,37,6*62
$GPGSV,1,1,04,02,01,258,,11,05,252,,21,02,070,,50,47,179,,0*62
$GLGSV,2,1,07,70,39,065,31,71,36,132,41,75,12,202,21,76,38,256,27,1*7A
$GLGSV,2,2,07,77,25,314,29,85,36,055,44,87,13,287,29,1*46
$GLGSV,2,1,05,71,36,132,35,75,12,202,27,76,38,256,21,77,25,314,22,3*74
$GLGSV,2,2,05,85,36,055,39,3*4D
$GLGSV,1,1,03,69,01,017,,72,05,171,,86,52,346,,0*4D
$GAGSV,2,1,07,01,14,322,36,03,22,083,42,08,17,136,28,13,61,306,43,2*79
$GAGSV,2,2,07,15,46,048,42,18,53,100,46,21,48,281,41,2*40
$GAGSV,2,1,08,01,14,322,40,03,22,083,42,08,17,136,33,13,61,306,46,7*7D
$GNRMC,035451.00,A,3726.9118965,N,12639.1226578,E,0.016,,210622,,,F,V*1E
$GNVTG,,T,,M,0.016,N,0.030,K,D*3C
$GNGNS,035451.00,3726.9118965,N,12639.1226578,E,FFFF,29,0.72,12.387,17.834,2.0,4095,V*01
$GNGGA,035451.00,3726.9118965,N,12639.1226578,E,5,12,0.72,12.387,M,17.834,M,2.0,4095*5D
$GNGSA,A,3,19,04,03,14,17,06,01,,,,,,1.44,0.72,1.25,1*08
$GNGSA,A,3,75,76,70,87,85,71,77,,,,,,1.44,0.72,1.25,2*00
$GNGSA,A,3,27,13,01,03,21,08,15,,,,,,1.44,0.72,1.25,3*0B
$GNGSA,A,3,28,04,08,10,37,07,33,27,,,,,1.44,0.72,1.25,4*07
$GPGSV,3,1,09,01,22,058,41,03,50,059,46,04,14,111,36,06,40,270,37,1*68
$GPGSV,3,2,09,09,09,142,23,14,47,194,25,17,72,001,42,19,52,320,48,1*61
$GPGSV,3,3,09,28,,,45,1*66
$GPGSV,2,1,06,01,22,058,40,03,50,059,42,04,14,111,38,06,40,270,28,6*64
$GPGSV,2,2,06,09,09,142,18,17,72,001,37,6*6D
$GPGSV,1,1,04,02,01,258,,11,05,252,,21,02,070,,50,47,179,,0*62
$GLGSV,2,1,07,70,39,065,31,71,36,132,41,75,12,202,21,76,38,256,27,1*7A
$GLGSV,2,2,07,77,25,314,28,85,36,056,44,87,13,287,29,1*44
$GLGSV,2,1,05,71,36,132,35,75,12,202,28,76,38,256,21,77,25,314,21,3*78
$GLGSV,2,2,05,85,36,056,39,3*4E
$GLGSV,1,1,03,69,01,017,,72,05,171,,86,52,346,,0*4D
$GAGSV,2,1,07,01,14,322,37,03,22,083,43,08,17,136,28,13,61,306,44,2*7E
$GAGSV,2,2,07,15,46,048,43,18,53,100,47,21,48,281,42,2*43
$GAGSV,2,1,08,01,14,322,40,03,22,083,42,08,17,136,33,13,61,306,46,7*7D
$GAGSV,2,2,08,15,46,048,46,18,53,100,51,21,48,281,39,27,41,201,25,7*73
$GAGSV,1,1,04,05,05,036,,26,15,265,,30,01,165,,34,01,071,,0*74
$GBGSV,3,1,09,04,35,132,39,07,74,226,44,08,51,241,18,10,70,270,44,1*76
$GBGSV,3,2,09,13,41,238,15,27,40,302,45,28,66,034,46,33,48,095,46,1*78
$GBGSV,3,3,09,37,21,228,27,1*45
$GBGSV,2,1,05,04,35,132,38,07,74,226,41,10,70,270,41,27,40,302,08,3*72
$GBGSV,2,2,05,33,48,095,08,3*49
$GBGSV,2,1,05,01,43,152,,02,27,236,,03,44,206,,05,08,255,,0*79
$GBGSV,2,2,05,05,08,255,,0*4D
$GNRMC,035452.00,A,3726.9119077,N,12639.1227114,E,0.001,,210622,,,F,V*1F
$GNVTG,,T,,M,0.001,N,0.002,K,D*3B
$GNGNS,035452.00,3726.9119077,N,12639.1227114,E,FFFF,29,0.72,12.661,17.834,3.0,4095,V*0A
$GNGGA,035452.00,3726.9119077,N,12639.1227114,E,5,12,0.72,12.661,M,17.834,M,3.0,4095*56
$GNGSA,A,3,19,04,03,14,17,06,01,,,,,,1.44,0.72,1.25,1*08
$GNGSA,A,3,75,76,70,87,85,71,77,,,,,,1.44,0.72,1.25,2*00
$GNGSA,A,3,27,13,01,03,21,08,15,,,,,,1.44,0.72,1.25,3*0B
$GNGSA,A,3,28,04,08,10,37,07,33,27,,,,,1.44,0.72,1.25,4*07
$GPGSV,3,1,09,01,22,058,42,03,50,059,45,04,14,111,36,06,40,270,38,1*67
$GPGSV,3,2,09,09,09,142,23,14,47,194,24,17,72,001,42,19,52,320,48,1*60
$GPGSV,3,3,09,28,,,45,1*66
$GPGSV,1,1,01,14,47,194,17,5*5D
$GPGSV,2,1,06,01,22,058,40,03,50,059,42,04,14,111,38,06,40,270,28,6*64
$GPGSV,2,2,06,09,09,142,19,17,72,001,37,6*6C
$GPGSV,1,1,04,02,01,258,,11,05,252,,21,02,070,,50,47,179,,0*62
$GLGSV,2,1,07,70,39,065,31,71,36,132,41,75,12,202,21,76,38,256,27,1*7A
$GLGSV,2,2,07,77,25,314,29,85,36,056,43,87,13,287,30,1*4A
$GLGSV,2,1,05,71,36,132,35,75,12,202,29,76,38,256,21,77,25,314,21,3*79
$GLGSV,2,2,05,85,36,056,39,3*4E
$GLGSV,1,1,03,69,01,017,,72,05,171,,86,52,347,,0*4C
$GAGSV,2,1,07,01,14,322,36,03,22,083,42,08,17,136,27,13,61,306,42,2*77
$GAGSV,2,2,07,15,46,048,42,18,53,100,46,21,48,281,41,2*40
$GAGSV,2,1,08,01,14,322,40,03,22,083,42,08,17,136,33,13,61,306,46,7*7D
$GAGSV,2,2,08,15,46,048,46,18,53,100,51,21,48,281,39,27,41,201,25,7*73
$GAGSV,1,1,04,05,05,036,,26,15,265,,30,01,165,,34,01,071,,0*74
$GBGSV,2,1,08,04,35,132,39,07,74,226,44,08,51,241,18,10,70,270,44,1*76
$GBGSV,2,2,08,27,40,302,46,28,66,034,46,33,48,095,46,37,21,228,27,1*7B
$GBGSV,2,1,05,04,35,132,38,07,74,226,41,10,70,270,41,27,40,302,08,3*72
$GBGSV,2,2,05,33,48,095,08,3*49
$GBGSV,2,1,06,01,43,152,,02,27,236,,03,44,206,,05,08,255,,0*7A
$GBGSV,2,2,06,05,08,255,,13,41,238,,0*70
$GNRMC,035453.00,A,3726.9118949,N,12639.1227461,E,0.007,,210622,,,F,V*1A
$GNVTG,,T,,M,0.007,N,0.014,K,D*3A
$GNGNS,035453.00,3726.9118949,N,12639.1227461,E,FFFF,29,0.76,12.807,17.834,1.0,4095,V*01
$GNGGA,035453.00,3726.9118949,N,12639.1227461,E,5,12,0.76,12.807,M,17.834,M,1.0,4095*5D
$GNGSA,A,3,19,04,03,14,17,06,01,,,,,,1.62,0.76,1.43,1*08
$GNGSA,A,3,75,76,70,87,85,71,77,,,,,,1.62,0.76,1.43,2*00
$GNGSA,A,3,27,13,01,03,21,08,15,,,,,,1.62,0.76,1.43,3*0B
$GNGSA,A,3,28,04,08,10,37,07,33,27,,,,,1.62,0.76,1.43,4*07
$GPGSV,3,1,09,01,22,058,41,03,50,059,45,04,14,111,36,06,40,270,38,1*64
$GPGSV,3,2,09,09,09,142,22,14,47,194,24,17,72,001,42,19,52,320,48,1*61
$GPGSV,3,3,09,28,,,45,1*66
$GPGSV,2,1,07,01,22,058,39,03,50,059,42,04,14,111,38,06,40,270,28,6*6B
$GPGSV,2,2,07,09,09,142,20,14,47,194,18,17,72,001,37,6*54
$GPGSV,1,1,04,02,01,258,,11,05,252,,21,02,070,,50,47,179,,0*62
$GLGSV,2,1,07,70,39,065,31,71,36,132,41,75,12,202,21,76,38,256,27,1*7A
$GLGSV,2,2,07,77,25,314,29,85,36,056,43,87,13,288,30,1*45
$GLGSV,2,1,05,71,36,132,35,75,12,202,29,76,38,256,22,77,25,314,22,3*79
$GLGSV,2,2,05,85,36,056,39,3*4E
$GLGSV,1,1,03,69,01,017,,72,05,171,,86,52,347,,0*4C
$GAGSV,2,1,08,01,14,322,35,03,22,083,41,08,17,136,27,13,61,306,42,2*78
$GAGSV,2,2,08,15,46,048,41,18,53,100,45,21,48,281,40,27,41,201,22,2*7D
$GAGSV,2,1,08,01,14,322,40,03,22,083,42,08,17,136,33,13,61,306,46,7*7D
$GAGSV,2,2,08,15,46,048,46,18,53,100,50,21,48,281,39,27,41,201,25,7*72
$GAGSV,1,1,04,05,05,036,,26,15,265,,30,01,165,,34,01,071,,0*74
$GBGSV,2,1,08,04,35,132,39,07,74,226,44,08,51,241,16,10,70,270,45,1*79
$GBGSV,2,2,08,27,40,302,45,28,66,034,46,33,48,095,46,37,21,228,28,1*77
$GBGSV,1,1,04,04,35,132,38,07,74,226,40,10,70,270,41,33,48,095,09,3*70
$GBGSV,2,1,06,01,43,152,,02,27,236,,03,44,206,,05,08,255,,0*7A
$GNRMC,035454.00,A,3726.9118818,N,12639.1227774,E,0.016,,210622,,,F,V*1F
$GLGSV,2,1,07,70,39,065,31,71,36,132,41,75,12,202,20,76,38,256,26,1*7A
$GLGSV,2,2,07,77,25,314,29,85,36,056,43,87,13,288,31,1*44
$GLGSV,2,1,05,71,36,132,36,75,12,202,30,76,38,256,21,77,25,314,22,3*71
$GLGSV,2,2,05,85,36,056,39,3*4E
$GLGSV,1,1,03,69,01,017,,72,05,171,,86,52,347,,0*4C
$GAGSV,2,1,07,01,14,322,37,03,22,083,43,08,17,136,28,13,61,306,43,2*79
$GNRMC,035455.00,A,3726.9118768,N,12639.1228112,E,0.012,,210622,,,F,V*1B
$GNVTG,,T,,M,0.012,N,0.022,K,D*3B
$GNGNS,035455.00,3726.9118768,N,12639.1228112,E,FFFF,29,0.76,13.173,17.834,2.0,4095,V*0C
$GNGGA,035455.00,3726.9118768,N,12639.1228112,E,5,12,0.76,13.173,M,17.834,M,2.0,4095*50
$GNGSA,A,3,19,04,03,14,17,06,01,,,,,,1.62,0.76,1.43,1*08
$GNGSA,A,3,75,76,70,87,85,71,77,,,,,,1.62,0.76,1.43,2*00
$GNGSA,A,3,27,13,01,03,21,08,15,,,,,,1.62,0.76,1.43,3*0B
$GNGSA,A,3,28,04,08,10,37,07,33,27,,,,,1.62,0.76,1.43,4*07
$GPGSV,3,1,09,01,22,058,41,03,50,059,45,04,14,111,36,06,40,270,37,1*6B
$GPGSV,3,2,09,09,09,142,23,14,47,194,26,17,72,001,42,19,52,320,48,1*62
$GPGSV,3,3,09,28,,,45,1*66
$GPGSV,2,1,07,01,22,058,39,03,50,059,42,04,14,111,38,06,40,270,28,6*6B
$GPGSV,2,2,07,09,09,142,21,14,47,194,18,17,72,001,37,6*55
$GPGSV,1,1,04,02,01,258,,11,05,252,,21,02,070,,50,47,179,,0*62
$GLGSV,2,1,07,70,39,065,31,71,36,132,41,75,12,202,18,76,38,256,25,1*72
$GLGSV,2,2,07,77,25,314,29,85,36,056,43,87,13,288,30,1*45
$GLGSV,2,1,05,71,36,132,36,75,12,202,30,76,38,256,21,77,25,314,21,3*72
$GLGSV,2,2,05,85,36,056,39,3*4E
$GLGSV,1,1,03,69,01,017,,72,05,171,,86,52,347,,0*4C
$GAGSV,2,1,07,01,14,322,36,03,22,083,42,08,17,136,28,13,61,306,43,2*79
$GAGSV,2,2,07,15,46,048,42,18,53,100,46,21,48,281,41,2*40
$GAGSV,2,1,08,01,14,322,40,03,22,083,42,08,17,136,33,13,61,306,46,7*7D
$GAGSV,2,2,08,15,46,048,46,18,53,100,51,21,48,281,39,27,41,201,26,7*70
$GAGSV,1,1,04,05,05,036,,26,15,265,,30,01,165,,34,01,071,,0*74
$GBGSV,2,1,08,04,35,132,39,07,74,226,44,08,51,241,16,10,70,270,44,1*78
$GBGSV,2,2,08,27,40,302,45,28,66,034,46,33,48,095,46,37,21,228,28,1*77
$GBGSV,1,1,03,04,35,132,38,07,74,226,41,10,70,270,41,3*4F
$GBGSV,2,1,06,01,43,152,,02,27,236,,03,44,206,,05,08,255,,0*7A
$GBGSV,2,2,06,05,08,255,,13,41,238,,0*70
$GNRMC,035456.00,A,3726.9118815,N,12639.1228431,E,0.012,,210622,,,F,V*19
$GNVTG,,T,,M,0.012,N,0.021,K,D*38
$GNGNS,035456.00,3726.9118815,N,12639.1228431,E,FFFF,29,0.76,13.363,17.834,2.0,4095,V*0D
$GNGGA,035456.00,3726.9118815,N,12639.1228431,E,5,12,0.76,13.363,M,17.834,M,2.0,4095*51
$GNGSA,A,3,19,04,03,14,17,06,01,,,,,,1.62,0.76,1.43,1*08
$GNGSA,A,3,75,76,70,87,85,71,77,,,,,,1.62,0.76,1.43,2*00
$GNGSA,A,3,27,13,01,03,21,08,15,,,,,,1.62,0.76,1.43,3*0B
$GNGSA,A,3,28,04,08,10,37,07,33,27,,,,,1.62,0.76,1.43,4*07
$GPGSV,3,1,09,01,21,058,40,03,50,059,45,04,14,111,37,06,40,270,37,1*68
$GPGSV,3,2,09,09,09,142,23,14,47,194,26,17,72,001,42,19,52,320,48,1*62
$GPGSV,3,3,09,28,,,45,1*66
$GPGSV,2,1,07,01,21,058,40,03,50,059,42,04,14,111,38,06,40,270,29,6*67
$GPGSV,2,2,07,09,09,142,22,14,47,194,20,17,72,001,39,6*53
$GPGSV,1,1,04,02,01,258,,11,05,252,,21,02,070,,50,47,179,,0*62
$GLGSV,2,1,07,70,39,065,31,71,36,132,41,75,12,202,17,76,38,256,24,1*7C
$GLGSV,2,2,07,77,25,314,29,85,36,056,43,87,13,288,30,1*45
$GLGSV,2,1,05,71,36,132,36,75,12,202,30,76,38,256,20,77,25,314,21,3*73
$GLGSV,2,2,05,85,36,056,38,3*4F
$GLGSV,1,1,03,69,01,017,,72,05,171,,86,52,347,,0*4C
$GAGSV,2,1,07,01,14,322,35,03,22,083,42,08,17,136,27,13,61,306,42,2*74
$GAGSV,2,2,07,15,46,048,42,18,53,100,45,21,48,281,41,2*43
$GAGSV,2,1,08,01,14,322,40,03,22,083,42,08,17,136,33,13,61,306,46,7*7D
$GAGSV,2,2,08,15,46,048,46,18,53,100,50,21,48,281,39,27,41,201,25,7*72
$GAGSV,1,1,04,05,05,036,,26,15,265,,30,01,165,,34,01,071,,0*74
$GBGSV,2,1,08,04,35,132,39,07,74,226,44,08,51,241,17,10,70,270,44,1*79
$GBGSV,2,2,08,27,40,302,45,28,66,034,46,33,48,095,46,37,21,228,28,1*77
$GBGSV,1,1,04,01,43,152,27,04,35,132,38,07,74,226,40,10,70,270,40,3*7D
$GBGSV,2,1,05,02,27,236,,03,44,206,,05,08,255,,13,41,238,,0*77
$GBGSV,2,2,05,13,41,238,,0*4C
$GNRMC,035457.00,A,3726.9118858,N,12639.1228638,E,0.011,,210622,,,F,V*19
$GNVTG,,T,,M,0.011,N,0.020,K,D*3A
$GNGNS,035457.00,3726.9118858,N,12639.1228638,E,FFFF,29,0.76,13.542,17.834,2.0,4095,V*0B
$GNGGA,035457.00,3726.9118858,N,12639.1228638,E,5,12,0.76,13.542,M,17.834,M,2.0,4095*57
$GNGSA,A,3,19,04,03,14,17,06,01,,,,,,1.62,0.76,1.43,1*08
$GNGSA,A,3,75,76,70,87,85,71,77,,,,,,1.62,0.76,1.43,2*00
$GNGSA,A,3,27,13,01,03,21,08,15,,,,,,1.62,0.76,1.43,3*0B
$GNGSA,A,3,28,04,08,10,37,07,33,27,,,,,1.62,0.76,1.43,4*07
$GPGSV,3,1,09,01,21,058,40,03,50,059,45,04,14,111,36,06,40,270,37,1*69
$GPGSV,3,2,09,09,09,142,24,14,47,194,26,17,72,001,42,19,52,320,48,1*65
$GPGSV,3,3,09,28,,,45,1*66
$GPGSV,2,1,07,01,21,058,41,03,50,059,43,04,14,111,39,06,40,270,30,6*6E
$GPGSV,2,2,07,09,09,142,22,14,47,194,20,17,72,001,38,6*52
$GPGSV,1,1,04,02,02,259,,11,05,252,,21,02,070,,50,47,179,,0*60
$GLGSV,2,1,07,70,39,065,31,71,36,132,42,75,12,202,15,76,38,256,22,1*7B
$GLGSV,2,2,07,77,25,314,29,85,36,056,42,87,13,288,30,1*44
$GLGSV,2,1,05,71,36,132,36,75,12,202,31,76,38,256,20,77,25,314,20,3*73
$GLGSV,2,2,05,85,36,056,39,3*4E
$GLGSV,1,1,03,69,01,017,,72,05,171,,86,52,347,,0*4C
$GAGSV,2,1,07,01,14,322,37,03,22,083,43,08,17,136,28,13,61,306,43,2*79
$GAGSV,2,2,07,15,46,048,42,18,53,100,47,21,48,281,42,2*42
$GAGSV,2,1,08,01,14,322,41,03,22,083,42,08,17,136,33,13,61,306,46,7*7C
$GAGSV,2,2,08,15,46,048,46,18,53,100,50,21,48,281,39,27,41,201,25,7*72
$GAGSV,1,1,04,05,05,036,,26,15,265,,30,01,165,,34,01,071,,0*74
$GBGSV,2,1,08,04,35,132,39,07,74,226,44,08,51,241,18,10,70,270,45,1*77
$GBGSV,2,2,08,27,40,302,45,28,66,034,46,33,48,095,46,37,21,228,28,1*77
$GBGSV,1,1,03,04,35,132,38,07,74,226,41,10,70,270,41,3*4F
$GBGSV,2,1,06,01,43,152,,02,27,236,,03,44,206,,05,08,255,,0*7A
$GBGSV,2,2,06,05,08,255,,13,41,238,,0*70
$GNRMC,035458.00,A,3726.9118829,N,12639.1228855,E,0.013,,210622,,,F,V*17
$GNVTG,,T,,M,0.013,N,0.025,K,D*3D
$GNGNS,035458.00,3726.9118829,N,12639.1228855,E,FFFF,29,0.82,13.678,17.834,3.0,4095,V*07
$GNGGA,035458.00,3726.9118829,N,12639.1228855,E,5,12,0.82,13.678,M,17.834,M,3.0,4095*5B
$GNGSA,A,3,19,04,03,14,17,06,01,,,,,,1.65,0.82,1.44,1*03
$GNGSA,A,3,75,76,70,87,85,71,77,,,,,,1.65,0.82,1.44,2*0B
$GNGSA,A,3,27,13,01,03,21,08,15,,,,,,1.65,0.82,1.44,3*00
$GNGSA,A,3,28,04,08,10,37,07,33,27,,,,,1.65,0.82,1.44,4*0C
$GPGSV,3,1,09,01,21,058,40,03,49,058,45,04,14,111,36,06,40,270,37,1*60
$GPGSV,3,2,09,09,09,142,24,14,47,194,26,17,72,001,42,19,52,320,48,1*65
$GPGSV,3,3,09,28,,,45,1*66
$GPGSV,2,1,07,01,21,058,40,03,49,058,43,04,14,111,38,06,40,270,30,6*67
$GPGSV,2,2,07,09,09,142,21,14,47,194,20,17,72,001,38,6*51
$GPGSV,1,1,04,02,02,259,,11,05,252,,21,02,070,,50,47,179,,0*60
$GLGSV,2,1,07,70,39,065,31,71,36,132,42,75,12,202,11,76,38,256,20,1*7D
$GLGSV,2,2,07,77,25,314,29,85,36,056,42,87,13,288,30,1*44
$GLGSV,2,1,05,71,36,132,36,75,12,202,31,76,38,256,20,77,25,314,19,3*79
$GLGSV,2,2,05,85,36,056,38,3*4F
$GLGSV,1,1,03,69,01,017,,72,05,171,,86,52,347,,0*4C
$GAGSV,2,1,07,01,14,322,37,03,22,083,43,08,17,136,28,13,61,306,43,2*79
$GAGSV,2,2,07,15,46,048,43,18,53,100,47,21,48,281,42,2*43
$GAGSV,2,1,08,01,14,322,41,03,22,083,42,08,17,136,33,13,61,306,46,7*7C
$GAGSV,2,2,08,15,46,048,46,18,53,100,50,21,48,281,39,27,41,201,25,7*72
$GAGSV,1,1,04,05,05,036,,26,15,265,,30,01,165,,34,01,071,,0*74
$GBGSV,2,1,08,04,35,132,39,07,74,226,44,08,51,241,17,10,70,270,44,1*79
$GBGSV,2,2,08,27,40,302,45,28,66,034,46,33,48,095,46,37,21,228,29,1*76
$GBGSV,1,1,03,04,35,132,38,07,74,226,41,10,70,270,41,3*4F
$GBGSV,2,1,06,01,43,152,,02,27,236,,03,44,206,,05,08,255,,0*7A
$GBGSV,2,2,06,05,08,255,,13,41,238,,0*70
$GNRMC,035459.00,A,3726.9118596,N,12639.1228997,E,0.014,,210622,,,F,V*17
$GNVTG,,T,,M,0.014,N,0.025,K,D*3A
$GNGNS,035459.00,3726.9118596,N,12639.1228997,E,FFFF,29,0.82,13.746,17.834,2.0,4095,V*0D
$GNGGA,035459.00,3726.9118596,N,12639.1228997,E,5,12,0.82,13.746,M,17.834,M,2.0,4095*51
$GNGSA,A,3,19,04,03,14,17,06,01,,,,,,1.65,0.82,1.44,1*03
$GNGSA,A,3,75,76,70,87,85,71,77,,,,,,1.65,0.82,1.44,2*0B
$GNGSA,A,3,27,13,01,03,21,08,15,,,,,,1.65,0.82,1.44,3*00
$GNGSA,A,3,28,04,08,10,37,07,33,27,,,,,1.65,0.82,1.44,4*0C
$GPGSV,3,1,09,01,21,058,40,03,49,058,44,04,14,110,36,06,40,270,37,1*60
$GPGSV,3,2,09,09,09,142,24,14,47,194,26,17,72,001,42,19,52,320,48,1*65
$GPGSV,3,3,09,28,,,45,1*66
$GPGSV,2,1,07,01,21,058,39,03,49,058,42,04,14,110,38,06,40,270,30,6*69
$GPGSV,2,2,07,09,09,142,21,14,47,194,20,17,72,001,38,6*51
$GPGSV,1,1,04,02,02,259,,11,05,252,,21,02,070,,50,47,179,,0*60
$GLGSV,2,1,07,70,39,065,31,71,36,132,42,75,12,202,11,76,38,256,17,1*79
$GLGSV,2,2,07,77,25,314,30,85,36,056,42,87,13,288,30,1*4C
$GLGSV,2,1,05,71,36,132,36,75,12,202,32,76,38,256,20,77,25,314,18,3*7B
$GLGSV,2,2,05,85,36,056,38,3*4F
$GLGSV,1,1,03,69,01,017,,72,05,171,,86,52,347,,0*4C
$GAGSV,2,1,07,01,14,322,36,03,22,083,42,08,17,136,27,13,61,306,42,2*77
$GAGSV,2,2,07,15,46,048,42,18,53,100,45,21,48,281,41,2*43
$GAGSV,2,1,08,01,14,322,41,03,22,083,42,08,17,136,33,13,61,306,46,7*7C
$GAGSV,2,2,08,15,46,048,46,18,53,100,50,21,48,281,39,27,41,201,24,7*73
$GAGSV,1,1,04,05,05,036,,26,15,265,,30,01,165,,34,01,071,,0*74
$GBGSV,2,1,08,04,35,132,39,07,74,226,44,08,51,241,17,10,70,270,44,1*79
$GBGSV,2,2,08,27,40,302,45,28,66,034,46,33,48,095,46,37,21,228,29,1*76
$GBGSV,1,1,03,04,35,132,38,07,74,226,41,10,70,270,41,3*4F
$GBGSV,2,1,06,01,43,152,,02,27,236,,03,44,206,,05,08,255,,0*7A
$GBGSV,2,2,06,05,08,255,,13,41,238,,0*70
$GNRMC,035500.00,A,3726.9118183,N,12639.1229156,E,0.015,,210622,,,F,V*1F
$GNVTG,,T,,M,0.015,N,0.028,K,D*36
$GNGNS,035500.00,3726.9118183,N,12639.1229156,E,FFFF,29,0.76,13.821,17.834,3.0,4095,V*00
$GNRMC,035501.00,A,3726.9117833,N,12639.1229301,E,0.008,,210622,,,F,V*1F
$GNVTG,,T,,M,0.008,N,0.015,K,D*34
$GNGNS,035501.00,3726.9117833,N,12639.1229301,E,FFFF,29,0.76,13.868,17.834,2.0,4095,V*00
$GNGGA,035501.00,3726.9117833,N,12639.1229301,E,5,12,0.76,13.868,M,17.834,M,2.0,4095*5C
$GNGSA,A,3,19,04,03,14,17,06,01,,,,,,1.62,0.76,1.43,1*08
$GNGSA,A,3,75,76,70,87,85,71,77,,,,,,1.62,0.76,1.43,2*00
$GNGSA,A,3,27,13,01,03,21,08,15,,,,,,1.62,0.76,1.43,3*0B
$GNGSA,A,3,28,04,08,10,37,07,33,27,,,,,1.62,0.76,1.43,4*07
$GPGSV,3,1,09,01,21,058,40,03,49,058,44,04,14,110,36,06,41,271,37,1*60
$GPGSV,3,2,09,09,09,142,23,14,47,194,27,17,72,001,41,19,52,320,48,1*60
$GPGSV,3,3,09,28,,,45,1*66
$GPGSV,2,1,07,01,21,058,40,03,49,058,43,04,14,110,38,06,41,271,30,6*66
$GPGSV,2,2,07,09,09,142,19,14,47,194,19,17,72,001,38,6*50
$GPGSV,1,1,04,02,02,259,,11,05,252,,21,02,070,,50,47,179,,0*60
$GLGSV,2,1,07,70,39,065,32,71,36,132,42,75,12,202,19,76,38,256,18,1*7D
$GLGSV,2,2,07,77,25,314,30,85,36,056,42,87,13,288,30,1*4C
$GLGSV,2,1,05,71,36,132,36,75,12,202,33,76,38,256,19,77,25,314,14,3*7C
$GLGSV,2,2,05,85,36,056,38,3*4F
$GLGSV,1,1,03,69,01,017,,72,05,171,,86,52,347,,0*4C
$GAGSV,2,1,07,01,14,322,37,03,22,083,43,08,17,136,28,13,61,306,43,2*79
$GAGSV,2,2,07,15,46,048,43,18,53,100,46,21,48,281,41,2*41
$GAGSV,2,1,08,01,14,322,41,03,22,083,42,08,17,136,33,13,61,306,46,7*7C
$GAGSV,2,2,08,15,46,048,46,18,53,100,50,21,48,281,39,27,41,201,24,7*73
$GAGSV,1,1,04,05,05,036,,26,15,265,,30,01,165,,34,01,071,,0*74
$GBGSV,2,1,08,04,35,132,39,07,74,226,44,08,51,241,20,10,70,270,44,1*7D
$GBGSV,2,2,08,27,40,302,45,28,66,034,46,33,48,095,46,37,21,228,30,1*7E
$GBGSV,1,1,03,04,35,132,38,07,74,226,41,10,70,270,41,3*4F
$GBGSV,2,1,06,01,43,152,,02,27,236,,03,44,206,,05,08,255,,0*7A
$GBGSV,2,2,06,05,08,255,,13,41,238,,0*70
$GNRMC,035502.00,A,3726.9117472,N,12639.1229503,E,0.010,,210622,,,F,V*18
$GNVTG,,T,,M,0.010,N,0.018,K,D*30
$GNGNS,035502.00,3726.9117472,N,12639.1229503,E,FFFF,29,0.76,13.920,17.834,3.0,4095,V*02
$GNGGA,035502.00,3726.9117472,N,12639.1229503,E,5,12,0.76,13.920,M,17.834,M,3.0,4095*5E
$GNGSA,A,3,19,04,03,14,17,06,01,,,,,,1.62,0.76,1.43,1*08
$GNGSA,A,3,75,76,70,87,85,71,77,,,,,,1.62,0.76,1.43,2*00
$GNGSA,A,3,27,13,01,03,21,08,15,,,,,,1.62,0.76,1.43,3*0B
$GNGSA,A,3,28,04,08,10,37,07,33,27,,,,,1.62,0.76,1.43,4*07
$GPGSV,3,1,09,01,21,058,40,03,49,058,44,04,14,110,36,06,41,271,37,1*60
$GPGSV,3,2,09,09,09,142,22,14,47,194,27,17,72,001,42,19,52,320,48,1*62
$GPGSV,3,3,09,28,,,45,1*66
$GPGSV,2,1,07,01,21,058,38,03,49,058,41,04,14,110,36,06,41,271,30,6*65
$GPGSV,2,2,07,09,09,142,17,14,47,194,19,17,72,001,36,6*50
$GPGSV,1,1,04,02,02,259,,11,05,252,,21,02,070,,50,47,179,,0*60
$GLGSV,2,1,07,70,39,065,32,71,36,132,42,75,12,202,15,76,38,256,19,1*70
$GLGSV,2,2,07,77,25,314,30,85,36,056,42,87,13,288,30,1*4C
$GLGSV,2,1,05,71,36,132,35,75,12,202,32,76,38,256,19,77,25,314,13,3*79
$GLGSV,2,2,05,85,36,056,36,3*41
$GLGSV,1,1,03,69,01,017,,72,05,171,,86,52,347,,0*4C
$GNRMC,035503.00,A,3726.9117270,N,12639.1229713,E,0.012,,210622,,,F,V*1C
$GNVTG,,T,,M,0.012,N,0.023,K,D*3A
$GNGNS,035503.00,3726.9117270,N,12639.1229713,E,FFFF,29,0.72,13.963,17.834,3.0,4095,V*07
$GNGSA,A,3,19,04,03,14,17,06,01,,,,,,1.44,0.72,1.25,1*08
$GNGSA,A,3,75,76,70,87,85,71,77,,,,,,1.44,0.72,1.25,2*00
$GNGSA,A,3,27,13,01,03,21,08,15,,,,,,1.44,0.72,1.25,3*0B
$GNGSA,A,3,28,04,08,10,37,07,33,27,,,,,1.44,0.72,1.25,4*07
$GPGSV,3,1,09,01,21,058,40,03,49,058,44,04,14,110,36,06,41,271,37,1*60
$GPGSV,3,2,09,09,09,142,23,14,47,194,26,17,72,001,42,19,52,320,48,1*62
$GPGSV,3,3,09,28,,,45,1*66
$GPGSV,2,1,07,01,21,058,38,03,49,058,42,04,14,110,37,06,41,271,30,6*67
$GPGSV,2,2,07,09,09,142,17,14,47,194,19,17,72,001,37,6*51
$GPGSV,1,1,04,02,02,259,,11,05,252,,21,02,070,,50,47,179,,0*60
$GLGSV,2,1,07,70,39,065,32,71,36,132,42,75,12,202,18,76,38,256,19,1*7D
$GLGSV,2,2,07,77,25,314,30,85,36,056,42,87,13,288,30,1*4C
$GLGSV,2,1,05,71,36,132,34,75,12,202,31,76,38,256,18,77,25,314,11,3*78
$GLGSV,2,2,05,85,36,056,36,3*41
$GLGSV,1,1,03,69,01,017,,72,05,171,,86,52,347,,0*4C
$GAGSV,2,1,07,01,14,322,37,03,22,083,44,08,17$GAGSV,2,2,07,15,46,048,43,18,53,100,47,21,48,281,42,2*43
$GAGSV,2,1,08,01,14,322,41,03,22,083,42,08,17,136,33,13,61,306,46,7*7C
$GAGSV,2,2,08,15,46,048,46,18,53,100,50,21,48,281,38,27,41,201,23,7*75
$GAGSV,1,1,04,05,05,036,,26,15,265,,30,01,165,,34,01,071,,0*74
$GBGSV,2,1,08,04,35,132,39,07,74,226,44,08,51,241,20,10,70,270,44,1*7D
$GBGSV,2,2,08,27,40,302,45,28,66,034,46,33,48,095,47,37,21,228,30,1*7F
$GBGSV,1,1,03,04,35,132,38,07,74,226,40,10,70,270,41,3*4E
$GBGSV,2,1,06,01,43,152,,02,27,236,,03,44,206,,05,08,255,,0*7A
$GBGSV,2,2,06,05,08,255,,13,41,238,,0*70
$GNRMC,035504.00,A,3726.9117127,N,12639.1229926,E,0.020,,210622,,,F,V*13
$GNVTG,,T,,M,0.020,N,0.037,K,D*3E
$GNGNS,035504.00,3726.9117127,N,12639.1229926,E,FFFF,29,0.72,14.004,17.834,2.0,4095,V*07
$GNGGA,035504.00,3726.9117127,N,12639.1229926,E,5,12,0.72,14.004,M,17.834,M,2.0,4095*5B
$GNGSA,A,3,19,04,03,14,17,06,01,,,,,,1.44,0.72,1.25,1*08
$GNGSA,A,3,75,76,70,87,85,71,77,,,,,,1.44,0.72,1.25,2*00
$GNGSA,A,3,27,13,01,03,21,08,15,,,,,,1.44,0.72,1.25,3*0B
$GNGSA,A,3,28,04,08,10,37,07,33,27,,,,,1.44,0.72,1.25,4*07
$GPGSV,3,2,09,09,09,142,24,14,47,194,26,17,72,001,42,19,52,320,48,1*65
$GPGSV,3,3,09,28,,,45,1*66
$GPGSV,2,1,07,01,21,058,39,03,49,058,42,04,14,110,37,06,41,271,30,6*66
$GPGSV,2,2,07,09,09,142,16,14,47,194,19,17,72,001,37,6*50
$GPGSV,1,1,04,02,02,259,,11,05,252,,21,02,070,,50,47,179,,0*60
$GLGSV,2,1,07,70,39,065,32,71,36,132,43,75,12,202,20,76,38,256,20,1*7D
$GLGSV,2,2,07,77,25,314,30,85,36,056,42,87,13,288,30,1*4C
$GLGSV,1,1,04,71,36,132,35,76,38,256,18,77,25,314,13,85,36,056,37,3*75
$GLGSV,1,1,03,69,01,017,,72,05,171,,86,52,347,,0*4C
$GAGSV,2,1,07,01,14,322,37,03,22,083,44,08,17,136,29,13,61,306,43,2*7F
$GAGSV,2,2,07,15,46,048,43,18,53,100,47,21,48,281,42,2*43
$GAGSV,2,1,08,01,14,322,41,03,22,083,42,08,17,136,33,13,61,306,46,7*7C
$GAGSV,2,2,08,15,46,048,46,18,53,100,50,21,48,281,38,27,41,201,23,7*75
$GAGSV,1,1,04,05,05,036,,26,15,265,,30,01,165,,34,01,071,,0*74
$GBGSV,2,1,08,04,35,132,39,07,74,226,44,08,51,241,20,10,70,270$GBGSV,2,2,08,27,40,302,45,28,66,034,46,33,48,095,47,37,21,228,30,1*7F
$GBGSV,1,1,03,04,35,132,38,07,74,226,40,10,70,270,41,3*4E
$GBGSV,2,1,06,01,43,152,,02,27,236,,03,44,206,,05,08,255,,0*7A
$GBGSV,2,2,06,05,08,255,,13,41,238,,0*70
$GNRMC,035505.00,A,3726.9117100,N,12639.1230124,E,0.009,,210622,,,F,V*1E
$GNVTG,,T,,M,0.009,N,0.016,K,D*36
$GNGNS,035505.00,3726.9117100,N,12639.1230124,E,FFFF,29,0.77,14.055,17.834,3.0,4095,V*01
$GNGGA,035505.00,3726.9117100,N,12639.1230124,E,5,12,0.77,14.055,M,17.834,M,3.0,4095*5D
$GNGSA,A,3,19,04,03,14,17,06,01,,,,,,1.50,0.77,1.29,1*04
$GNGSA,A,3,75,76,70,87,85,71,77,,,,,,1.50,0.77,1.29,2*0C
$GNGSA,A,3,27,13,01,03,21,08,15,,,,,,1.50,0.77,1.29,3*07
$GNGSA,A,3,28,04,08,10,37,07,33,27,,,,,1.50,0.77,1.29,4*0B
$GPGSV,3,1,09,01,21,058,40,03,49,058,43,04,14,110,37,06,41,271,37,1*66
$GPGSV,3,2,09,09,09,142,24,14,47,194,26,17,72,001,42,19,52,320,48,1*65
$GPGSV,3,3,09,28,,,45,1*66
$GPGSV,2,1,07,01,21,058,39,03,49,058,42,04,14,110,38,06,41,271,30,6*69
$GPGSV,2,2,07,09,09,142,16,14,47,194,20,17,72,001,38,6*55
$GPGSV,1,1,04,02,02,259,,11,05,253,,21,02,070,,50,47,179,,0*61
$GLGSV,2,1,07,70,39,065,32,71,36,132,43,75,12,202,22,76,38,256,21,1*7E
$GLGSV,2,2,07,77,25,314,30,85,36,056,42,87,13,288,30,1*4C
$GLGSV,2,1,05,71,36,132,36,75,12,202,33,76,38,256,17,77,25,314,16,3*70
$GLGSV,2,2,05,85,36,056,38,3*4F
$GLGSV,1,1,03,69,01,017,,72,05,171,,86,52,347,,0*4C
$GAGSV,2,1,07,01,14,322,36,03,22,083,42,08,17,136,27,13,61,306,42,2*77
$GAGSV,2,2,07,15,46,048,42,18,53,100,46,21,48,281,41,2*40
$GAGSV,2,1,08,01,14,322,41,03,22,083,42,08,17,136,33,13,61,306,46,7*7C
$GAGSV,2,2,08,15,46,048,46,18,53,100,50,21,48,281,38,27,41,201,23,7*75
$GAGSV,1,1,04,05,05,036,,26,15,265,,30,01,165,,34,01,071,,0*74
$GBGSV,2,1,08,04,35,132,39,07,74,226,44,08,51,241,21,10,70,270,44,1*7C
$GBGSV,2,2,08,27,40,302,45,28,66,034,46,33,48,095,47,37,21,228,31,1*7E
$GBGSV,1,1,03,04,35,132,38,07,74,226,40,10,70,270,41,3*4E
$GBGSV,2,1,06,01,43,152,,02,27,236,,03,44,206,,05,08,255,,0*7A
$GBGSV,2,2,06,05,08,255,,13,41,238,,0*70
$GNRMC,035506.00,A,3726.9117002,N,12639.1230299,E,0.007,,210622,,,F,V*15
$GNVTG,,T,,M,0.007,N,0.013,K,D*3D
$GNGNS,035506.00,3726.9117002,N,12639.1230299,E,FFFF,29,0.77,14.102,17.834,2.0,4095,V*06
$GNGGA,035506.00,3726.9117002,N,12639.1230299,E,5,12,0.77,14.102,M,17.834,M,2.0,4095*5A
$GNGSA,A,3,19,04,03,14,17,06,01,,,,,,1.50,0.77,1.29,1*04
$GNGSA,A,3,75,76,70,87,85,71,77,,,,,,1.50,0.77,1.29,2*0C
$GAGSV,2,2,08,15,46,048,46,18,53,100,50,21,48,281,38,27,41,201,23,7*75
$GAGSV,1,1,04,05,05,036,,26,15,265,,30,01,165,,34,01,071,,0*74
$GBGSV,2,1,08,04,35,132,39,07,74,226,44,08,51,241,21,10,70,270,44,1*7C
$GBGSV,2,2,08,27,40,302,45,28,66,034,46,33,48,095,47,37,21,228,31,1*7E
$GNRMC,035507.00,A,3726.9116725,N,12639.1230450,E,0.004,,210622,,,F,V*17
$GNVTG,,T,,M,0.004,N,0.007,K,D*3B
$GNGNS,035507.00,3726.9116725,N,12639.1230450,E,FFFF,29,0.82,14.141,17.834,2.0,4095,V*0A
$GNGGA,035507.00,3726.9116725,N,12639.1230450,E,5,12,0.82,14.141,M,17.834,M,2.0,4095*56
$GNGSA,A,3,19,04,03,14,17,06,01,,,,,,1.65,0.82,1.44,1*03
$GNGSA,A,3,75,76,70,87,85,71,77,,,,,,1.65,0.82,1.44,2*0B
$GNGSA,A,3,27,13,01,03,21,08,15,,,,,,1.65,0.82,1.44,3*00
$GNGSA,A,3,28,04,08,10,37,07,33,27,,,,,1.65,0.82,1.44,4*0C
$GPGSV,2,1,08,01,21,058,40,03,49,058,43,04,14,110,36,06,41,271,37,1*67
$GPGSV,2,2,08,09,09,142,25,17,72,001,42,19,52,320,48,28,,,45,1*51
$GPGSV,2,1,07,01,21,058,38,03,49,058,42,04,14,110,38,06,41,271,30,6*68
$GPGSV,2,2,07,09,09,142,13,14,47,194,20,17,72,001,37,6*5F
$GPGSV,1,1,04,02,02,259,,11,05,253,,21,02,070,,50,47,179,,0*61
$GLGSV,2,1,07,70,39,065,31,71,36,132,43,75,12,202,25,76,38,256,22,1*79
$GLGSV,2,2,07,77,25,314,30,85,36,056,42,87,13,288,30,1*4C
$GLGSV,2,1,05,71,36,132,36,75,12,202,32,76,38,256,18,77,25,314,16,3*7E
$GLGSV,2,2,05,85,36,056,38,3*4F
$GLGSV,1,1,03,69,01,017,,72,05,171,,86,52,347,,0*4C
$GAGSV,2,1,07,01,14,322,37,03,22,083,43,08,17,136,28,13,61,306,44,2*7E
$GAGSV,2,2,07,15,46,048,43,18,53,100,47,21,48,281,42,2*43
$GAGSV,2,1,08,01,14,322,41,03,22,083,42,08,17,136,33,13,61,306,46,7*7C
$GAGSV,2,2,08,15,46,048,46,18,53,100,50,21,48,281,38,27,41,201,22,7*74
$GAGSV,1,1,04,05,05,036,,26,15,265,,30,01,165,,34,01,071,,0*74
$GBGSV,2,1,08,04,35,132,39,07,74,226,44,08,51,241,21,10,70,270,44,1*7C
$GBGSV,2,2,08,27,40,302,45,28,66,034,46,33,48,095,47,37,21,228,30,1*7F
$GBGSV,1,1,03,04,35,132,37,07,74,226,40,10,70,270,41,3*41
$GBGSV,2,1,06,01,43,152,,02,27,236,,03,44,206,,05,08,255,,0*7A
$GBGSV,2,2,06,05,08,255,,13,41,238,,0*70
$GNRMC,035508.00,A,3726.9116355,N,12639.1230686,E,0.009,,210622,,,F,V*1F
$GNVTG,,T,,M,0.009,N,0.017,K,D*37
$GNGNS,035508.00,3726.9116355,N,12639.1230686,E,FFFF,28,0.82,14.181,17.834,2.0,4095,V*02
$GNGGA,035508.00,3726.9116355,N,12639.1230686,E,5,12,0.82,14.181,M,17.834,M,2.0,4095*5F
$GNGSA,A,3,19,04,03,14,17,06,01,,,,,,1.65,0.82,1.44,1*03
$GNGSA,A,3,75,76,70,87,85,71,77,,,,,,1.65,0.82,1.44,2*0B
$GNGSA,A,3,27,13,01,03,21,08,15,,,,,,1.65,0.82,1.44,3*00
$GNGSA,A,3,28,04,08,10,37,07,33,27,,,,,1.65,0.82,1.44,4*0C
$GPGSV,3,1,09,01,21,058,40,03,49,058,43,04,14,110,36,06,41,271,37,1*67
$GPGSV,3,2,09,09,09,142,24,14,46,194,26,17,72,001,42,19,52,320,48,1*64
$GPGSV,3,3,09,28,,,45,1*66
$GPGSV,2,1,07,01,21,058,39,03,49,058,42,04,14,110,38,06,41,271,30,6*69
$GPGSV,2,2,07,09,09,142,14,14,46,194,20,17,72,001,38,6*56
$GPGSV,1,1,04,02,02,259,,11,05,253,,21,02,070,,50,47,179,,0*61
$GLGSV,2,1,07,70,39,065,31,71,36,132,43,75,12,202,27,76,38,256,23,1*7A
$GLGSV,2,2,07,77,25,314,30,85,36,056,42,87,13,288,30,1*4C
$GLGSV,2,1,05,71,36,132,36,75,12,202,32,76,38,256,18,77,25,314,14,3*7C
$GLGSV,2,2,05,85,36,056,38,3*4F
$GLGSV,1,1,03,69,01,017,,72,05,171,,86,52,347,,0*4C
$GAGSV,2,1,07,01,14,322,36,03,22,083,43,08,17,136,28,13,61,306,43,2*78
$GAGSV,2,2,07,15,46,048,43,18,53,100,46,21,48,281,41,2*41
$GAGSV,2,1,08,01,14,322,41,03,22,083,43,08,17,136,33,13,61,306,46,7*7D
$GAGSV,2,2,08,15,46,048,46,18,53,100,50,21,48,281,38,27,41,201,22,7*74
$GAGSV,1,1,04,05,05,036,,26,15,265,,30,01,165,,34,01,071,,0*74
$GBGSV,2,1,08,04,35,132,39,07,74,226,44,08,51,241,21,10,70,270,44,1*7C
$GBGSV,2,2,08,27,40,302,45,28,66,034,46,33,48,095,47,37,21,228,31,1*7E
$GBGSV,1,1,03,04,35,132,37,07,74,226,40,10,70,270,40,3*40
$GBGSV,2,1,06,01,43,152,,02,27,236,,03,44,206,,05,08,255,,0*7A
$GBGSV,2,2,06,05,08,255,,13,41,238,,0*70
$GNRMC,035509.00,A,3726.9116020,N,12639.1230896,E,0.004,,210622,,,F,V*1D
$GNVTG,,T,,M,0.004,N,0.008,K,D*34
$GNGNS,035509.00,3726.9116020,N,12639.1230896,E,FFFF,29,0.77,14.210,17.834,2.0,4095,V*0D
$GNGGA,035509.00,3726.9116020,N,12639.1230896,E,5,12,0.77,14.210,M,17.834,M,2.0,4095*51
$GNGSA,A,3,19,04,03,14,17,06,01,,,,,,1.50,0.77,1.29,1*04
$GNGSA,A,3,75,76,70,87,85,71,77,,,,,,1.50,0.77,1.29,2*0C
$GNGSA,A,3,27,13,01,03,21,08,15,,,,,,1.50,0.77,1.29,3*07
$GNGSA,A,3,28,04,08,10,37,07,33,27,,,,,1.50,0.77,1.29,4*0B
$GPGSV,2,1,08,01,21,058,40,03,49,058,43,04,14,110,36,06,41,271,37,1*67
$GPGSV,2,2,08,09,09,142,24,17,72,001,42,19,52,320,48,28,,,45,1*50
$GPGSV,2,1,07,01,21,058,39,03,49,058,42,04,14,110,38,06,41,271,30,6*69
$GPGSV,2,2,07,09,09,142,13,14,46,194,21,17,72,001,38,6*50
$GPGSV,1,1,04,02,02,259,,11,05,253,,21,02,070,,50,47,179,,0*61
$GLGSV,2,1,07,70,39,065,31,71,36,132,43,75,12,202,27,76,38,256,24,1*7D
$GLGSV,2,2,07,77,25,314,31,85,36,056,42,87,13,288,31,1*4C
$GLGSV,1,1,04,71,36,132,36,76,38,256,19,77,25,314,13,85,36,056,38,3*78
$GLGSV,1,1,03,69,01,017,,72,05,171,,86,52,347,,0*4C
$GAGSV,2,1,07,01,14,322,36,03,22,083,43,08,17,136,28,13,61,306,43,2*78
$GAGSV,2,2,07,15,46,048,42,18,53,100,46,21,48,281,41,2*40
$GAGSV,2,1,08,01,14,322,41,03,22,083,43,08,17,136,33,13,61,306,46,7*7D
$GAGSV,2,2,08,15,46,048,46,18,53,100,50,21,48,281,38,27,41,201,22,7*74
$GAGSV,1,1,04,05,05,036,,26,15,265,,30,01,165,,34,01,071,,0*74
$GBGSV,2,1,08,04,35,132,39,07,74,226,44,08,51,241,22,10,70,270,44,1*7F
$GBGSV,2,2,08,27,40,302,45,28,66,034,46,33,48,095,47,37,21,228,31,1*7E
$GBGSV,1,1,03,04,35,132,37,07,74,226,40,10,70,270,40,3*40
$GBGSV,2,1,06,01,43,152,,02,27,236,,03,44,206,,05,08,255,,0*7A
$GBGSV,2,2,06,05,08,255,,13,41,238,,0*70
$GNRMC,035510.00,A,3726.9115751,N,12639.1231093,E,0.018,,210622,,,F,V*16
$GNVTG,,T,,M,0.018,N,0.032,K,D*30
$GNGNS,035510.00,3726.9115751,N,12639.1231093,E,FFFF,28,0.82,14.230,17.834,2.0,4095,V*02
$GNGGA,035510.00,3726.9115751,N,12639.1231093,E,5,12,0.82,14.230,M,17.834,M,2.0,4095*5F
$GNGSA,A,3,19,04,03,14,17,06,01,,,,,,1.65,0.82,1.44,1*03
$GNGSA,A,3,75,76,70,87,85,71,77,,,,,,1.65,0.82,1.44,2*0B
$GNGSA,A,3,27,13,01,03,21,08,15,,,,,,1.65,0.82,1.44,3*00
$GNGSA,A,3,28,04,08,10,37,07,33,27,,,,,1.65,0.82,1.44,4*0C
$GPGSV,2,1,08,01,21,058,40,03,49,058,43,04,14,110,35,06,41,271,37,1*64
$GPGSV,2,2,08,09,09,142,24,17,72,001,42,19,52,320,48,28,,,45,1*50
$GPGSV,2,2,07,09,09,142,12,14,46,194,21,17,72,001,40,6*5E
$GPGSV,1,1,04,02,02,259,,11,05,253,,21,02,070,,50,47,179,,0*61
$GLGSV,2,1,07,70,39,065,31,71,36,132,43,75,12,202,28,76,38,256,25,1*73
$GLGSV,2,2,07,77,25,314,30,85,36,056,42,87,13,288,31,1*4D
$GLGSV,2,1,05,71,36,132,35,75,12,202,32,76,38,256,19,77,25,314,11,3*7B
$GLGSV,2,2,05,85,36,056,37,3*40
$GLGSV,1,1,03,69,01,017,,72,05,171,,86,52,347,,0*4C
$GAGSV,2,1,07,01,14,322,37,03,22,083,44,08,17,136,28,13,61,306,44,2*79
$GAGSV,2,2,07,15,46,048,44,18,53,100,47,21,48,281,42,2*44
$GAGSV,2,1,08,01,14,322,41,03,22,083,42,08,17,136,33,13,61,306,46,7*7C
$GAGSV,2,2,08,15,46,048,46,18,53,100,50,21,48,281,38,27,41,201,23,7*75
$GAGSV,1,1,04,05,05,036,,26,15,265,,30,01,165,,34,01,071,,0*74
$GBGSV,2,1,08,04,35,132,39,07,74,226,44,08,51,241,21,10,70,270,44,1*7C
$GBGSV,2,2,08,27,40,302,45,28,66,034,46,33,48,095,47,37,21,228,31,1*7E
$GBGSV,1,1,03,04,35,132,38,07,74,226,42,10,70,270,41,3*4C$GNRMC,035511.00,A,3726.9115603,N,12639.1231252,E,0.009,,210622,,,F,V*1E
$GNVTG,,T,,M,0.009,N,0.017,K,D*37
$GNGNS,035511.00,3726.9115603,N,12639.1231252,E,FFFF,28,0.82,14.246,17.834,2.0,4095,V*0B
$GNGGA,035511.00,3726.9115603,N,12639.1231252,E,5,12,0.82,14.246,M,17.834,M,2.0,4095*56
$GNGSA,A,3,19,04,03,14,17,06,01,,,,,,1.65,0.82,1.44,1*03
$GNGSA,A,3,75,76,70,87,85,71,77,,,,,,1.65,0.82,1.44,2*0B
$GNGSA,A,3,27,13,01,03,21,08,15,,,,,,1.65,0.82,1.44,3*00
$GNGSA,A,3,28,04,08,10,37,07,33,27,,,,,1.65,0.82,1.44,4*0C
$GPGSV,2,1,08,01,21,058,40,03,49,058,42,04,14,110,35,06,41,271,37,1*65
$GPGSV,2,2,08,09,09,142,24,17,73,004,42,19,52,320,48,28,,,45,1*54
$GPGSV,2,1,07,01,21,058,40,03,49,058,44,04,14,110,39,06,41,271,32,6*62
$GPGSV,2,2,07,09,09,142,10,14,46,194,20,17,73,004,39,6*57
$GPGSV,1,1,04,02,02,259,,11,05,253,,21,02,070,,50,47,179,,0*61
$GLGSV,2,1,07,70,39,065,30,71,36,132,43,75,12,202,29,76,38,256,26,1*70
$GLGSV,2,2,07,77,25,314,30,85,36,056,42,87,13,288,31,1*4D
$GLGSV,2,1,05,71,36,132,35,75,12,202,32,76,38,256,19,77,25,314,10,3*7A
$GLGSV,2,2,05,85,36,056,37,3*40
$GLGSV,1,1,03,69,01,017,,72,05,171,,86,52,347,,0*4C
$GAGSV,2,1,07,01,14,322,37,03,22,083,43,08,17,136,28,13,61,306,43,2*79
$GAGSV,2,2,07,15,46,048,43,18,53,100,46,21,48,281,42,2*42
$GAGSV,2,1,08,01,14,322,41,03,22,083,43,08,17,136,33,13,61,306,46,7*7D
$GAGSV,2,2,08,15,46,048,46,18,53,100,50,21,48,281,38,27,41,201,23,7*75
$GAGSV,1,1,04,05,05,036,,26,15,265,,30,01,165,,34,01,071,,0*74
$GBGSV,2,1,08,04,35,132,39,07,74,226,44,08,51,241,21,10,70,270,44,1*7C
$GBGSV,2,2,08,27,40,302,45,28,66,034,46,33,48,095,47,37,21,228,31,1*7E
$GBGSV,1,1,04,04,35,132,38,07,74,226,41,10,70,270,41,33,48,095,17,3*7E
$GBGSV,2,1,06,01,43,152,,02,27,236,,03,44,206,,05,08,255,,0*7A
$GBGSV,2,2,06,05,08,255,,13,41,238,,0*70
$GNRMC,035512.00,A,3726.9115514,N,12639.1231370,E,0.006,,210622,,,F,V*16
$GNVTG,,T,,M,0.006,N,0.011,K,D*3E
$GNGNS,035512.00,3726.9115514,N,12639.1231370,E,FFFF,29,0.82,14.257,17.834,3.0,4095,V*0C
$GNGGA,035512.00,3726.9115514,N,12639.1231370,E,5,12,0.82,14.257,M,17.834,M,3.0,4095*50
$GNGSA,A,3,19,04,03,14,17,06,01,,,,,,1.65,0.82,1.44,1*03
$GNGSA,A,3,75,76,70,87,85,71,77,,,,,,1.65,0.82,1.44,2*0B
$GNGSA,A,3,27,13,01,03,21,08,15,,,,,,1.65,0.82,1.44,3*00
$GNGSA,A,3,28,04,08,10,37,07,33,27,,,,,1.65,0.82,1.44,4*0C
$GPGSV,2,1,08,01,21,058,40,03,49,058,42,04,14,110,35,06,41,271,37,1*65
$GPGSV,2,2,08,09,09,142,23,17,73,004,42,19,52,320,48,28,,,45,1*53
$GPGSV,2,1,07,01,21,058,38,03,49,058,42,04,14,110,39,06,41,271,31,6*68
$GPGSV,2,2,07,09,09,142,10,14,46,194,21,17,73,004,38,6*57
$GPGSV,1,1,04,02,02,259,,11,05,253,,21,02,070,,50,47,179,,0*61
$GLGSV,2,1,07,70,39,065,31,71,36,132,43,75,12,202,29,76,38,256,26,1*71
$GLGSV,2,2,07,77,25,314,31,85,36,056,42,87,13,288,31,1*4C
$GLGSV,2,1,05,71,36,132,35,75,12,202,32,76,38,256,20,77,25,314,09,3*78
$GLGSV,2,2,05,85,36,056,36,3*41
$GLGSV,1,1,03,69,01,017,,72,05,171,,86,52,347,,0*4C
$GAGSV,2,1,07,01,14,322,36,03,22,083,42,08,17,136,27,13,61,306,42,2*77
$GAGSV,2,2,07,15,46,048,41,18,53,100,45,21,48,281,41,2*40
$GAGSV,2,1,08,01,14,322,41,03,22,083,43,08,17,136,33,13,61,306,46,7*7D
$GAGSV,2,2,08,15,46,048,46,18,53,100,50,21,48,281,38,27,41,201,23,7*75
$GAGSV,1,1,04,05,05,036,,26,15,265,,30,01,165,,34,01,071,,0*74
$GBGSV,2,1,08,04,35,132,39,07,74,226,44,08,51,241,21,10,70,270,44,1*7C
$GNRMC,035513.00,A,3726.9115479,N,12639.1231482,E,0.003,,210622,,,F,V*12
$GNVTG,,T,,M,0.003,N,0.006,K,D*3D
$GNGNS,035513.00,3726.9115479,N,12639.1231482,E,FFFF,28,0.82,14.272,17.834,1.0,4095,V*09
$GNGSA,A,3,19,04,03,14,17,06,01,,,,,,1.65,0.82,1.44,1*03
$GNGSA,A,3,75,76,70,87,85,71,77,,,,,,1.65,0.82,1.44,2*0B
$GNGSA,A,3,27,13,01,03,21,08,15,,,,,,1.65,0.82,1.44,3*00
$GNGSA,A,3,28,04,08,10,37,07,33,27,,,,,1.65,0.82,1.44,4*0C
$GPGSV,2,1,08,01,21,058,40,03,49,058,43,04,14,110,35,06,41,271,37,1*64
$GPGSV,2,2,08,09,09,142,21,17,73,004,42,19,53,321,48,28,,,45,1*51
$GPGSV,2,1,07,01,21,058,39,03,49,058,43,04,14,110,38,06,41,271,31,6*69
$GPGSV,2,2,07,09,09,142,09,14,46,194,21,17,73,004,38,6*5F
$GPGSV,1,1,04,02,02,259,,11,05,253,,21,02,070,,50,47,179,,0*61
$GLGSV,2,1,07,70,39,065,31,71,36,132,43,75,12,202,30,76,38,256,25,1*7A
$GLGSV,2,2,07,77,25,314,31,85,36,056,42,87,13,288,30,1*4D
$GLGSV,2,1,05,71,36,132,35,75,12,202,32,76,38,256,21,77,25,314,08,3*78
$GLGSV,2,2,05,85,36,056,36,3*41
$GLGSV,1,1,03,69,01,017,,72,05,171,,86,52,347,,0*4C
$GAGSV,2,1,07,01,14,322,37,03,22,083,44,08,17,136,29,13,61,306,44,2*78
$GAGSV$GAGSV,2,1,08,01,14,322,41,03,22,083,43,08,17,136,34,13,61,306,46,7*7A
$GAGSV,2,2,08,15,46,048,46,18,53,100,49,21,48,281,37,27,41,201,23,7*72
$GAGSV,1,1,04,05,05,036,,26,15,265,,30,01,165,,34,01,071,,0*74
$GBGSV,2,1,08,04,35,132,40,07,74,226,44,08,51,241,21,10,70,270,44,1*72
$GBGSV,2,2,08,27,40,302,45,28,66,034,46,33,48,095,47,37,21,228,31,1*7E
$GBGSV,1,1,04,04,35,132,39,07,74,226,41,10,70,270,42,33,48,095,12,3*79
$GBGSV,2,1,06,01,43,152,,02,27,236,,03,44,206,,05,08,255,,0*7A
$GBGSV,2,2,06,05,08,255,,13,41,238,,0*70
$GNRMC,035514.00,A,3726.9115411,N,12639.1231620,E,0.004,,210622,,,F,V*16
$GNVTG,,T,,M,0.004,N,0.007,K,D*3B
$GNGNS,035514.00,3726.9115411,N,12639.1231620,E,FFFF,28,0.82,14.285,17.834,2.0,4095,V*01
$GNGGA,035514.00,3726.9115411,N,12639.1231620,E,5,12,0.82,14.285,M,17.834,M,2.0,4095*5C
$GNGSA,A,3,19,04,03,14,17,06,01,,,,,,1.65,0.82,1.44,1*03
$GNGSA,A,3,75,76,70,87,85,71,77,,,,,,1.65,0.82,1.44,2*0B
$GNGSA,A,3,27,13,01,03,21,08,15,,,,,,1.65,0.82,1.44,3*00
$GNGSA,A,3,28,04,08,10,37,07,33,27,,,,,1.65,0.82,1.44,4*0C
$GPGSV,2,1,08,01,21,058,40,03,49,058,42,04,14,110,34,06,41,271,37,1*64
$GPGSV,2,2,08,09,09,142,20,17,73,004,42,19,53,321,48,28,,,45,1*50
$GPGSV,2,2,06,14,46,194,21,17,73,004,36,6*6E
$GPGSV,1,1,04,02,02,259,,11,05,253,,21,02,070,,50,47,179,,0*61
$GLGSV,2,1,07,70,39,065,32,71,36,132,43,75,12,202,31,76,38,256,26,1*7B
$GLGSV,2,2,07,77,25,314,31,85,36,056,42,87,13,288,29,1*45
$GLGSV,2,1,05,71,36,132,35,75,12,202,32,76,38,256,21,77,25,314,07,3*77
$GLGSV,2,2,05,85,36,056,36,3*41
$GLGSV,1,1,03,69,01,017,,72,05,171,,86,52,347,,0*4C
$GAGSV,2,1,07,01,14,322,37,03,22,083,43,08,17,136,28,13,61,306,43,2*79
$GAGSV,2,2,07,15,46,048,43,18,53,100,46,21,48,281,42,2*42
$GAGSV,2,1,08,01,14,322,41,03,22,083,43,08,17,136,33,13,61,306,46,7*7D
$GAGSV,2,2,08,15,46,048,46,18,53,100,49,21,48,281,38,27,41,201,22,7*7C
$GAGSV,1,1,04,05,05,036,,26,15,265,,30,01,165,,34,01,071,,0*74
$GBGSV,2,1,08,04,35,132,40,07,74,226,44,08,51,241,21,10,70,270,44,1*72
$GBGSV,2,2,08,27,40,302,45,28,66,034,46,33,48,095,47,37,21,228,32,1*7D
$GBGSV,2,1,05,04,35,132,38,07,74,226,41,10,70,270,41,27,40,302,12,3*79$GBGSV,2,2,05,33,48,095,10,3*40
$GBGSV,2,1,06,01,43,152,,02,27,236,,03,44,206,,05,08,255,,0*7A
$GBGSV,2,2,06,05,08,255,,13,41,238,,0*70
$GNRMC,035515.00,A,3726.9115225,N,12639.1231751,E,0.003,,210622,,,F,V*16
$GNVTG,,T,,M,0.003,N,0.005,K,D*3E
$GNGNS,035515.00,3726.9115225,N,12639.1231751,E,FFFF,29,0.82,14.295,17.834,2.0,4095,V*06
$GNGGA,035515.00,3726.9115225,N,12639.1231751,E,5,12,0.82,14.295,M,17.834,M,2.0,4095*5A
$GNGSA,A,3,19,04,03,14,17,06,01,,,,,,1.65,0.82,1.44,1*03
$GNGSA,A,3,75,76,70,87,85,71,77,,,,,,1.65,0.82,1.44,2*0B
$GNGSA,A,3,27,13,01,03,21,08,15,,,,,,1.65,0.82,1.44,3*00
$GNGSA,A,3,28,04,08,10,37,07,33,27,,,,,1.65,0.82,1.44,4*0C
$GPGSV,2,1,08,01,21,058,40,03,49,058,42,04,14,110,33,06,41,271,37,1*63
$GPGSV,2,2,08,09,09,142,20,17,73,004,42,19,53,321,48,28,,,45,1*50
$GPGSV,2,1,06,01,21,058,37,03,49,058,42,04,14,110,37,06,41,271,30,6*69
$GPGSV,2,2,06,14,46,194,21,17,73,004,37,6*6F
$GPGSV,1,1,04,02,02,259,,11,05,253,,21,02,070,,50,47,179,,0*61
$GLGSV,2,1,07,70,39,065,32,71,36,132,43,75,12,202,31,76,38,256,27,1*7A
$GLGSV,2,2,07,77,25,314,31,85,36,056,42,87,13,288,29,1*45
$GLGSV,2,1,05,71,36,132,35,75,12,202,31,76,38,256,21,77,25,314,08,3*7B
$GLGSV,2,2,05,85,36,056,36,3*41
$GLGSV,1,1,03,69,01,017,,72,05,171,,86,52,347,,0*4C
$GAGSV,2,1,07,01,14,322,36,03,22,083,42,08,17,136,28,13,61,306,42,2*78
$GAGSV,2,2,07,15,46,048,42,18,53,100,46,21,48,281,41,2*40
$GAGSV,2,1,08,01,14,322,41,03,22,083,43,08,17,136,33,13,61,306,46,7*7D
$GAGSV,2,2,08,15,46,048,46,18,53,100,49,21,48,281,38,27,41,201,22,7*7C
$GAGSV,1,1,04,05,05,036,,26,15,265,,30,01,165,,34,01,071,,0*74
$GBGSV,2,1,08,04,35,132,39,07,74,226,44,08,51,241,20,10,70,270,44,1*7D
$GBGSV,2,2,08,27,40,302,45,28,66,034,46,33,48,095,47,37,21,228,32,1*7D
$GBGSV,2,1,05,04,35,132,37,07,74,226,40,10,70,270,40,27,40,302,09,3*7C
$GBGSV,2,2,05,33,48,095,08,3*49
$GBGSV,2,1,06,01,43,152,,02,27,236,,03,44,206,,05,08,255,,0*7A
$GBGSV,2,2,06,05,08,255,,13,41,238,,0*70
$GNRMC,035516.00,A,3726.9114935,N,12639.1231853,E,0.007,,210622,,,F,V*17
$GNVTG,,T,,M,0.007,N,0.013,K,D*3D
$GNGNS,035516.00,3726.9114935,N,12639.1231853,E,FFFF,28,0.82,14.278,17.834,2.0,4095,V*01
$GNGSA,A,3,19,04,03,14,17,06,01,,,,,,1.65,0.82,1.44,1*03
$GNGSA,A,3,75,76,70,87,85,71,77,,,,,,1.65,0.82,1.44,2*0B
$GNGSA,A,3,27,13,01,03,21,08,15,,,,,,1.65,0.82,1.44,3*00
$GNGSA,A,3,28,04,08,10,37,07,33,27,,,,,1.65,0.82,1.44,4*0C
$GPGSV,2,1,08,01,21,058,40,03,49,058,42,04,14,110,33,06,41,271,37,1*63
$GPGSV,2,2,08,09,09,142,21,17,73,004,42,19,53,321,48,28,,,45,1*51
$GPGSV,2,1,06,01,21,058,39,03,49,058,44,04,14,110,40,06,41,271,31,6*60
$GPGSV,2,2,06,14,46,194,20,17,73,004,39,6*60
$GPGSV,1,1,04,02,02,259,,11,05,253,,21,02,070,,50,47,179,,0*61
$GLGSV,2,1,07,70,39,065,32,71,36,132,43,75,12,202,32,76,38,256,27,1*79
$GLGSV,2,2,07,77,25,314,31,85,36,056,42,87,13,288,28,1*44
$GLGSV,2,1,05,71,36,132,35,75,12,202,31,76,38,256,21,77,25,314,09,3*7A
$GLGSV,2,2,05,85,36,056,36,3*41
$GLGSV,1,1,03,69,01,017,,72,05,171,,86,52,347,,0*4C
$GAGSV,2,1,07,01,14,322,37,03,22,083,43,08,17,136,29,13,61,306,43,2*78
$GAGSV,2,2,07,15,46$GAGSV,2,1,08,01,14,322,41,03,22,083,43,08,17,136,34,13,61,306,46,7*7A
$GAGSV,2,2,08,15,46,048,46,18,53,100,49,21,48,281,38,27,41,201,22,7*7C
$GAGSV,1,1,04,05,05,036,,26,15,265,,30,01,165,,34,01,071,,0*74
$GBGSV,2,1,08,04,35,132,39,07,74,226,44,08,51,241,21,10,70,270,44,1*7C
$GBGSV,2,2,08,27,40,302,45,28,66,034,46,33,48,095,47,37,21,228,32,1*7D
$GBGSV,2,1,05,04,35,132,38,07,74,226,41,10,70,270,41,27,40,302,08,3*72
