$GNRMC,035625.00,A,3726.9110343,N,12639.1234853,E,0.031,,210622,,,R,V*0F
$GNVTG,,T,,M,0.031,N,0.058,K,D*37
$GNGNS,035625.00,3726.9110343,N,12639.1234853,E,RRRR,29,0.75,15.999,17.834,2.0,4095,V*04
$GNGGA,035625.00,3726.9110343,N,12639.1234853,E,4,12,0.75,15.999,M,17.834,M,2.0,4095*59
$GNGSA,A,3,19,04,03,17,06,01,,,,,,,1.51,0.75,1.31,1*0B
$GNGSA,A,3,75,76,70,87,85,71,77,,,,,,1.51,0.75,1.31,2*06
$GNGSA,A,3,13,01,27,03,21,08,15,,,,,,1.51,0.75,1.31,3*0D
$GNGSA,A,3,01,28,04,08,10,37,07,33,27,,,,1.51,0.75,1.31,4*00
$GPGSV,2,1,07,03,49,058,46,04,14,110,35,06,41,271,39,09,09,142,22,1*6C
$GPGSV,2,2,07,17,73,004,35,19,53,321,51,28,,,46,1*61
$GPGSV,1,1,01,14,46,194,21,5*59
$GPGSV,2,1,05,01,21,058,29,03,49,058,35,04,14,110,39,06,41,271,29,6*63
$GPGSV,2,2,05,17,73,004,36,6*55
$GPGSV,1,1,04,02,02,259,,11,05,253,,21,02,070,,50,47,179,,0*61
$GLGSV,2,1,07,70,39,065,19,71,36,132,46,75,12,202,24,76,38,256,28,1*7D
$GLGSV,2,2,07,77,25,314,30,85,36,056,47,87,13,288,21,1*49
$GLGSV,2,1,05,71,36,132,37,75,12,202,26,76,38,256,22,77,25,314,22,3*74
$GLGSV,2,2,05,85,36,056,25,3*43
$GLGSV,1,1,03,69,01,017,,72,05,171,,86,52,347,,0*4C
$GAGSV,2,1,07,01,14,321,35,03,22,083,39,08,18,135,29,13,61,307,43,2*79
$GAGSV,2,2,07,15,45,049,42,18,52,102,41,21,48,280,44,2*42
$GAGSV,2,1,08,01,14,321,38,03,22,083,44,08,18,135,28,13,61,307,46,7*70
$GAGSV,2,2,08,15,45,049,43,18,52,102,44,21,48,280,39,27,40,200,16,7*72
$GAGSV,1,1,04,05,04,035,,26,16,266,,30,00,165,,34,01,071,,0*77
$GBGSV,3,1,09,01,43,152,28,04,35,132,40,07,74,225,42,08,51,241,25,1*7A
$GBGSV,3,2,09,10,70,269,43,27,41,303,47,28,66,036,32,33,48,094,44,1*7E
$GBGSV,3,3,09,37,21,228,30,1*43
$GBGSV,1,1,03,04,35,132,40,07,74,225,40,10,70,269,40,3*4B
$GBGSV,1,1,04,02,27,236,,03,44,206,,05,08,255,,13,41,239,,0*74
$GNRMC,035626.00,A,3726.9110405,N,12639.1234851,E,0.015,,210622,,,R,V*0D
$GNVTG,,T,,M,0.015,N,0.029,K,D*37
$GNGNS,035626.00,3726.9110405,N,12639.1234851,E,RRRR,28,0.75,16.026,17.834,2.0,4095,V*0F
$GNGGA,035626.00,3726.9110405,N,12639.1234851,E,4,12,0.75,16.026,M,17.834,M,2.0,4095*53
$GNGSA,A,3,19,04,03,17,06,01,,,,,,,1.51,0.75,1.31,1*0B
$GNGSA,A,3,75,76,70,87,85,71,77,,,,,,1.51,0.75,1.31,2*06
$GNGSA,A,3,13,01,27,03,21,08,15,,,,,,1.51,0.75,1.31,3*0D
$GNGSA,A,3,01,28,04,08,10,37,07,33,27,,,,1.51,0.75,1.31,4*00
$GPGSV,2,1,07,03,49,058,47,04,14,110,31,06,41,271,39,09,09,142,22,1*69
$GPGSV,2,2,07,17,73,004,36,19,53,321,49,28,,,44,1*69
$GPGSV,2,1,06,01,21,058,31,03,49,058,36,04,14,110,40,06,41,271,30,6*6C
$GPGSV,2,2,06,14,46,194,19,17,73,004,36,6*65
$GPGSV,1,1,04,02,02,259,,11,05,253,,21,02,070,,50,47,179,,0*61
$GLGSV,2,1,07,70,39,065,21,71,36,132,47,75,12,202,35,76,38,256,27,1*78
$GLGSV,2,2,07,77,25,314,32,85,36,056,48,87,13,288,18,1*4E
$GLGSV,2,1,05,71,36,132,34,75,12,202,26,76,38,256,22,77,25,314,22,3*77
$GLGSV,2,2,05,85,36,056,32,3*45
$GLGSV,1,1,03,69,01,017,,72,05,171,,86,52,347,,0*4C
$GAGSV,2,1,07,01,14,321,34,03,22,083,39,08,18,135,30,13,61,307,42,2*71
$GAGSV,2,2,07,15,45,049,39,18,52,102,40,21,48,280,43,2*48
$GAGSV,2,1,08,01,14,321,42,03,22,083,43,08,18,135,29,13,61,307,44,7*79
$GAGSV,2,2,08,15,45,049,45,18,52,102,44,21,48,280,41,27,40,200,18,7*75
$GAGSV,1,1,04,05,04,035,,26,16,266,,30,00,165,,34,01,071,,0*77
$GBGSV,3,1,09,01,43,152,28,04,35,132,41,07,74,225,40,08,51,241,24,1*78
$GBGSV,3,2,09,10,70,269,42,27,41,303,47,28,66,036,35,33,48,094,44,1*78
$GBGSV,3,3,09,37,21,227,31,1*4D
$GBGSV,1,1,03,04,35,132,39,07,74,225,36,10,70,269,38,3*4B
$GBGSV,1,1,04,02,27,236,,03,44,206,,05,08,255,,13,41,239,,0*74
$GNRMC,035627.00,A,3726.9110470,N,12639.1234875,E,0.015,,210622,,,R,V*08
$GNVTG,,T,,M,0.015,N,0.028,K,D*36
$GNGNS,035627.00,3726.9110470,N,12639.1234875,E,RRRR,28,0.75,16.017,17.834,2.0,4095,V*08
$GNGGA,035627.00,3726.9110470,N,12639.1234875,E,4,12,0.75,16.017,M,17.834,M,2.0,4095*54
$GNGSA,A,3,19,04,03,17,06,01,,,,,,,1.51,0.75,1.31,1*0B
$GNGSA,A,3,75,76,70,87,85,71,77,,,,,,1.51,0.75,1.31,2*06
$GNGSA,A,3,13,01,27,03,21,08,15,,,,,,1.51,0.75,1.31,3*0D
$GNGSA,A,3,01,28,04,08,10,37,07,33,27,,,,1.51,0.75,1.31,4*00
$GPGSV,2,1,07,03,49,058,47,04,14,110,31,06,41,271,39,09,09,142,24,1*6F
$GPGSV,2,2,07,17,73,004,32,19,53,321,49,28,,,44,1*6D
$GPGSV,2,1,06,01,21,058,30,03,49,058,36,04,14,110,39,06,41,271,30,6*63
$GPGSV,2,2,06,14,46,194,16,17,73,004,35,6*69
$GPGSV,1,1,04,02,02,259,,11,05,253,,21,02,070,,50,47,179,,0*61
$GLGSV,2,1,07,70,39,065,23,71,36,132,47,75,12,202,35,76,38,256,30,1*7C
$GLGSV,2,2,07,77,25,314,32,85,36,056,49,87,13,288,15,1*42
$GLGSV,2,1,05,71,36,132,34,75,12,202,23,76,38,256,22,77,25,314,20,3*70
$GLGSV,2,2,05,85,36,056,30,3*47
$GLGSV,1,1,03,69,01,017,,72,05,171,,86,52,347,,0*4C
$GAGSV,2,1,07,01,14,321,32,03,22,083,39,08,18,135,31,13,61,307,41,2*75
$GAGSV,2,2,07,15,45,049,39,18,52,102,39,21,48,280,41,2*44
$GAGSV,2,1,08,01,14,321,42,03,22,083,42,08,18,135,35,13,61,307,44,7*75
$GAGSV,2,2,08,15,45,049,46,18,52,102,44,21,48,280,41,27,40,200,18,7*76
$GAGSV,1,1,04,05,04,035,,26,16,266,,30,00,165,,34,01,071,,0*77
$GBGSV,3,1,09,01,43,152,27,04,35,132,41,07,74,225,39,08,51,241,25,1*78
$GBGSV,3,2,09,10,70,269,42,27,41,303,47,28,66,036,32,33,48,094,44,1*7F
$GBGSV,3,3,09,37,21,227,31,1*4D
$GBGSV,1,1,04,04,35,132,39,07,74,225,35,08,51,241,21,10,70,269,38,3*77
$GBGSV,1,1,04,02,27,236,,03,44,206,,05,08,255,,13,41,239,,0*74
$GNRMC,035628.00,A,3726.9110470,N,12639.1234862,E,0.009,,210622,,,R,V*0C
$GNVTG,,T,,M,0.009,N,0.016,K,D*36
$GNGNS,035628.00,3726.9110470,N,12639.1234862,E,RRRR,29,0.75,16.012,17.834,2.0,4095,V*05
$GNGGA,035628.00,3726.9110470,N,12639.1234862,E,4,12,0.75,16.012,M,17.834,M,2.0,4095*58
$GNGSA,A,3,19,04,03,17,06,01,,,,,,,1.51,0.75,1.31,1*0B
$GNGSA,A,3,75,76,70,87,85,71,77,,,,,,1.51,0.75,1.31,2*06
$GNGSA,A,3,13,01,27,03,21,08,15,,,,,,1.51,0.75,1.31,3*0D
$GNGSA,A,3,01,28,04,08,10,37,07,33,27,,,,1.51,0.75,1.31,4*00
$GPGSV,2,1,07,03,49,058,46,04,14,110,29,06,41,271,39,09,09,142,24,1*67
$GPGSV,2,2,07,17,73,004,32,19,53,321,50,28,,,44,1*65
$GPGSV,2,1,06,01,21,058,30,03,49,058,38,04,14,110,40,06,41,271,29,6*6B
$GPGSV,2,2,06,14,46,194,15,17,73,004,35,6*6A
$GPGSV,1,1,04,02,02,259,,11,05,253,,21,02,070,,50,47,179,,0*61
$GLGSV,2,1,07,70,39,065,26,71,36,132,47,75,12,202,31,76,38,256,30,1*7D
$GLGSV,2,2,07,77,25,314,31,85,36,056,49,87,13,288,16,1*42
$GLGSV,2,1,05,71,36,132,34,75,12,202,23,76,38,256,22,77,25,314,21,3*71
$GLGSV,2,2,05,85,36,056,30,3*47
$GLGSV,1,1,03,69,01,017,,72,05,171,,86,52,347,,0*4C
$GAGSV,2,1,07,01,14,321,33,03,22,083,42,08,18,135,32,13,61,307,42,2*78
$GAGSV,2,2,07,15,45,049,41,18,52,102,40,21,48,280,42,2*46
$GAGSV,2,1,08,01,14,321,43,03,22,083,40,08,18,135,35,13,61,307,45,7*77
$GAGSV,2,2,08,15,45,049,45,18,52,102,44,21,48,280,41,27,40,200,18,7*75
$GAGSV,1,1,04,05,04,035,,26,16,266,,30,00,165,,34,01,071,,0*77
$GBGSV,3,1,09,01,43,152,27,04,35,132,39,07,74,225,39,08,51,241,24,1*76
$GBGSV,3,2,09,10,70,269,41,27,41,303,46,28,66,036,33,33,48,094,43,1*7B
$GBGSV,3,3,09,37,21,227,31,1*4D
$GBGSV,1,1,03,04,35,132,39,07,74,225,35,10,70,269,39,3*49
$GBGSV,1,1,04,02,27,236,,03,44,206,,05,08,255,,13,41,239,,0*74
$GNRMC,035629.00,A,3726.9110380,N,12639.1234860,E,0.016,,210622,,,R,V*09
$GNVTG,,T,,M,0.016,N,0.030,K,D*3C
$GNGNS,035629.00,3726.9110380,N,12639.1234860,E,RRRR,29,0.79,16.011,17.834,2.0,4095,V*01
$GNGGA,035629.00,3726.9110380,N,12639.1234860,E,4,12,0.79,16.011,M,17.834,M,2.0,4095*5C
$GNGSA,A,3,14,19,04,03,17,06,01,,,,,,1.54,0.79,1.32,1*04
$GNGSA,A,3,75,76,70,87,85,71,77,,,,,,1.54,0.79,1.32,2*0C
$GNGSA,A,3,13,01,27,03,21,08,15,,,,,,1.54,0.79,1.32,3*07
$GNGSA,A,3,28,04,08,10,37,07,33,27,,,,,1.54,0.79,1.32,4*0B
$GPGSV,2,1,08,01,21,058,32,03,49,058,46,04,14,110,30,06,41,271,39,1*6F
$GPGSV,2,2,08,09,09,142,24,17,73,004,33,19,53,321,49,28,,,44,1*52
$GPGSV,2,1,06,01,21,058,30,03,49,058,38,04,14,110,39,06,41,271,30,6*6D
$GPGSV,2,2,06,14,46,194,15,17,73,004,35,6*6A
$GPGSV,1,1,04,02,02,259,,11,05,253,,21,02,070,,50,47,179,,0*61
$GLGSV,2,1,07,70,39,065,26,71,36,132,46,75,12,202,31,76,38,256,31,1*7D
$GLGSV,2,2,07,77,25,314,31,85,36,056,49,87,13,288,13,1*47
$GLGSV,2,1,05,71,36,132,34,75,12,202,21,76,38,256,23,77,25,314,21,3*72
$GLGSV,2,2,05,85,36,056,31,3*46
$GLGSV,1,1,03,69,01,017,,72,05,171,,86,52,347,,0*4C
$GAGSV,2,1,07,01,14,321,27,03,22,083,42,08,18,135,32,13,61,307,42,2*7D
$GAGSV,2,2,07,15,45,049,40,18,52,102,39,21,48,280,43,2*48
$GAGSV,2,1,08,01,14,321,41,03,22,083,42,08,18,135,35,13,61,307,46,7*74
$GAGSV,2,2,08,15,45,049,46,18,52,102,45,21,48,280,41,27,40,200,19,7*76
$GAGSV,1,1,04,05,04,035,,26,16,266,,30,00,165,,34,01,071,,0*77
$GBGSV,2,1,08,04,35,132,39,07,74,225,39,08,51,241,23,10,70,269,42,1*79
$GBGSV,2,2,08,27,41,303,47,28,66,036,32,33,48,094,42,37,21,227,31,1*76
$GBGSV,1,1,04,04,35,132,38,07,74,225,35,08,51,241,21,10,70,269,39,3*77
$GBGSV,2,1,05,01,43,152,,02,27,236,,03,44,206,,05,08,255,,0*79
$GBGSV,2,2,05,05,08,255,,0*4D
$GNRMC,035630.00,A,3726.9110384,N,12639.1234848,E,0.006,,210622,,,R,V*0E
$GNVTG,,T,,M,0.006,N,0.011,K,D*3E
$GNGNS,035630.00,3726.9110384,N,12639.1234848,E,RRRR,28,0.75,16.017,17.834,2.0,4095,V*0C
$GNGGA,035630.00,3726.9110384,N,12639.1234848,E,4,12,0.75,16.017,M,17.834,M,2.0,4095*50
$GNGSA,A,3,19,04,03,17,06,01,,,,,,,1.45,0.75,1.24,1*0A
$GNGSA,A,3,75,76,70,87,85,71,77,,,,,,1.45,0.75,1.24,2*07
$GNGSA,A,3,13,01,27,03,21,08,15,,,,,,1.45,0.75,1.24,3*0C
$GNGSA,A,3,28,04,08,10,37,07,33,27,,,,,1.45,0.75,1.24,4*00
$GPGSV,2,1,08,01,21,058,33,03,49,058,46,04,14,110,25,06,41,271,39,1*6A
$GPGSV,2,2,08,09,09,142,23,17,73,004,34,19,53,321,49,28,,,44,1*52
$GPGSV,2,1,06,01,21,058,31,03,49,058,39,04,14,110,40,06,41,271,30,6*63
$GPGSV,2,2,06,14,46,194,16,17,73,004,35,6*69
$GPGSV,1,1,04,02,02,259,,11,05,253,,21,02,070,,50,47,179,,0*61
$GLGSV,2,1,07,70,39,065,26,71,36,132,46,75,12,202,31,76,38,256,32,1*7E
$GLGSV,2,2,07,77,25,314,32,85,36,056,48,87,13,288,13,1*45
$GLGSV,2,1,05,71,36,132,34,75,12,202,21,76,38,256,24,77,25,314,23,3*77
$GLGSV,2,2,05,85,36,056,31,3*46
$GLGSV,1,1,03,69,01,017,,72,05,171,,86,52,347,,0*4C
$GAGSV,2,1,07,01,14,321,34,03,22,083,40,08,18,135,30,13,61,307,41,2*7C
$GAGSV,2,2,07,15,45,049,39,18,52,102,39,21,48,280,40,2*45
$GAGSV,2,1,08,01,14,321,44,03,22,083,42,08,18,135,35,13,61,307,46,7*71
$GAGSV,2,2,08,15,45,049,45,18,52,102,45,21,48,280,43,27,40,200,22,7*7F
$GAGSV,1,1,04,05,04,035,,26,16,266,,30,00,165,,34,01,071,,0*77
$GBGSV,2,1,08,04,35,132,39,07,74,225,39,08,51,241,24,10,70,269,42,1*7E
$GBGSV,2,2,08,27,41,303,48,28,66,036,35,33,48,094,41,37,21,227,30,1*7C
$GBGSV,1,1,03,04,35,132,38,07,74,225,35,10,70,269,40,3*46
$GBGSV,2,1,05,01,43,152,,02,27,236,,03,44,206,,05,08,255,,0*79
$GBGSV,2,2,05,05,08,255,,0*4D
$GNRMC,035631.00,A,3726.9110485,N,12639.1234909,E,0.037,,210622,,,R,V*0F
$GNVTG,,T,,M,0.037,N,0.069,K,D*33
$GNGNS,035631.00,3726.9110485,N,12639.1234909,E,RRRR,28,0.75,16.032,17.834,2.0,4095,V*08
$GNGGA,035631.00,3726.9110485,N,12639.1234909,E,4,12,0.75,16.032,M,17.834,M,2.0,4095*54
$GNGSA,A,3,19,04,03,17,06,01,,,,,,,1.45,0.75,1.24,1*0A
$GNGSA,A,3,75,76,70,87,85,71,77,,,,,,1.45,0.75,1.24,2*07
$GNGSA,A,3,13,01,27,03,21,08,15,,,,,,1.45,0.75,1.24,3*0C
$GNGSA,A,3,28,04,08,10,37,07,33,27,,,,,1.45,0.75,1.24,4*00
$GPGSV,2,1,07,01,21,058,36,03,49,058,46,06,41,271,39,09,09,142,23,1*60
$GPGSV,2,2,07,17,73,004,33,19,53,321,50,28,,,45,1*65
$GPGSV,2,1,06,01,21,058,31,03,49,058,38,04,14,110,39,06,41,271,31,6*6D
$GPGSV,2,2,06,14,46,194,16,17,73,004,35,6*69
$GPGSV,1,1,04,02,02,259,,11,05,253,,21,02,070,,50,47,179,,0*61
$GLGSV,2,1,07,70,39,065,25,71,36,132,46,75,12,202,30,76,38,256,31,1*7F
$GLGSV,2,2,07,77,25,314,32,85,36,056,50,87,13,288,07,1*49
$GLGSV,2,1,05,71,36,132,34,75,12,202,20,76,38,256,25,77,25,314,24,3*70
$GLGSV,2,2,05,85,36,056,31,3*46
$GLGSV,1,1,03,69,01,017,,72,05,171,,86,52,347,,0*4C
$GAGSV,2,1,07,01,14,321,37,03,22,083,40,08,18,135,32,13,61,307,42,2*7E
$GAGSV,2,2,07,15,45,049,40,18,52,102,40,21,48,280,44,2*41
$GAGSV,2,1,08,01,14,321,41,03,22,083,41,08,18,135,36,13,61,307,46,7*74
$GAGSV,2,2,08,15,45,049,45,18,52,102,45,21,48,280,39,27,40,200,25,7*75
$GAGSV,1,1,04,05,04,035,,26,16,266,,30,00,165,,34,01,071,,0*77
$GBGSV,2,1,08,04,35,132,40,07,74,225,40,08,51,241,23,10,70,269,43,1*78
$GBGSV,2,2,08,27,41,303,48,28,66,036,30,33,48,094,43,37,21,227,29,1*73
$GBGSV,1,1,03,04,35,132,39,07,74,225,35,10,70,269,40,3*47
$GBGSV,2,1,05,01,43,152,,02,27,236,,03,44,206,,05,08,255,,0*79
$GBGSV,2,2,05,05,08,255,,0*4D
$GNRMC,035632.00,A,3726.9110508,N,12639.1234921,E,0.011,,210622,,,R,V*06
$GNVTG,,T,,M,0.011,N,0.020,K,D*3A
$GNGNS,035632.00,3726.9110508,N,12639.1234921,E,RRRR,27,0.75,16.027,17.834,2.0,4095,V*0E
$GNGGA,035632.00,3726.9110508,N,12639.1234921,E,4,12,0.75,16.027,M,17.834,M,2.0,4095*5D
$GNGSA,A,3,19,04,03,17,06,01,,,,,,,1.45,0.75,1.24,1*0A
$GNGSA,A,3,75,76,70,87,85,71,77,,,,,,1.45,0.75,1.24,2*07
$GNGSA,A,3,13,01,27,03,21,08,15,,,,,,1.45,0.75,1.24,3*0C
$GNGSA,A,3,28,04,08,10,37,07,33,27,,,,,1.45,0.75,1.24,4*00
$GPGSV,2,1,07,01,21,058,35,03,49,058,46,06,41,271,39,09,09,142,25,1*65
$GPGSV,2,2,07,17,73,004,33,19,53,321,49,28,,,44,1*6C
$GPGSV,2,1,06,01,21,058,30,03,49,058,38,04,14,110,39,06,41,271,31,6*6C
$GPGSV,2,2,06,14,46,194,14,17,73,004,34,6*6A
$GPGSV,1,1,04,02,02,259,,11,05,253,,21,02,070,,50,47,179,,0*61
$GLGSV,2,1,07,70,39,065,26,71,36,132,46,75,12,202,30,76,38,256,30,1*7D
$GLGSV,2,2,07,77,25,314,32,85,36,056,49,87,13,288,18,1*4F
$GLGSV,2,1,05,71,36,132,34,75,12,202,19,76,38,256,25,77,25,314,23,3*7D
$GLGSV,2,2,05,85,36,056,31,3*46
$GLGSV,1,1,03,69,01,017,,72,05,171,,86,52,347,,0*4C
$GAGSV,2,1,07,01,14,321,34,03,22,083,40,08,18,135,31,13,61,307,43,2*7F
$GAGSV,2,2,07,15,45,049,40,18,52,102,39,21,48,280,43,2*48
$GAGSV,2,1,08,01,14,321,44,03,22,083,41,08,18,135,35,13,61,307,47,7*73
$GAGSV,2,2,08,15,45,049,45,18,52,102,46,21,48,280,40,27,40,200,25,7*78
$GAGSV,1,1,04,05,04,035,,26,16,266,,30,00,165,,34,01,071,,0*77
$GBGSV,2,1,08,04,35,132,39,07,74,225,38,08,51,241,22,10,70,269,42,1*79
$GBGSV,2,2,08,27,41,303,48,28,66,036,32,33,48,094,42,37,21,227,29,1*70
$GBGSV,1,1,04,04,35,132,39,07,74,225,35,10,70,269,40,27,41,303,20,3*72
$GNRMC,035633.00,A,3726.9110534,N,12639.1234886,E,0.021,,210622,,,R,V*07
$GNVTG,,T,,M,0.021,N,0.040,K,D*3F
$GNGNS,035633.00,3726.9110534,N,12639.1234886,E,RRRR,27,0.75,16.018,17.834,1.0,4095,V*03
$GNGGA,035633.00,3726.9110534,N,12639.1234886,E,4,12,0.75,16.018,M,17.834,M,1.0,4095*50
$GNGSA,A,3,19,04,03,17,06,01,,,,,,,1.45,0.75,1.24,1*0A
$GNGSA,A,3,75,76,70,87,85,71,77,,,,,,1.45,0.75,1.24,2*07
$GNGSA,A,3,13,01,27,03,21,08,15,,,,,,1.45,0.75,1.24,3*0C
$GNGSA,A,3,28,04,08,10,37,07,33,27,,,,,1.45,0.75,1.24,4*00
$GPGSV,2,1,07,01,21,058,34,03,49,058,46,06,41,271,39,09,09,142,25,1*64
$GPGSV,2,2,07,17,73,004,33,19,53,321,49,28,,,44,1*6C
$GPGSV,2,1,06,01,21,058,29,03,49,058,37,04,14,110,38,06,41,271,30,6*6B
$GPGSV,2,2,06,14,46,194,14,17,73,004,34,6*6A
$GPGSV,1,1,04,02,02,259,,11,05,253,,21,02,070,,50,47,179,,0*61
$GLGSV,2,1,07,70,39,065,27,71,36,132,46,75,12,202,29,76,38,256,29,1*7C
$GLGSV,2,2,07,77,25,314,32,85,36,056,48,87,13,288,21,1*44
$GLGSV,2,1,05,71,36,132,34,75,12,202,20,76,38,256,25,77,25,314,23,3*77
$GLGSV,2,2,05,85,36,056,31,3*46
$GLGSV,1,1,03,69,01,017,,72,05,171,,86,52,347,,0*4C
$GAGSV,2,1,07,01,14,321,32,03,22,083,39,08,18,135,29,13,61,307,40,2*7D
$GAGSV,2,2,07,15,45,049,38,18,52,102,38,21,48,280,41,2*44
$GAGSV,2,1,08,01,14,321,43,03,22,083,41,08,18,135,35,13,61,307,45,7*76
$GAGSV,2,2,08,15,45,049,45,18,52,102,46,21,48,280,40,27,40,200,25,7*78
$GAGSV,1,1,04,05,04,035,,26,16,266,,30,00,165,,34,01,071,,0*77
$GBGSV,2,1,08,04,35,132,39,07,74,225,38,08,51,241,22,10,70,269,42,1*79
$GBGSV,2,2,08,27,41,303,48,28,66,036,33,33,48,094,42,37,21,227,29,1*71
$GBGSV,2,1,05,04,35,132,38,07,74,225,34,08,51,241,20,10,70,269,39,3*75
$GBGSV,2,2,05,27,41,303,16,3*46
$GBGSV,2,1,05,01,43,152,,02,27,236,,03,44,206,,05,08,255,,0*79
$GBGSV,2,2,05,05,08,255,,0*4D
$GNRMC,035634.00,A,3726.9110501,N,12639.1234895,E,0.019,,210622,,,R,V*0F
$GNVTG,,T,,M,0.019,N,0.035,K,D*36
$GNGNS,035634.00,3726.9110501,N,12639.1234895,E,RRRR,27,0.75,16.029,17.834,2.0,4095,V*01
$GNGGA,035634.00,3726.9110501,N,12639.1234895,E,4,12,0.75,16.029,M,17.834,M,2.0,4095*52
$GNGSA,A,3,19,04,03,17,06,01,,,,,,,1.45,0.75,1.24,1*0A
$GNGSA,A,3,75,76,70,87,85,71,77,,,,,,1.45,0.75,1.24,2*07
$GNGSA,A,3,13,01,27,03,21,08,15,,,,,,1.45,0.75,1.24,3*0C
$GNGSA,A,3,28,04,08,10,37,07,33,27,,,,,1.45,0.75,1.24,4*00
$GPGSV,2,1,07,01,21,058,39,03,49,058,46,06,41,271,39,09,09,142,26,1*6A
$GPGSV,2,2,07,17,73,004,33,19,53,321,50,28,,,45,1*65
$GPGSV,2,1,06,01,21,058,29,03,49,058,38,04,14,110,38,06,41,271,30,6*64
$GPGSV,2,2,06,14,46,194,13,17,73,004,35,6*6C
$GPGSV,1,1,04,02,02,259,,11,05,253,,21,02,070,,50,47,179,,0*61
$GLGSV,2,1,07,70,39,065,25,71,36,132,46,75,12,202,28,76,38,256,27,1*71
$GLGSV,2,2,07,77,25,314,32,85,36,056,50,87,13,288,22,1*4E
$GLGSV,2,1,05,71,36,132,34,75,12,202,20,76,38,256,25,77,25,314,23,3*77
$GLGSV,2,2,05,85,36,056,29,3*4F
$GLGSV,1,1,03,69,01,017,,72,05,171,,86,52,347,,0*4C
$GAGSV,2,1,07,01,14,321,35,03,22,083,34,08,18,135,31,13,61,307,43,2*7D
$GAGSV,2,2,07,15,45,049,40,18,52,102,40,21,48,280,43,2*46
$GAGSV,2,1,08,01,14,321,40,03,22,083,39,08,18,135,36,13,61,307,47,7*7B
$GAGSV,2,2,08,15,45,049,44,18,52,102,46,21,48,280,38,27,40,200,26,7*75
$GAGSV,1,1,04,05,04,035,,26,16,266,,30,00,165,,34,01,071,,0*77
$GBGSV,3,1,09,04,35,132,40,07,74,225,42,08,51,241,23,10,70,269,43,1*7A
$GBGSV,3,2,09,13,41,239,20,27,41,303,47,28,66,036,32,33,48,094,41,1*7A
$GBGSV,3,3,09,37,21,227,28,1*45
$GNRMC,035635.00,A,3726.9110508,N,12639.1234888,E,0.013,,210622,,,R,V*01
$GNVTG,,T,,M,0.013,N,0.025,K,D*3D
$GNGNS,035635.00,3726.9110508,N,12639.1234888,E,RRRR,27,0.69,16.030,17.834,2.0,4095,V*00
$GNGGA,035635.00,3726.9110508,N,12639.1234888,E,4,12,0.69,16.030,M,17.834,M,2.0,4095*53
$GNGSA,A,3,19,04,03,17,06,01,,,,,,,1.42,0.69,1.24,1*00
$GNGSA,A,3,75,76,70,87,85,71,77,,,,,,1.42,0.69,1.24,2*0D
$GNGSA,A,3,13,01,27,03,21,08,15,,,,,,1.42,0.69,1.24,3*06
$GNGSA,A,3,28,04,08,10,37,07,33,27,,,,,1.42,0.69,1.24,4*0A
$GPGSV,2,1,07,01,21,058,39,03,49,058,46,06,41,271,39,09,09,142,26,1*6A
$GPGSV,2,2,07,17,73,004,33,19,53,321,50,28,,,45,1*65
$GPGSV,2,1,06,01,21,058,29,03,49,058,38,04,14,110,39,06,41,271,30,6*65
$GPGSV,2,2,06,14,46,194,13,17,73,004,35,6*6C
$GPGSV,1,1,04,02,02,259,,11,05,253,,21,02,070,,50,47,179,,0*61
$GLGSV,2,1,07,70,39,065,25,71,36,132,45,75,12,202,27,76,38,256,25,1*7F
$GLGSV,2,2,07,77,25,314,31,85,36,056,49,87,13,288,22,1*45
$GLGSV,2,1,05,71,36,132,34,75,12,202,20,76,38,256,26,77,25,314,23,3*74
$GLGSV,2,2,05,85,36,056,32,3*45
$GLGSV,1,1,03,69,00,017,,72,05,171,,86,52,347,,0*4D
$GAGSV,2,1,07,01,14,321,33,03,22,083,40,08,18,135,31,13,61,307,42,2*79
$GAGSV,2,2,07,15,45,049,40,18,52,102,39,21,48,280,43,2*48
$GAGSV,2,1,08,01,14,321,44,03,22,083,41,08,18,135,35,13,61,307,47,7*73
$GAGSV,2,2,08,15,45,049,44,18,52,102,46,21,48,280,40,27,40,200,25,7*79
$GAGSV,1,1,04,05,04,035,,26,16,266,,30,00,165,,34,01,071,,0*77
$GBGSV,2,1,08,04,35,132,39,07,74,225,38,08,51,241,24,10,70,269,42,1*7F
$GBGSV,2,2,08,27,41,303,48,28,66,036,32,33,48,094,42,37,21,227,28,1*71
$GBGSV,2,1,05,04,35,132,38,07,74,225,34,08,51,241,22,10,70,269,39,3*77
$GBGSV,2,2,05,27,41,303,11,3*41
$GNRMC,035636.00,A,3726.9110640,N,12639.1234875,E,0.010,,210622,,,R,V*0C
$GNVTG,,T,,M,0.010,N,0.019,K,D*31
$GNGNS,035636.00,3726.9110640,N,12639.1234875,E,RRRR,28,0.69,16.005,17.834,2.0,4095,V*07
$GNGGA,035636.00,3726.9110640,N,12639.1234875,E,4,12,0.69,16.005,M,17.834,M,2.0,4095*5B
$GNGSA,A,3,19,04,03,17,06,01,,,,,,,1.42,0.69,1.24,1*00
$GNGSA,A,3,75,76,70,87,85,71,77,,,,,,1.42,0.69,1.24,2*0D
$GNGSA,A,3,13,01,27,03,21,08,15,,,,,,1.42,0.69,1.24,3*06
$GNGSA,A,3,28,04,08,10,37,07,33,27,,,,,1.42,0.69,1.24,4*0A
$GPGSV,2,1,07,01,21,058,37,03,49,058,46,06,41,271,39,09,09,142,26,1*64
$GPGSV,2,2,07,17,73,004,36,19,53,321,51,28,,,45,1*61
$GPGSV,1,1,01,09,09,142,18,5*5F
$GPGSV,2,1,06,01,21,058,28,03,49,058,38,04,14,110,38,06,41,271,30,6*65
$GPGSV,2,2,06,14,46,194,14,17,73,004,35,6*6B
$GPGSV,1,1,04,02,02,259,,11,05,253,,21,02,070,,50,47,179,,0*61
$GLGSV,2,1,07,70,39,064,24,71,36,132,43,75,12,202,26,76,38,256,23,1*7E
$GLGSV,2,2,07,77,25,314,32,85,36,056,47,87,13,288,22,1*48
$GLGSV,2,1,05,71,36,132,34,75,12,202,21,76,38,256,25,77,25,314,23,3*76
$GLGSV,2,2,05,85,36,056,31,3*46
$GLGSV,1,1,03,69,00,017,,72,05,171,,86,52,347,,0*4D
$GAGSV,2,1,07,01,14,321,33,03,22,083,39,08,18,135,30,13,61,307,43,2*77
$GAGSV,2,2,07,15,45,049,41,18,52,102,41,21,48,280,43,2*46
$GAGSV,2,1,08,01,14,321,42,03,22,083,41,08,18,135,34,13,61,307,48,7*7B
$GAGSV,2,2,08,15,45,049,45,18,52,102,46,21,48,280,40,27,40,200,26,7*7B
$GAGSV,1,1,04,05,04,035,,26,16,266,,30,00,165,,34,01,071,,0*77
$GBGSV,3,1,09,04,35,132,35,07,74,225,40,08,51,241,24,10,70,269,43,1*7D
$GBGSV,3,2,09,13,41,239,18,27,41,303,47,28,66,036,38,33,48,094,39,1*74
$GBGSV,3,3,09,37,21,227,28,1*45
$GBGSV,1,1,04,04,35,132,36,07,74,225,36,10,70,269,39,27,41,303,08,3*7A
$GNRMC,035637.00,A,3726.9110682,N,12639.1234829,E,0.029,,210622,,,R,V*00
$GNVTG,,T,,M,0.029,N,0.054,K,D*32
$GNGNS,035637.00,3726.9110682,N,12639.1234829,E,RRRR,27,0.69,15.998,17.834,2.0,4095,V*00
$GNGGA,035637.00,3726.9110682,N,12639.1234829,E,4,12,0.69,15.998,M,17.834,M,2.0,4095*53
$GNGSA,A,3,19,04,03,17,06,01,,,,,,,1.42,0.69,1.24,1*00
$GNGSA,A,3,75,76,70,87,85,71,77,,,,,,1.42,0.69,1.24,2*0D
$GNGSA,A,3,13,01,27,03,21,08,15,,,,,,1.42,0.69,1.24,3*06
$GNGSA,A,3,28,04,08,10,37,07,33,27,,,,,1.42,0.69,1.24,4*0A
$GPGSV,2,1,07,01,21,058,37,03,49,058,47,06,41,271,39,09,09,142,26,1*65
$GPGSV,2,2,07,17,73,004,36,19,53,321,50,28,,,45,1*60
$GPGSV,2,1,07,01,21,058,27,03,49,058,38,04,14,110,37,06,41,271,30,6*64
$GPGSV,2,2,07,09,09,142,18,14,46,194,14,17,73,004,35,6*54
$GPGSV,1,1,04,02,02,259,,11,05,253,,21,02,070,,50,47,179,,0*61
$GLGSV,2,1,07,70,39,064,24,71,37,132,44,75,12,202,26,76,38,256,21,1*7A
$GLGSV,2,2,07,77,25,314,32,85,36,056,47,87,13,288,21,1*4B
$GLGSV,2,1,05,71,37,132,34,75,12,202,22,76,38,256,25,77,25,314,23,3*74
$GLGSV,2,2,05,85,36,056,31,3*46
$GLGSV,1,1,03,69,00,017,,72,05,171,,86,52,347,,0*4D
$GAGSV,2,1,07,01,14,321,31,03,22,083,40,08,18,135,28,13,61,307,41,2*70
$GAGSV,2,2,07,15,45,049,40,18,52,102,40,21,48,280,41,2*44
$GAGSV,2,1,08,01,14,321,43,03,22,083,42,08,18,135,33,13,61,307,47,7*71
$GAGSV,2,2,08,15,45,049,45,18,52,102,46,21,48,280,40,27,40,200,26,7*7B
$GAGSV,1,1,04,05,04,035,,26,16,266,,30,00,165,,34,01,071,,0*77
$GBGSV,3,1,09,04,35,132,35,07,74,225,39,08,51,241,25,10,70,269,43,1*72
$GBGSV,3,2,09,13,41,239,18,27,41,303,48,28,66,036,34,33,48,094,40,1*79
$GBGSV,3,3,09,37,21,227,28,1*45
$GBGSV,1,1,04,04,35,132,36,07,74,225,35,10,70,269,39,27,41,303,08,3*79
$GBGSV,1,1,04,01,43,152,,02,27,236,,03,44,206,,05,08,255,,0*7B
$GNRMC,035638.00,A,3726.9110712,N,12639.1234819,E,0.009,,210622,,,R,V*06
$GNVTG,,T,,M,0.009,N,0.017,K,D*37
$GNGNS,035638.00,3726.9110712,N,12639.1234819,E,RRRR,27,0.69,15.989,17.834,3.0,4095,V*05
$GNGGA,035638.00,3726.9110712,N,12639.1234819,E,4,12,0.69,15.989,M,17.834,M,3.0,4095*56
$GNGSA,A,3,19,04,03,17,06,01,,,,,,,1.42,0.69,1.24,1*00
$GNGSA,A,3,75,76,70,87,85,71,77,,,,,,1.42,0.69,1.24,2*0D
$GNGSA,A,3,13,01,27,03,21,08,15,,,,,,1.42,0.69,1.24,3*06
$GNGSA,A,3,28,04,08,10,37,07,33,27,,,,,1.42,0.69,1.24,4*0A
$GPGSV,2,1,07,01,21,058,37,03,49,058,46,06,41,271,39,09,09,142,26,1*64
$GPGSV,2,2,07,17,73,004,33,19,53,321,49,28,,,44,1*6C
$GPGSV,2,1,07,01,21,058,26,03,49,058,37,04,14,110,38,06,41,271,30,6*65
$GPGSV,2,2,07,09,09,142,17,14,46,194,14,17,73,004,34,6*5A
$GPGSV,1,1,04,02,02,259,,11,05,253,,21,02,070,,50,47,179,,0*61
$GLGSV,2,1,07,70,39,064,25,71,37,132,45,75,12,202,25,76,38,256,18,1*73
$GLGSV,2,2,07,77,25,314,31,85,36,056,48,87,13,288,24,1*42
$GLGSV,2,1,05,71,37,132,33,75,12,202,23,76,38,256,25,77,25,314,22,3*73
$GLGSV,2,2,05,85,36,056,32,3*45
$GLGSV,1,1,03,69,00,017,,72,06,171,,86,52,347,,0*4E
$GAGSV,2,1,08,01,14,321,31,03,22,083,42,08,18,135,30,13,61,307,42,2*77
$GAGSV,2,2,08,15,45,049,41,18,52,102,40,21,48,280,42,27,40,200,18,2*73
$GAGSV,2,1,08,01,14,321,43,03,22,083,40,08,18,135,34,13,61,307,45,7*76
$GAGSV,2,2,08,15,45,049,44,18,52,102,46,21,48,280,40,27,40,200,26,7*7A
$GAGSV,1,1,04,05,04,035,,26,16,266,,30,00,165,,34,01,071,,0*77
$GBGSV,3,1,09,04,35,132,36,07,74,225,38,08,51,241,25,10,70,269,42,1*71
$GBGSV,3,2,09,13,41,239,19,27,41,303,48,28,66,036,32,33,48,094,40,1*7E
$GBGSV,3,3,09,37,21,227,29,1*44
$GBGSV,1,1,04,04,35,132,39,07,74,225,34,10,70,269,38,27,41,303,07,3*79
$GBGSV,1,1,04,01,43,152,,02,27,236,,03,44,206,,05,08,255,,0*7B
$GNRMC,035639.00,A,3726.9110677,N,12639.1234829,E,0.012,,210622,,,R,V*0C
$GNVTG,,T,,M,0.012,N,0.022,K,D*3B
$GNGNS,035639.00,3726.9110677,N,12639.1234829,E,RRRR,28,0.69,15.986,17.834,3.0,4095,V*05
$GNGSA,A,3,19,04,03,14,17,06,01,,,,,,1.42,0.69,1.24,1*05
$GNGSA,A,3,75,76,70,87,85,71,77,,,,,,1.42,0.69,1.24,2*0D
$GNGSA,A,3,13,01,27,03,21,08,15,,,,,,1.42,0.69,1.24,3*06
$GNGSA,A,3,28,04,08,10,37,07,33,27,,,,,1.42,0.69,1.24,4*0A
$GPGSV,2,1,07,01,21,058,37,03,49,058,46,06,41,271,39,09,09,142,25,1*67
$GPGSV,2,2,07,17,73,004,36,19,53,321,50,28,,,45,1*60
$GPGSV,2,1,07,01,21,058,26,03,49,058,37,04,14,110,37,06,41,271,30,6*6A
$GPGSV,2,2,07,09,09,142,18,14,46,194,15,17,73,004,35,6*55
$GPGSV,1,1,04,02,02,259,,11,05,253,,21,02,070,,50,47,179,,0*61
$GLGSV,2,1,07,70,39,064,24,71,37,132,43,75,12,202,24,76,38,256,15,1*78
$GLGSV,2,2,07,77,25,314,32,85,36,056,46,87,13,288,24,1*4F
$GLGSV,2,1,05,71,37,132,33,75,12,202,23,76,38,256,25,77,25,314,21,3*70
$GLGSV,2,2,05,85,36,056,32,3*45
$GLGSV,1,1,03,69,00,017,,72,06,171,,86,52,347,,0*4E
$GAGSV,2,1,07,01,14,321,30,03,22,083,41,08,18,135,29,13,61,307,43,2*73
$GAGSV,2,2,07,15,45$GAGSV,2,1,08,01,14,321,43,03,22,083,42,08,18,135,33,13,61,307,46,7*70
$GAGSV,2,2,08,15,45,049,45,18,52,102,47,21,48,280,40,27,40,200,26,7*7A
$GAGSV,1,1,04,05,04,035,,26,16,266,,30,00,165,,34,01,071,,0*77
$GBGSV,3,1,09,04,35,132,35,07,74,225,39,08,51,241,25,10,70,269,42,1*73
$GBGSV,3,2,09,13,41,239,19,27,41,303,48,28,66,036,35,33,48,094,40,1*79
$GBGSV,3,3,09,37,21,227,29,1*44
$GBGSV,1,1,04,04,35,132,37,07,74,225,34,10,70,269,39,27,41,303,07,3*76
$GBGSV,1,1,04,01,43,152,,02,27,236,,03,44,206,,05,08,255,,0*7B
$GNRMC,035640.00,A,3726.9110695,N,12639.1234809,E,0.020,,210622,,,R,V*0D
$GNVTG,,T,,M,0.020,N,0.036,K,D*3F
$GNGNS,035640.00,3726.9110695,N,12639.1234809,E,RRRR,29,0.69,15.978,17.834,2.0,4095,V*04
$GNGGA,035640.00,3726.9110695,N,12639.1234809,E,4,12,0.69,15.978,M,17.834,M,2.0,4095*59
$GNGSA,A,3,19,04,03,14,17,06,01,,,,,,1.42,0.69,1.24,1*05
$GNGSA,A,3,75,76,70,87,85,71,77,,,,,,1.42,0.69,1.24,2*0D
$GNGSA,A,3,13,01,27,03,21,08,15,,,,,,1.42,0.69,1.24,3*06
$GNGSA,A,3,28,04,08,10,37,07,33,27,,,,,1.42,0.69,1.24,4*0A
$GPGSV,2,1,07,01,21,058,37,03,49,058,45,06,41,271,39,09,09,142,25,1*64
$GPGSV,2,2,07,17,73,004,34,19,53,321,49,28,,,45,1*6A
$GPGSV,2,1,07,01,21,058,27,03,49,058,37,04,14,110,37,06,41,271,30,6*6B
$GPGSV,2,2,07,09,09,142,18,14,46,194,14,17,73,004,35,6*54
$GPGSV,1,1,04,02,02,259,,11,05,253,,21,02,070,,50,47,179,,0*61
$GLGSV,2,1,07,70,39,064,24,71,37,132,46,75,12,202,23,76,38,256,15,1*7A
$GLGSV,2,2,07,77,25,314,32,85,36,056,48,87,13,288,23,1*46
$GLGSV,2,1,05,71,37,132,33,75,12,202,23,76,38,256,25,77,25,314,21,3*70
$GLGSV,2,2,05,85,36,056,32,3*45
$GLGSV,1,1,03,69,00,017,,72,06,171,,86,52,347,,0*4E
$GAGSV,2,1,07,01,14,321,29,03,22,083,40,08,18,135,27,13,61,307,40,2*77
$GAGSV,2,2,07,15,45,049,40,18,52,102,38,21,48,280,40,2*4A
$GAGSV,2,1,08,01,14,321,43,03,22,083,40,08,18,135,33,13,61,307,45,7*71
$GAGSV,2,2,08,15,45,049,44,18,52,102,46,21,48,280,39,27,40,200,26,7*74
$GAGSV,1,1,04,05,04,035,,26,16,266,,30,00,165,,34,01,071,,0*77
$GBGSV,2,1,08,04,35,132,36,07,74,225,39,08,51,241,25,10,70,269,42,1*70
$GBGSV,2,2,08,27,41,303,48,28,66,036,31,33,48,094,40,37,21,227,29,1*71
$GBGSV,1,1,04,04,35,132,38,07,74,225,35,10,70,269,38,27,41,303,08,3*76
$GBGSV,2,1,05,01,43,152,,02,27,236,,03,44,206,,05,08,255,,0*79
$GBGSV,2,2,05,05,08,255,,0*4D
$GNRMC,035641.00,A,3726.9110686,N,12639.1234828,E,0.013,,210622,,,R,V*0D
$GNVTG,,T,,M,0.013,N,0.025,K,D*3D
$GNGNS,035641.00,3726.9110686,N,12639.1234828,E,RRRR,28,0.69,15.982,17.834,2.0,4095,V*00
$GNGGA,035641.00,3726.9110686,N,12639.1234828,E,4,12,0.69,15.982,M,17.834,M,2.0,4095*5C
$GNGSA,A,3,19,04,03,14,17,06,01,,,,,,1.42,0.69,1.24,1*05
$GNGSA,A,3,75,76,70,87,85,71,77,,,,,,1.42,0.69,1.24,2*0D
$GNGSA,A,3,13,01,27,03,21,08,15,,,,,,1.42,0.69,1.24,3*06
$GNGSA,A,3,28,04,08,10,37,07,33,27,,,,,1.42,0.69,1.24,4*0A
$GPGSV,2,1,08,01,21,058,37,03,49,058,45,04,14,110,25,06,41,271,40,1*63
$GPGSV,2,2,08,09,09,142,25,17,73,004,36,19,53,321,50,28,,,45,1*5F
$GPGSV,2,1,07,01,21,058,27,03,49,058,36,04,14,110,37,06,41,271,31,6*6B
$GPGSV,2,2,07,09,09,142,17,14,46,194,15,17,73,004,34,6*5B
$GPGSV,1,1,04,02,02,259,,11,05,253,,21,02,070,,50,47,179,,0*61
$GLGSV,2,1,07,70,39,064,24,71,37,132,46,75,11,202,22,76,38,256,15,1*78
$GLGSV,2,2,07,77,25,314,32,85,36,056,48,87,13,288,24,1*41
$GLGSV,2,1,05,71,37,132,34,75,11,202,22,76,38,256,25,77,25,314,20,3*74
$GLGSV,2,2,05,85,36,056,32,3*45
$GLGSV,1,1,03,69,00,017,,72,06,171,,86,52,347,,0*4E
$GAGSV,2,1,07,01,14,321,31,03,22,083,42,08,18,135,29,13,61,307,43,2*71
$GAGSV,2,2,07,15,45,049,41,18,52,102,40,21,48,280,44,2*40
$GAGSV,2,1,08,01,14,321,43,03,22,083,38,08,18,135,34,13,61,307,46,7*7A
$GAGSV,2,2,08,15,45,049,44,18,52,102,46,21,48,280,39,27,40,200,27,7*75
$GAGSV,1,1,04,05,04,035,,26,16,266,,30,00,165,,34,01,071,,0*77
$GBGSV,3,1,09,04,35,132,36,07,74,225,38,08,51,241,25,10,70,269,42,1*71
$GBGSV,3,2,09,13,41,239,17,27,41,303,48,28,66,036,33,33,48,094,39,1*7F
$GBGSV,3,3,09,37,21,227,30,1*4C
$GBGSV,1,1,04,04,35,132,39,07,74,225,35,10,70,269,40,27,41,303,07,3*77
$GBGSV,1,1,04,01,43,152,,02,27,236,,03,44,206,,05,08,255,,0*7B
$GNRMC,035642.00,A,3726.9110696,N,12639.1234822,E,0.008,,210622,,,R,V*0F
$GNVTG,,T,,M,0.008,N,0.016,K,D*37
$GNGNS,035642.00,3726.9110696,N,12639.1234822,E,RRRR,29,0.69,15.982,17.834,3.0,4095,V*08
$GNGGA,035642.00,3726.9110696,N,12639.1234822,E,4,12,0.69,15.982,M,17.834,M,3.0,4095*55
$GNGSA,A,3,19,04,03,14,17,06,01,,,,,,1.42,0.69,1.24,1*05
$GNGSA,A,3,75,76,70,87,85,71,77,,,,,,1.42,0.69,1.24,2*0D
$GNGSA,A,3,13,01,27,03,21,08,15,,,,,,1.42,0.69,1.24,3*06
$GNGSA,A,3,28,04,08,10,37,07,33,27,,,,,1.42,0.69,1.24,4*0A
$GPGSV,2,1,07,01,21,058,39,03,49,058,45,06,41,271,40,09,09,142,24,1*65
$GPGSV,2,2,07,17,73,004,35,19,53,321,49,28,,,45,1*6B
$GNRMC,035643.00,A,3726.9110696,N,12639.1234846,E,0.015,,210622,,,R,V*00
$GNVTG,,T,,M,0.015,N,0.028,K,D*36
$GNGNS,035643.00,3726.9110696,N,12639.1234846,E,RRRR,29,0.69,15.997,17.834,1.0,4095,V*0D
$GNGGA,035643.00,3726.9110696,N,12639.1234846,E,4,12,0.69,15.997,M,17.834,M,1.0,4095*50
$GNGSA,A,3,19,04,03,14,17,06,01,,,,,,1.42,0.69,1.24,1*05
$GNGSA,A,3,75,76,70,87,85,71,77,,,,,,1.42,0.69,1.24,2*0D
$GNGSA,A,3,13,01,27,03,21,08,15,,,,,,1.42,0.69,1.24,3*06
$GNGSA,A,3,28,04,08,10,37,07,33,27,,,,,1.42,0.69,1.24,4*0A
$GPGSV,2,1,08,01,21,058,43,03,49,058,44,04,14,110,32,06,41,271,40,1*67
$GPGSV,2,2,08,09,10,141,24,17,73,004,34,19,53,321,50,28,,,46,1*54
$GPGSV,2,1,07,01,21,058,33,03,49,058,36,04,14,110,38,06,41,271,31,6*61
$GPGSV,2,2,07,09,10,141,17,14,46,194,15,17,73,004,34,6*50
$GPGSV,1,1,04,02,02,259,,11,05,253,,21,02,070,,50,47,179,,0*61
$GLGSV,2,1,07,70,39,064,23,71,37,132,45,75,11,202,26,76,37,255,17,1*76
$GLGSV,2,2,07,77,25,313,32,85,36,056,49,87,13,288,21,1*42
$GLGSV,2,1,05,71,37,132,32,75,11,202,23,76,37,255,26,77,25,313,22,3*79
$GLGSV,2,2,05,85,36,056,27,3*41
$GLGSV,1,1,03,69,00,017,,72,06,171,,86,52,347,,0*4E
$GAGSV,2,1,07,01,14,321,30,03,22,083,38,08,18,135,28,13,61,307,41,2*7E
$GAGSV,2,2,07,15,45,049,39,18,52,102,38,21,48,280,43,2*47
$GAGSV,2,1,08,01,14,321,43,03,22,083,33,08,18,135,34,13,61,307,47,7*70
$GAGSV,2,2,08,15,45,049,44,18,52,102,45,21,48,280,40,27,40,200,27,7*78
$GAGSV,1,1,04,05,04,035,,26,16,266,,30,00,165,,34,01,071,,0*77
$GBGSV,2,1,08,04,35,132,38,07,74,225,40,08,51,241,24,10,70,269,43,1*70
$GBGSV,2,2,08,27,41,303,48,28,66,036,33,33,48,094,40,37,21,227,29,1*73
$GBGSV,2,1,05,01,43,152,27,04,35,132,38,07,74,225,37,10,70,269,40,3*74
$GBGSV,2,2,05,27,41,303,08,3*49
$GBGSV,1,1,04,02,27,236,,03,44,206,,05,08,255,,13,41,239,,0*74
$GNRMC,035644.00,A,3726.9110743,N,12639.1234791,E,0.003,,210622,,,R,V*0C
$GNVTG,,T,,M,0.003,N,0.006,K,D*3D
$GNGNS,035644.00,3726.9110743,N,12639.1234791,E,RRRR,29,0.69,15.964,17.834,2.0,4095,V*09
$GNGGA,035644.00,3726.9110743,N,12639.1234791,E,4,12,0.69,15.964,M,17.834,M,2.0,4095*54
$GNGSA,A,3,19,04,03,14,17,06,01,,,,,,1.42,0.69,1.24,1*05
$GNGSA,A,3,75,76,70,87,85,71,77,,,,,,1.42,0.69,1.24,2*0D
$GNGSA,A,3,13,01,27,03,21,08,15,,,,,,1.42,0.69,1.24,3*06
$GNGSA,A,3,28,04,08,10,37,07,33,27,,,,,1.42,0.69,1.24,4*0A
$GPGSV,3,1,09,01,21,058,42,03,49,058,44,04,14,110,27,06,41,271,40,1*62
$GPGSV,3,2,09,09,10,141,23,14,46,194,26,17,73,004,35,19,53,321,49,1*6D
$GPGSV,3,3,09,28,,,45,1*66
$GPGSV,2,1,07,01,21,058,32,03,49,058,35,04,14,110,39,06,41,271,31,6*62
$GPGSV,2,2,07,09,10,141,17,14,46,194,14,17,73,004,34,6*51
$GPGSV,1,1,04,02,02,259,,11,05,253,,21,02,070,,50,47,179,,0*61
$GLGSV,2,1,07,70,39,064,22,71,37,132,46,75,11,202,27,76,37,255,18,1*7A
$GLGSV,2,2,07,77,25,313,32,85,36,056,49,87,13,288,20,1*43
$GLGSV,2,1,05,71,37,132,33,75,11,202,23,76,37,255,26,77,25,313,21,3*7B
$GLGSV,2,2,05,85,36,056,33,3*44
$GLGSV,1,1,03,69,00,017,,72,06,171,,86,52,347,,0*4E
$GAGSV,2,1,07,01,14,321,31,03,22,083,41,08,18,135,31,13,61,307,42,2*7A
$GAGSV,2,2,07,15,45,049,40,18,52,102,39,21,48,280,42,2*49
$GAGSV,2,1,08,01,14,321,42,03,22,083,36,08,18,135,35,13,61,307,43,7*71
$GAGSV,2,2,08,15,45,049,44,18,52,102,45,21,48,280,39,27,40,200,28,7*79
$GAGSV,1,1,04,05,04,035,,26,16,266,,30,00,165,,34,01,071,,0*77
$GBGSV,3,1,09,01,43,152,27,04,35,132,40,07,74,225,38,08,51,241,24,1*79
$GBGSV,3,2,09,10,70,269,42,27,41,303,47,28,66,036,31,33,48,094,40,1*78
$GBGSV,3,3,09,37,21,227,28,1*45
$GBGSV,1,1,03,04,35,132,40,07,74,225,34,10,70,269,39,3*46
$GBGSV,1,1,04,02,27,236,,03,44,206,,05,08,255,,13,41,239,,0*74
$GNRMC,035645.00,A,3726.9110821,N,12639.1234753,E,0.016,,210622,,,R,V*0C
$GNVTG,,T,,M,0.016,N,0.030,K,D*3C
$GNGNS,035645.00,3726.9110821,N,12639.1234753,E,RRRR,29,0.66,15.942,17.834,2.0,4095,V*06
$GNGGA,035645.00,3726.9110821,N,12639.1234753,E,4,12,0.66,15.942,M,17.834,M,2.0,4095*5B
$GNGSA,A,3,19,04,03,17,06,01,,,,,,,1.40,0.66,1.23,1*0A
$GNGSA,A,3,75,76,70,87,85,71,77,,,,,,1.40,0.66,1.23,2*07
$GNGSA,A,3,13,01,27,03,21,08,15,,,,,,1.40,0.66,1.23,3*0C
$GNGSA,A,3,28,04,08,10,37,07,01,33,27,,,,1.40,0.66,1.23,4*01
$GPGSV,3,1,09,01,21,058,42,03,49,058,44,04,14,110,26,06,41,271,40,1*63
$GPGSV,3,2,09,09,10,141,22,14,46,194,25,17,73,004,35,19,53,321,49,1*6F
$GPGSV,3,3,09,28,,,45,1*66
$GPGSV,2,1,07,01,21,058,32,03,49,058,34,04,14,110,39,06,41,271,31,6*63
$GPGSV,2,2,07,09,10,141,17,14,46,194,11,17,73,004,34,6*54
$GPGSV,1,1,04,02,02,259,,11,05,253,,21,02,070,,50,47,179,,0*61
$GLGSV,2,1,07,70,39,064,23,71,37,132,46,75,11,202,27,76,37,255,21,1*71
$GLGSV,2,2,07,77,25,313,32,85,36,056,49,87,13,288,18,1*48
$GLGSV,2,1,05,71,37,132,33,75,11,202,23,76,37,255,26,77,25,313,19,3*70
$GLGSV,2,2,05,85,36,056,32,3*45
$GLGSV,1,1,03,69,00,017,,72,06,171,,86,52,347,,0*4E
$GAGSV,2,1,07,01,14,321,30,03,22,083,40,08,18,135,30,13,61,307,40,2*79
$GAGSV,2,2,07,15,45,049,40,18,52,102,37,21,48,280,41,2*44
$GAGSV,2,1,08,01,14,321,43,03,22,083,38,08,18,135,35,13,61,307,44,7*79
$GAGSV,2,2,08,15,45,049,45,18,52,102,45,21,48,280,39,27,40,200,27,7*77
$GAGSV,1,1,04,05,04,035,,26,16,266,,30,00,165,,34,01,071,,0*77
$GBGSV,3,1,09,01,43,152,27,04,35,132,39,07,74,225,37,08,51,241,24,1*78
$GBGSV,3,2,09,10,70,269,42,27,41,303,48,28,66,036,31,33,48,094,40,1*77
$GBGSV,3,3,09,37,21,227,28,1*45
$GBGSV,1,1,04,04,35,132,38,07,74,225,33,10,70,269,38,27,41,303,17,3*7E
$GBGSV,1,1,04,02,27,236,,03,44,206,,05,08,255,,13,41,239,,0*74
$GNRMC,035646.00,A,3726.9110856,N,12639.1234784,E,0.008,,210622,,,R,V*0A
$GNVTG,,T,,M,0.008,N,0.015,K,D*34
$GNGNS,035646.00,3726.9110856,N,12639.1234784,E,RRRR,29,0.66,15.952,17.834,2.0,4095,V*0E
$GNGSA,A,3,19,04,03,17,06,01,,,,,,,1.40,0.66,1.23,1*0A
$GNGSA,A,3,75,76,70,87,85,71,77,,,,,,1.40,0.66,1.23,2*07
$GNGSA,A,3,13,01,27,03,21,08,15,,,,,,1.40,0.66,1.23,3*0C
$GNGSA,A,3,28,04,08,10,37,07,01,33,27,,,,1.40,0.66,1.23,4*01
$GPGSV,2,1,08,01,21,058,42,03,49,058,44,04,14,110,26,06,41,271,40,1*63
$GPGSV,2,2,08,09,10,141,22,17,73,004,35,19,53,321,49,28,,,45,1*58
$GPGSV,2,1,07,01,21,058,31,03,49,058,34,04,14,110,39,06,41,271,30,6*61
$GPGSV,2,2,07,09,10,141,16,14,46,194,10,17,73,004,34,6*54
$GPGSV,1,1,04,02,02,259,,11,05,253,,21,02,070,,50,47,179,,0*61
$GLGSV,2,1,07,70,39,064,23,71,37,132,45,75,11,202,27,76,37,255,21,1*72
$GLGSV,2,2,07,77,25,313,32,85,36,056,48,87,13,288,17,1*46
$GLGSV,2,1,05,71,37,132,32,75,11,202,22,76,37,255,26,77,25,313,19,3*70
$GLGSV,2,2,05,85,36,056,33,3*44
$GLGSV,1,1,03,69,00,017,,72,06,171,,86,52,347,,0*4E
$GAGSV,2,1,07,01,14,321,29,03,22,083,40,08,18,135,30,13,61,307,40,2*71
$GAGSV$GAGSV,2,1,08,01,14,321,43,03,22,083,37,08,18,135,35,13,61,307,44,7*76
$GAGSV,2,2,08,15,45,049,44,18,52,102,45,21,48,280,39,27,40,200,28,7*79
$GAGSV,1,1,04,05,04,035,,26,16,266,,30,00,165,,34,01,071,,0*77
$GBGSV,3,1,09,01,43,152,27,04,35,132,39,07,74,225,37,08,51,241,25,1*79
$GBGSV,3,2,09,10,70,269,42,27,41,303,48,28,66,036,30,33,48,094,41,1*77
$GBGSV,3,3,09,37,21,227,29,1*44
$GBGSV,1,1,04,04,35,132,39,07,74,225,34,10,70,269,38,27,41,303,15,3*7A
$GBGSV,1,1,04,02,27,236,,03,44,206,,05,08,255,,13,41,239,,0*74
$GNRMC,035647.00,A,3726.9110832,N,12639.1234777,E,0.010,,210622,,,R,V*0C
$GNVTG,,T,,M,0.010,N,0.019,K,D*31
$GNGNS,035647.00,3726.9110832,N,12639.1234777,E,RRRR,29,0.66,15.944,17.834,2.0,4095,V*06
$GNGGA,035647.00,3726.9110832,N,12639.1234777,E,4,12,0.66,15.944,M,17.834,M,2.0,4095*5B
$GNGSA,A,3,19,04,03,17,06,01,,,,,,,1.40,0.66,1.23,1*0A
$GNGSA,A,3,75,76,70,87,85,71,77,,,,,,1.40,0.66,1.23,2*07
$GNGSA,A,3,13,01,27,03,21,08,15,,,,,,1.40,0.66,1.23,3*0C
$GNGSA,A,3,28,04,08,10,37,07,01,33,27,,,,1.40,0.66,1.23,4*01
$GPGSV,2,1,08,01,21,058,42,03,49,058,44,04,14,110,27,06,41,271,40,1*62
$GPGSV,2,2,08,09,10,141,23,17,73,004,36,19,53,321,49,28,,,45,1*5A
$GPGSV,2,2,07,09,10,141,16,14,46,194,11,17,73,004,34,6*55
$GPGSV,1,1,04,02,02,259,,11,05,253,,21,02,070,,50,47,179,,0*61
$GLGSV,2,1,07,70,39,064,24,71,37,132,46,75,11,202,27,76,37,255,20,1*77
$GLGSV,2,2,07,77,25,313,32,85,36,056,48,87,13,288,16,1*47
$GLGSV,2,1,05,71,37,132,33,75,11,202,23,76,37,255,26,77,25,313,20,3*7A
$GLGSV,2,2,05,85,36,056,33,3*44
$GLGSV,1,1,03,69,00,017,,72,06,171,,86,52,347,,0*4E
$GAGSV,2,1,08,01,14,321,30,03,22,083,41,08,18,135,31,13,61,307,41,2*77
$GAGSV,2,2,08,15,45,049,40,18,52,102,38,21,48,280,42,27,40,200,19,2*7C
$GAGSV,2,1,08,01,14,321,43,03,22,083,37,08,18,135,35,13,61,307,45,7*77
$GAGSV,2,2,08,15,45,049,44,18,52,102,45,21,48,280,39,27,40,200,27,7*76
$GAGSV,1,1,04,05,04,035,,26,16,266,,30,00,165,,34,01,071,,0*77
$GBGSV,3,1,09,01,43,152,27,04,35,132,37,07,74,225,36,08,51,241,25,1*76
$GBGSV,3,2,09,10,70,269,42,27,41,303,48,28,66,036,30,33,48,094,41,1*77
$GBGSV,3,3,09,37,21,227,30,1*4C
$GBGSV,1,1,$GBGSV,1,1,04,02,27,236,,03,44,206,,05,08,255,,13,41,239,,0*74
$GNRMC,035648.00,A,3726.9110870,N,12639.1234797,E,0.005,,210622,,,R,V*0F
$GNVTG,,T,,M,0.005,N,0.009,K,D*34
$GNGNS,035648.00,3726.9110870,N,12639.1234797,E,RRRR,29,0.66,15.944,17.834,2.0,4095,V*01
$GNGGA,035648.00,3726.9110870,N,12639.1234797,E,4,12,0.66,15.944,M,17.834,M,2.0,4095*5C
$GNGSA,A,3,19,04,03,17,06,01,,,,,,,1.40,0.66,1.23,1*0A
$GNGSA,A,3,75,76,70,87,85,71,77,,,,,,1.40,0.66,1.23,2*07
$GNGSA,A,3,13,01,27,03,21,08,15,,,,,,1.40,0.66,1.23,3*0C
$GNGSA,A,3,28,04,08,10,37,07,01,33,27,,,,1.40,0.66,1.23,4*01
$GPGSV,2,1,08,01,21,058,42,03,49,058,44,04,14,110,26,06,41,271,40,1*63
$GPGSV,2,2,08,09,10,141,23,17,73,004,36,19,53,321,50,28,,,44,1*53
$GPGSV,2,1,07,01,21,058,29,03,49,058,34,04,14,110,39,06,41,271,30,6*68
$GPGSV,2,2,07,09,10,141,16,14,46,194,12,17,73,004,34,6*56
$GPGSV,1,1,04,02,02,259,,11,05,253,,21,02,070,,50,47,179,,0*61
$GLGSV,2,1,07,70,39,064,23,71,37,132,46,75,11,202,26,76,37,255,18,1*7A
$GLGSV,2,2,07,77,25,313,32,85,36,056,48,87,13,288,17,1*46
$GLGSV,2,1,05,71,37,132,32,75,11,202,22,76,37,255,26,77,25,313,20,3*7A
$GLGSV,2,2,05,85,36,056,32,3*45
$GLGSV,1,1,03,69,00,017,,72,06,171,,86,52,347,,0*4E
$GAGSV,2,1,07,01,14,321,31,03,22,083,41,08,18,135,31,13,61,307,41,2*79
$GAGSV,2,2,07,15,45,049,41,18,52,102,40,21,48,280,41,2*45
$GAGSV,2,1,08,01,14,321,42,03,22,083,36,08,18,135,34,13,61,307,44,7*77
$GAGSV,2,2,08,15,45,049,44,18,52,102,45,21,48,280,39,27,40,200,27,7*76
$GAGSV,1,1,04,05,04,035,,26,16,266,,30,00,165,,34,01,071,,0*77
$GBGSV,3,1,09,01,43,152,27,04,35,132,37,07,74,225,36,08,51,241,24,1*77
$GBGSV,3,2,09,10,70,269,42,27,41,303,48,28,66,036,30,33,48,094,40,1*76
$GBGSV,3,3,09,37,21,227,31,1*4D
$GNRMC,035649.00,A,3726.9110875,N,12639.1234781,E,0.030,,210622,,,R,V*0A
$GNVTG,,T,,M,0.030,N,0.055,K,D*3B
$GNGNS,035649.00,3726.9110875,N,12639.1234781,E,RRRR,29,0.69,15.931,17.834,2.0,4095,V*0F
$GNGGA,035649.00,3726.9110875,N,12639.1234781,E,4,12,0.69,15.931,M,17.834,M,2.0,4095*52
$GNGSA,A,3,19,04,03,14,17,06,01,,,,,,1.42,0.69,1.24,1*05
$GNGSA,A,3,75,76,70,87,85,71,77,,,,,,1.42,0.69,1.24,2*0D
$GNGSA,A,3,13,01,27,03,21,08,15,,,,,,1.42,0.69,1.24,3*06
$GNGSA,A,3,28,04,08,10,37,07,33,27,,,,,1.42,0.69,1.24,4*0A
$GPGSV,2,1,08,01,21,058,42,03,49,058,44,04,14,110,26,06,41,271,40,1*63
$GPGSV,2,2,08,09,10,141,23,17,73,004,36,19,53,321,50,28,,,44,1*53
$GPGSV,2,1,07,01,21,058,29,03,49,058,33,04,14,110,39,06,41,271,29,6*67
$GPGSV,2,2,07,09,10,141,14,14,46,194,11,17,73,004,34,6*57
$GPGSV,1,1,04,02,02,259,,11,05,253,,21,02,070,,50,47,179,,0*61
$GLGSV,2,1,07,70,39,064,23,71,37,132,46,75,11,202,27,76,37,255,15,1*76
$GLGSV,2,2,07,77,25,313,32,85,36,056,48,87,13,288,17,1*46
$GLGSV,2,1,05,71,37,132,32,75,11,202,21,76,37,255,26,77,25,313,20,3*79
$GLGSV,2,2,05,85,36,056,32,3*45
$GLGSV,1,1,03,69,00,017,,72,06,171,,86,52,347,,0*4E
$GAGSV,2,1,07,01,14,321,29,03,22,083,39,08,18,135,29,13,61,307,39,2*79
$GAGSV,2,2,07,15,45,049,39,18,52,102,38,21,48,280,39,2*4A
$GAGSV,2,1,08,01,14,321,42,03,22,083,35,08,18,135,35,13,61,307,44,7*75
$GAGSV,2,2,08,15,45,049,45,18,52,102,44,21,48,280,39,27,40,200,27,7*76
$GAGSV,1,1,04,05,04,035,,26,16,266,,30,00,165,,34,01,071,,0*77
$GBGSV,2,1,08,04,35,132,37,07,74,225,36,08,51,241,25,10,70,269,42,1*7E
$GBGSV,2,2,08,27,41,303,47,28,66,036,31,33,48,094,40,37,21,227,31,1*77
$GBGSV,2,1,05,04,35,132,38,07,74,225,33,10,70,269,38,27,41,303,08,3*72
$GBGSV,2,2,05,33,48,094,16,3*47
$GBGSV,2,1,05,01,43,152,,02,27,236,,03,44,206,,05,08,255,,0*79
$GBGSV,2,2,05,05,08,255,,0*4D
$GNRMC,035650.00,A,3726.9110865,N,12639.1234795,E,0.002,,210622,,,R,V*07
$GNVTG,,T,,M,0.002,N,0.003,K,D*39
$GNGNS,035650.00,3726.9110865,N,12639.1234795,E,RRRR,28,0.69,15.948,17.834,2.0,4095,V*0C
$GNGGA,035650.00,3726.9110865,N,12639.1234795,E,4,12,0.69,15.948,M,17.834,M,2.0,4095*50
$GNGSA,A,3,19,04,03,17,06,01,,,,,,,1.42,0.69,1.24,1*00
$GNGSA,A,3,75,76,70,87,85,71,77,,,,,,1.42,0.69,1.24,2*0D
$GNGSA,A,3,13,01,27,03,21,08,15,,,,,,1.42,0.69,1.24,3*06
$GNGSA,A,3,28,04,08,10,37,07,33,27,,,,,1.42,0.69,1.24,4*0A
$GPGSV,2,1,08,01,21,058,42,03,49,058,44,04,14,110,27,06,41,271,40,1*62
$GPGSV,2,2,08,09,10,141,23,17,73,004,36,19,53,321,49,28,,,44,1*5B
$GPGSV,2,1,06,01,21,058,29,03,49,058,33,04,14,110,39,06,41,271,30,6*6E
$GPGSV,2,2,06,09,10,141,14,17,73,004,34,6*6D
$GPGSV,2,1,05,02,02,259,,11,05,253,,14,46,194,,21,02,070,,0*61
$GPGSV,2,2,05,21,02,070,,0*56
$GLGSV,2,1,07,70,39,064,24,71,37,132,46,75,11,202,29,76,37,255,12,1*78
$GLGSV,2,2,07,77,25,313,31,85,36,056,47,87,13,288,17,1*4A
$GLGSV,2,1,05,71,37,132,31,75,11,202,20,76,37,255,26,77,25,313,20,3*7B
$GLGSV,2,2,05,85,36,056,32,3*45
$GLGSV,1,1,03,69,00,017,,72,06,171,,86,52,347,,0*4E
$GAGSV,2,1,08,01,14,321,29,03,22,083,40,08,18,135,30,13,61,307,40,2*7E
$GAGSV,2,2,08,15,45,049,40,18,52,102,40,21,48,280,42,27,40,200,18,2*72
$GAGSV,2,1,08,01,14,321,43,03,22,083,35,08,18,135,35,13,61,307,45,7*75
$GAGSV,2,2,08,15,45,049,45,18,52,102,44,21,48,280,40,27,40,200,27,7*78
$GAGSV,1,1,04,05,04,035,,26,16,266,,30,00,165,,34,01,071,,0*77
$GBGSV,2,1,08,04,35,132,38,07,74,225,36,08,51,241,25,10,70,269,42,1*71
$GBGSV,2,2,08,27,41,303,47,28,66,036,33,33,48,094,40,37,21,227,31,1*75
$GBGSV,2,1,05,04,35,132,39,07,74,225,33,10,70,269,39,27,41,303,08,3*72
$GBGSV,2,2,05,33,48,094,14,3*45
$GBGSV,2,1,05,01,43,152,,02,27,236,,03,44,206,,05,08,255,,0*79
$GBGSV,2,2,05,05,08,255,,0*4D
$GNRMC,035651.00,A,3726.9110867,N,12639.1234774,E,0.023,,210622,,,R,V*08
$GNVTG,,T,,M,0.023,N,0.042,K,D*3F
$GNGNS,035651.00,3726.9110867,N,12639.1234774,E,RRRR,28,0.69,15.934,17.834,2.0,4095,V*0B
$GNGGA,035651.00,3726.9110867,N,12639.1234774,E,4,12,0.69,15.934,M,17.834,M,2.0,4095*57
$GNGSA,A,3,19,04,03,17,06,01,,,,,,,1.42,0.69,1.24,1*00
$GNGSA,A,3,75,76,70,87,85,71,77,,,,,,1.42,0.69,1.24,2*0D
$GNGSA,A,3,13,01,27,03,21,08,15,,,,,,1.42,0.69,1.24,3*06
$GNGSA,A,3,28,04,08,10,37,07,33,27,,,,,1.42,0.69,1.24,4*0A
$GPGSV,2,1,08,01,21,058,42,03,49,058,44,04,14,110,27,06,41,271,40,1*62
$GPGSV,2,2,08,09,10,141,23,17,73,004,35,19,53,321,50,28,,,44,1*50
$GPGSV,2,1,06,01,21,058,30,03,49,058,34,04,14,110,39,06,41,271,29,6*69
$GPGSV,2,2,06,09,10,141,14,17,73,004,34,6*6D
$GPGSV,2,1,05,02,02,259,,11,05,253,,14,46,194,,21,02,070,,0*61
$GPGSV,2,2,05,21,02,070,,0*56
$GLGSV,2,1,07,70,39,064,23,71,37,132,46,75,11,202,28,76,37,255,14,1*78
$GLGSV,2,2,07,77,25,313,32,85,35,057,47,87,13,288,16,1*4A
$GLGSV,2,1,05,71,37,132,30,75,11,202,20,76,37,255,25,77,25,313,21,3*78
$GLGSV,2,2,05,85,35,057,33,3*46
$GLGSV,1,1,03,69,00,017,,72,06,171,,86,52,347,,0*4E
$GAGSV,2,1,07,01,14,321,30,03,22,083,40,08,18,135,29,13,61,307,41,2*70
$GAGSV,2,2,07,15,45,049,40,18,52,102,41,21,48,280,40,2*44
$GAGSV,2,1,08,01,14,321,42,03,22,083,35,08,18,135,34,13,61,307,45,7*75
$GAGSV,2,2,08,15,45,049,45,18,52,102,45,21,48,280,40,27,40,200,26,7*78
$GAGSV,1,1,04,05,04,035,,26,16,266,,30,00,165,,34,01,071,,0*77
$GBGSV,2,1,08,04,35,132,37,07,74,225,36,08,51,241,25,10,70,269,42,1*7E
$GBGSV,2,2,08,27,41,303,47,28,66,036,34,33,48,094,40,37,21,227,31,1*72
$GBGSV,2,1,05,04,35,132,39,07,74,225,34,10,70,269,38,27,41,303,08,3*74
$GBGSV,2,2,05,33,48,094,11,3*40
$GBGSV,2,1,05,01,43,152,,02,27,236,,03,44,206,,05,08,255,,0*79
$GBGSV,2,2,05,05,08,255,,0*4D
$GNRMC,035652.00,A,3726.9110888,N,12639.1234764,E,0.011,,210622,,,R,V*0A
$GNVTG,,T,,M,0.011,N,0.020,K,D*3A
$GNGNS,035652.00,3726.9110888,N,12639.1234764,E,RRRR,28,0.69,15.927,17.834,3.0,4095,V*0B
$GNGGA,035652.00,3726.9110888,N,12639.1234764,E,4,12,0.69,15.927,M,17.834,M,3.0,4095*57
$GNGSA,A,3,19,04,03,17,06,01,,,,,,,1.42,0.69,1.24,1*00
$GNGSA,A,3,75,76,70,87,85,71,77,,,,,,1.42,0.69,1.24,2*0D
$GNGSA,A,3,13,01,27,03,21,08,15,,,,,,1.42,0.69,1.24,3*06
$GNGSA,A,3,28,04,08,10,37,07,33,27,,,,,1.42,0.69,1.24,4*0A
$GPGSV,2,1,08,01,21,058,42,03,49,058,44,04,14,110,28,06,41,271,39,1*63
$GPGSV,2,2,08,09,10,141,24,17,73,004,35,19,53,321,50,28,,,43,1*50
$GPGSV,2,1,06,01,21,058,30,03,49,058,34,04,14,110,39,06,41,271,29,6*69
$GPGSV,2,2,06,09,10,141,12,17,73,004,34,6*6B
$GPGSV,2,1,05,02,02,259,,11,05,253,,14,46,194,,21,02,070,,0*61
$GPGSV,2,2,05,21,02,070,,0*56
$GLGSV,2,1,07,70,39,064,22,71,37,132,46,75,11,202,28,76,37,255,11,1*7C
$GLGSV,2,2,07,77,25,313,32,85,35,057,47,87,13,288,17,1*4B
$GLGSV,2,1,05,71,37,132,30,75,11,202,19,76,37,255,25,77,25,313,21,3*72
$GLGSV,2,2,05,85,35,057,32,3*47
$GLGSV,1,1,03,69,00,017,,72,06,171,,86,52,349,,0*40
$GAGSV,2,1,07,01,14,321,29,03,22,083,39,08,18,135,28,13,61,307,40,2*76
$GAGSV,2,2,07,15,45,049,39,18,52,102,40,21,48,280,39,2*45
$GAGSV,2,1,08,01,14,321,42,03,22,083,34,08,18,135,34,13,61,307,45,7*74
$GAGSV,2,2,08,15,45,049,45,18,52,102,45,21,48,280,40,27,40,200,25,7*7B
$GAGSV,1,1,04,05,04,035,,26,16,266,,30,00,165,,34,01,071,,0*77
$GBGSV,2,1,08,04,35,132,37,07,74,225,36,08,51,241,24,10,70,269,42,1*7F
$GBGSV,2,2,08,27,41,303,48,28,66,036,34,33,48,094,40,37,21,227,30,1*7C
$GBGSV,2,1,05,04,35,132,39,07,74,225,34,10,70,269,38,27,41,303,08,3*74
$GBGSV,2,2,05,33,48,094,09,3*49
$GBGSV,2,1,05,01,43,152,,02,27,236,,03,44,206,,05,08,255,,0*79
$GBGSV,2,2,05,05,08,255,,0*4D
$GNRMC,035653.00,A,3726.9110869,N,12639.1234769,E,0.010,,210622,,,R,V*08
$GNVTG,,T,,M,0.010,N,0.019,K,D*31
$GNGNS,035653.00,3726.9110869,N,12639.1234769,E,RRRR,28,0.69,15.929,17.834,3.0,4095,V*06
$GNGGA,035653.00,3726.9110869,N,12639.1234769,E,4,12,0.69,15.929,M,17.834,M,3.0,4095*5A
$GNGSA,A,3,75,76,70,87,85,71,77,,,,,,1.42,0.69,1.24,2*0D
$GNGSA,A,3,13,01,27,03,21,08,15,,,,,,1.42,0.69,1.24,3*06
$GNGSA,A,3,28,04,08,10,37,07,33,27,,,,,1.42,0.69,1.24,4*0A
$GPGSV,2,1,08,01,21,058,42,03,49,058,44,04,14,110,28,06,41,271,39,1*63
$GPGSV,2,2,08,09,10,141,25,17,73,004,35,19,53,321,50,28,,,42,1*50
$GPGSV,2,1,06,01,21,058,31,03,49,058,34,04,14,110,40,06,41,271,29,6*66
$GPGSV,2,2,06,09,10,141,10,17,73,004,34,6*69
$GPGSV,2,1,05,02,02,259,,11,05,253,,14,46,194,,21,02,070,,0*61
$GPGSV,2,2,05,21,02,070,,0*56
$GLGSV,2,1,07,70,39,064,23,71,37,132,46,75,11,202,29,76,37,255,11,1*7C
$GLGSV,2,2,07,77,25,313,33,85,35,057,47,87,14,289,17,1*4C
$GLGSV,2,1,05,71,37,132,29,75,11,202,20,76,37,255,23,77,25,313,21,3*76
$GLGSV,2,2,05,85,35,057,33,3*46
$GLGSV,1,1,03,69,00,017,,72,06,171,,86,52,349,,0*40
$GAGSV,2,1,07,01,14,321,32,03,22,083,41,08,18,135,30,13,61,307,41,2*7B
$GAGSV,2,2,07,15,45,049,41,18,52,102,43,21,48,280,40,2*47
$GAGSV,2,1,08,01,14,$GAGSV,2,2,08,15,45,049,45,18,52,102,45,21,48,280,39,27,40,200,25,7*75
$GAGSV,1,1,04,05,04,035,,26,16,266,,30,00,165,,34,01,071,,0*77
$GBGSV,2,1,08,04,35,132,37,07,74,225,36,08,51,241,24,10,70,269,41,1*7C
$GBGSV,2,2,08,27,41,303,47,28,66,036,33,33,48,094,40,37,21,227,30,1*74
$GBGSV,2,1,05,04,35,132,39,07,74,225,34,10,70,269,37,27,41,303,07,3*74
$GBGSV,2,2,05,33,48,094,08,3*48
$GBGSV,2,1,05,01,43,152,,02,27,236,,03,44,206,,05,08,255,,0*79
$GBGSV,2,2,05,05,08,255,,0*4D
$GNRMC,035654.00,A,3726.9110883,N,12639.1234758,E,0.018,,210622,,,R,V*01
$GNVTG,,T,,M,0.018,N,0.033,K,D*31
$GNGNS,035654.00,3726.9110883,N,12639.1234758,E,RRRR,28,0.70,15.913,17.834,2.0,4095,V*07
$GNGGA,035654.00,3726.9110883,N,12639.1234758,E,4,12,0.70,15.913,M,17.834,M,2.0,4095*5B
$GNGSA,A,3,19,04,03,17,06,01,,,,,,,1.46,0.70,1.28,1*00
$GNGSA,A,3,75,76,70,87,85,71,77,,,,,,1.46,0.70,1.28,2*0D
$GNGSA,A,3,13,01,27,03,21,08,15,,,,,,1.46,0.70,1.28,3*06
$GNGSA,A,3,28,04,08,10,37,07,33,27,,,,,1.46,0.70,1.28,4*0A
$GPGSV,2,1,08,01,21,058,42,03,49,058,44,04,14,110,27,06,41,271,39,1*6C
$GPGSV,2,2,08,09,10,141,26,17,73,004,33,19,53,321,50,28,,,43,1*54
$GPGSV,2,1,05,01,21,058,31,03,49,058,34,04,14,110,39,06,41,271,29,6*6B
$GPGSV,2,2,05,17,73,004,34,6*57
$GPGSV,2,1,05,02,02,259,,11,05,253,,14,46,194,,21,02,070,,0*61
$GPGSV,2,2,05,21,02,070,,0*56
$GLGSV,2,1,07,70,39,064,24,71,37,132,45,75,11,202,28,76,37,255,12,1*7A
$GNRMC,035655.00,A,3726.9110869,N,12639.1234748,E,0.020,,210622,,,R,V*0E
$GNVTG,,T,,M,0.020,N,0.038,K,D*31
$GNGNS,035655.00,3726.9110869,N,12639.1234748,E,RRRR,28,0.76,15.909,17.834,2.0,4095,V*0E
$GNGGA,035655.00,3726.9110869,N,12639.1234748,E,4,12,0.76,15.909,M,17.834,M,2.0,4095*52
$GNGSA,A,3,19,04,03,17,06,01,,,,,,,1.49,0.76,1.28,1*09
$GNGSA,A,3,75,76,70,87,85,71,77,,,,,,1.49,0.76,1.28,2*04
$GNGSA,A,3,13,01,27,03,21,08,15,,,,,,1.49,0.76,1.28,3*0F
$GNGSA,A,3,28,04,08,10,37,07,33,27,,,,,1.49,0.76,1.28,4*03
$GPGSV,2,1,08,01,21,058,42,03,49,058,44,04,14,110,27,06,41,271,39,1*6C
$GPGSV,2,2,08,09,10,141,25,17,73,004,33,19,53,321,50,28,,,42,1*56
$GPGSV,2,1,05,01,21,058,31,03,49,058,34,04,14,110,38,06,41,271,29,6*6A
$GPGSV,2,2,05,17,73,004,34,6*57
$GPGSV,2,1,05,02,02,259,,11,05,253,,14,46,194,,21,02,070,,0*61
$GPGSV,2,2,05,21,02,070,,0*56
$GLGSV,2,1,07,70,39,064,24,71,37,132,45,75,11,202,29,76,37,255,15,1*7C
$GLGSV,2,2,07,77,25,313,32,85,35,057,46,87,14,289,14,1*4F
$GLGSV,2,1,05,71,37,132,28,75,11,202,19,76,37,255,22,77,25,313,22,3*7F
$GLGSV,2,2,05,85,35,057,33,3*46
$GLGSV,1,1,03,69,00,017,,72,06,171,,86,52,349,,0*40
$GAGSV,2,1,07,01,14,321,32,03,22,083,40,08,18,135,28,13,61,307,40,2*72
$GAGSV,2,2,07,15,45,049,39,18,52,102,42,21,48,280,39,2*47
$GAGSV,2,1,08,01,14,321,42,03,22,083,36,08,18,135,33,13,61,307,46,7*72
$GAGSV,2,2,08,15,45,049,45,18,52,102,45,21,48,280,40,27,40,200,21,7*7F
$GAGSV,1,1,04,05,04,035,,26,16,266,,30,00,165,,34,01,071,,0*77
$GBGSV,2,1,08,04,35,132,36,07,74,225,37,08,51,241,25,10,70,269,42,1*7E
$GBGSV,2,2,08,27,41,303,48,28,66,036,36,33,48,094,40,37,21,227,30,1*7E
$GBGSV,2,1,05,04,35,132,37,07,74,225,34,10,70,269,36,27,41,303,08,3*74
$GBGSV,2,2,05,33,48,094,07,3*47
$GBGSV,2,1,05,01,43,152,,02,27,236,,03,44,206,,05,08,255,,0*79
$GBGSV,2,2,05,05,08,255,,0*4D
$GNRMC,035656.00,A,3726.9110778,N,12639.1234752,E,0.006,,210622,,,R,V*0D
$GNVTG,,T,,M,0.006,N,0.012,K,D*3D
$GNGNS,035656.00,3726.9110778,N,12639.1234752,E,RRRR,28,0.76,15.947,17.834,2.0,4095,V*03
$GNGSA,A,3,19,04,03,17,06,01,,,,,,,1.49,0.76,1.28,1*09
$GNGSA,A,3,75,76,70,87,85,71,77,,,,,,1.49,0.76,1.28,2*04
$GNGSA,A,3,13,01,27,03,21,08,15,,,,,,1.49,0.76,1.28,3*0F
$GNGSA,A,3,28,04,08,10,37,07,33,27,,,,,1.49,0.76,1.28,4*03
$GPGSV,2,1,08,01,21,059,42,03,49,058,44,04,14,110,32,06,41,271,39,1*69
$GPGSV,2,2,08,09,10,141,26,17,73,004,37,19,53,321,50,28,,,44,1*57
$GPGSV,2,1,05,01,21,059,30,03,49,058,34,04,14,110,38,06,41,271,29,6*6A
$GPGSV,2,2,05,17,73,004,34,6*57
$GPGSV,2,1,05,02,02,259,,11,05,253,,14,46,194,,21,02,070,,0*61
$GPGSV,2,2,05,21,02,070,,0*56
$GLGSV,2,1,07,70,39,064,25,71,37,132,45,75,11,202,29,76,37,255,15,1*7D
$GLGSV,2,2,07,77,25,313,32,85,35,057,44,87,14,289,11,1*48
$GLGSV,2,1,05,71,37,132,29,75,11,202,17,76,37,255,22,77,25,313,21,3*73
$GLGSV,2,2,05,85,35,057,34,3*41
$GLGSV,1,1,03,69,00,017,,72,06,171,,86,52,349,,0*40
$GAGSV,2,1,07,01,14,321,31,03,22,083,40,08,18,135,29,13,61,307,41,2*71
$GA$GAGSV,2,1,08,01,14,321,43,03,22,083,38,08,18,135,33,13,61,307,45,7*7E
$GAGSV,2,2,08,15,45,049,44,18,52,102,45,21,48,280,40,27,40,200,19,7*75
$GAGSV,1,1,04,05,04,035,,26,16,266,,30,00,165,,34,01,071,,0*77
$GBGSV,2,1,08,04,35,132,36,07,74,225,36,08,51,241,25,10,70,269,42,1*7F
$GBGSV,2,2,08,27,41,303,48,28,66,036,36,33,48,094,42,37,21,227,29,1*74
$GBGSV,1,1,04,04,35,132,35,07,74,225,34,10,70,269,38,33,48,094,07,3*74
$GBGSV,2,1,05,01,43,152,,02,27,236,,03,44,206,,05,08,255,,0*79
$GBGSV,2,2,05,05,08,255,,0*4D
$GNRMC,035657.00,A,3726.9110776,N,12639.1234778,E,0.005,,210622,,,R,V*09
$GNVTG,,T,,M,0.005,N,0.010,K,D*3C
$GNGNS,035657.00,3726.9110776,N,12639.1234778,E,RRRR,27,0.76,15.936,17.834,2.0,4095,V*0D
$GNGGA,035657.00,3726.9110776,N,12639.1234778,E,4,12,0.76,15.936,M,17.834,M,2.0,4095*5E
$GNGSA,A,3,19,04,03,17,06,01,,,,,,,1.42,0.76,1.20,1*0A
$GNGSA,A,3,75,76,70,87,85,71,77,,,,,,1.42,0.76,1.20,2*07
$GNGSA,A,3,13,01,03,21,08,15,,,,,,,1.42,0.76,1.20,3*09
$GNGSA,A,3,28,04,08,10,37,07,33,27,,,,,1.42,0.76,1.20,4*00
$GPGSV,2,1,08,01,21,059,44,03,49,058,43,04,14,110,34,06,41,271,40,1*60
$GPGSV,2,2,08,09,10,141,25,17,73,004,38,19,53,321,49,28,,,45,1*52
$GPGSV,2,1,05,01,21,059,30,03,49,058,32,04,14,110,39,06,41,271,31,6*64
$GPGSV,2,2,05,17,73,004,34,6*57
$GPGSV,2,1,05,02,03,260,,11,05,253,,14,46,194,,21,02,070,,0*6A
$GPGSV,2,2,05,21,02,070,,0*56
$GLGSV,2,1,07,70,39,064,26,71,37,132,47,75,11,202,34,76,37,255,11,1*74
$GLGSV,2,2,07,77,25,313,33,85,35,057,49,87,14,289,12,1*47
$GLGSV,2,1,05,71,37,132,31,75,11,202,15,76,37,255,24,77,25,313,21,3*7E
$GLGSV,2,2,05,85,35,057,34,3*41
$GLGSV,1,1,03,69,00,017,,72,06,171,,86,52,349,,0*40
$GAGSV,2,1,07,01,14,321,25,03,22,083,39,08,18,135,30,13,61,307,42,2*71
$GAGSV,2,2,07,15,45,049,40,18,52,102,40,21,48,280,44,2*41
$GAGSV,2,1,08,01,14,321,43,03,22,083,36,08,18,135,34,13,61,307,46,7*74
$GAGSV,2,2,08,15,45,049,45,18,52,102,44,21,48,280,40,27,40,200,18,7*74
$GAGSV,1,1,04,05,04,035,,26,16,266,,30,00,165,,34,01,071,,0*77
$GBGSV,2,1,08,04,35,132,39,07,74,225,39,08,51,241,25,10,70,269,42,1*7F
$GBGSV,2,2,08,27,41,303,49,28,66,036,36,33,48,094,42,37,21,227,27,1*7B
$GBGSV,1,1,04,04,35,132,38,07,74,225,34,10,70,269,39,33,48,094,08,3*77
$GBGSV,2,1,05,01,43,152,,02,27,236,,03,44,206,,05,08,255,,0*79
$GBGSV,2,2,05,05,08,255,,0*4D
$GNRMC,035658.00,A,3726.9110810,N,12639.1234768,E,0.037,,210622,,,R,V*09
$GNVTG,,T,,M,0.037,N,0.069,K,D*33
$GNGNS,035658.00,3726.9110810,N,12639.1234768,E,RRRR,27,0.76,15.930,17.834,3.0,4095,V*0B
$GNGGA,035658.00,3726.9110810,N,12639.1234768,E,4,12,0.76,15.930,M,17.834,M,3.0,4095*58
$GNGSA,A,3,19,04,03,17,06,01,,,,,,,1.42,0.76,1.20,1*0A
$GNGSA,A,3,75,76,70,87,85,71,77,,,,,,1.42,0.76,1.20,2*07
$GNGSA,A,3,13,01,03,21,08,15,,,,,,,1.42,0.76,1.20,3*09
$GNGSA,A,3,28,04,08,10,37,07,33,27,,,,,1.42,0.76,1.20,4*00
$GPGSV,2,1,08,01,21,059,43,03,49,057,43,04,14,110,37,06,41,271,40,1*6B
$GPGSV,2,2,08,09,10,141,25,17,73,004,38,19,53,321,49,28,,,44,1*53
$GPGSV,2,1,05,01,21,059,29,03,49,057,33,04,14,110,39,06,41,271,32,6*61
$GPGSV,2,2,05,17,73,004,33,6*50
$GPGSV,2,1,05,02,03,260,,11,05,253,,14,46,194,,21,02,070,,0*6A
$GPGSV,2,2,05,21,02,070,,0*56
$GLGSV,2,1,07,70,39,064,28,71,37,132,48,75,11,202,31,76,37,255,11,1*70
$GLGSV,2,2,07,77,25,313,33,85,35,057,48,87,14,289,10,1*44
$GLGSV,2,1,05,71,37,132,32,75,11,202,14,76,37,255,24,77,25,313,21,3*7C
$GLGSV,2,2,05,85,35,057,36,3*43
$GLGSV,1,1,03,69,00,017,,72,06,171,,86,52,349,,0*40
$GAGSV,2,1,07,01,14,321,25,03,22,083,38,08,18,135,29,13,61,307,41,2*7B
$GAGSV,2,2,07,15,45,049,40,18,52,102,41,21,48,280,43,2*47
$GAGSV,2,1,08,01,14,321,42,03,22,083,34,08,18,135,34,13,61,307,45,7*74
$GAGSV,2,2,08,15,45,049,45,18,52,102,44,21,48,280,40,27,40,200,17,7*7B
$GAGSV,1,1,04,05,04,035,,26,16,266,,30,00,165,,34,01,071,,0*77
$GBGSV,2,1,08,04,35,132,39,07,74,225,37,08,51,241,24,10,70,269,41,1*73
$GBGSV,2,2,08,27,41,303,48,28,66,036,36,33,48,094,41,37,21,227,27,1*79
$GBGSV,1,1,04,04,35,132,39,07,74,225,33,10,70,269,39,33,48,094,09,3*70
$GBGSV,2,1,05,01,43,152,,02,27,236,,03,44,206,,05,08,255,,0*79
$GBGSV,2,2,05,05,08,255,,0*4D
$GNRMC,035659.00,A,3726.9110816,N,12639.1234777,E,0.008,,210622,,,R,V*0C
$GNVTG,,T,,M,0.008,N,0.015,K,D*34
$GNGNS,035659.00,3726.9110816,N,12639.1234777,E,RRRR,27,0.76,15.963,17.834,3.0,4095,V*04
$GNGGA,035659.00,3726.9110816,N,12639.1234777,E,4,12,0.76,15.963,M,17.834,M,3.0,4095*57
$GNGSA,A,3,19,04,03,17,06,01,,,,,,,1.42,0.76,1.20,1*0A
$GNGSA,A,3,75,76,70,87,85,71,77,,,,,,1.42,0.76,1.20,2*07
$GNGSA,A,3,13,01,03,21,08,15,,,,,,,1.42,0.76,1.20,3*09
$GNGSA,A,3,28,04,08,10,37,07,33,27,,,,,1.42,0.76,1.20,4*00
$GPGSV,2,1,08,01,21,059,43,03,49,057,43,04,14,110,37,06,41,271,40,1*6B
$GPGSV,2,2,08,09,10,141,25,17,73,004,39,19,53,321,49,28,,,44,1*52
$GPGSV,2,1,05,01,21,059,30,03,49,057,35,04,14,110,42,06,41,271,32,6*63
$GPGSV,2,2,05,17,73,004,33,6*50
$GPGSV,2,1,05,02,03,260,,11,05,253,,14,46,194,,21,02,070,,0*6A
$GPGSV,2,2,05,21,02,070,,0*56
$GLGSV,2,1,07,70,39,064,30,71,37,132,48,75,11,202,32,76,37,255,11,1*7A
$GLGSV,2,2,07,77,25,313,34,85,35,057,50,87,14,289,14,1*4E
$GLGSV,2,1,05,71,37,132,33,75,11,202,14,76,37,255,25,77,25,313,22,3*7F
$GLGSV,2,2,05,85,35,057,36,3*43
$GLGSV,1,1,03,69,00,017,,72,06,171,,86,52,349,,0*40
$GAGSV,2,1,07,01,14,321,29,03,22,083,35,08,18,135,28,13,61,307,40,2*7A
$GAGSV,2,2,07,15,45,049,39,18,52,102,40,21,48,280,42,2*49
$GAGSV,2,1,08,01,14,321,41,03,22,083,39,08,18,135,34,13,61,307,45,7*7A
$GAGSV,2,2,08,15,45,049,45,18,52,102,42,21,48,280,40,27,40,200,17,7*7D
$GAGSV,1,1,04,05,04,035,,26,16,266,,30,00,165,,34,01,071,,0*77
$GBGSV,3,1,09,01,43,152,29,04,35,132,40,07,74,225,39,08,51,241,23,1*71
$GBGSV,3,2,09,10,70,269,42,27,41,303,48,28,66,036,36,33,48,094,41,1*71
$GBGSV,3,3,09,37,21,227,26,1*4B
$GBGSV,1,1,03,04,35,132,40,07,74,225,33,10,70,269,39,3*41
$GBGSV,1,1,04,02,27,236,,03,44,206,,05,08,255,,13,41,239,,0*74
$GNRMC,035700.00,A,3726.9110781,N,12639.1234787,E,0.013,,210622,,,R,V*05
$GNVTG,,T,,M,0.013,N,0.024,K,D*3C
$GNGNS,035700.00,3726.9110781,N,12639.1234787,E,RRRR,28,0.72,15.977,17.834,4.0,4095,V*0E
