$GNRMC,044538.00,A,3726.8497109,N,12639.2410780,E,0.020,,210622,,,R,V*03
$GNVTG,,T,,M,0.020,N,0.037,K,D*3E
$GNGNS,044538.00,3726.8497109,N,12639.2410780,E,RRRR,29,0.69,13.469,17.839,2.0,4095,V*0C
$GNGGA,044538.00,3726.8497109,N,12639.2410780,E,4,12,0.69,13.469,M,17.839,M,2.0,4095*51
$GNGSA,A,3,02,19,06,17,03,12,09,04,,,,,1.22,0.69,1.01,1*08
$GNGSA,A,3,77,71,85,70,87,72,,,,,,,1.22,0.69,1.01,2*0A
$GNGSA,A,3,13,26,15,08,03,01,,,,,,,1.22,0.69,1.01,3*05
$GNGSA,A,3,14,10,04,33,01,27,13,28,08,,,,1.22,0.69,1.01,4*0E
$GPGSV,3,1,11,02,16,275,35,03,30,045,45,04,25,090,46,06,54,300,37,1*6D
$GPGSV,3,2,11,09,25,126,39,11,20,270,15,12,15,319,36,14,23,186,21,1*66
$GPGSV,3,3,11,17,74,094,42,19,74,346,42,50,47,179,33,1*5F
$GPGSV,2,1,08,03,30,045,39,04,25,090,36,06,54,300,30,09,25,126,36,6*65
$GPGSV,2,2,08,11,20,270,21,12,15,319,23,14,23,186,12,17,74,094,36,6*67
$GPGSV,1,1,02,01,06,073,,20,09,223,,0*6C
$GLGSV,2,1,06,70,27,038,31,71,55,100,48,72,30,165,29,77,26,286,26,1*7E
$GLGSV,2,2,06,85,23,083,43,87,28,310,37,1*7D
$GLGSV,1,1,04,71,55,100,36,72,30,165,08,77,26,286,29,85,23,083,37,3*70
$GLGSV,1,1,03,76,19,234,,78,06,337,,86,53,032,,0*41
$GAGSV,2,1,07,01,24,308,32,03,25,064,39,08,33,122,41,13,65,348,39,2*7B
$GAGSV,2,2,07,15,34,066,38,21,42,253,22,26,26,282,30,2*43
$GAGSV,2,1,07,01,24,308,38,03,25,064,47,08,33,122,46,13,65,348,43,7*77
$GAGSV,2,2,07,15,34,066,42,18,27,121,43,26,26,282,37,7*44
$GAGSV,1,1,02,07,10,171,,27,22,195,,0*7F
$GBGSV,3,1,10,01,43,152,31,04,35,132,30,07,64,217,24,08,53,262,33,1*79
$GBGSV,3,2,10,10,64,249,34,13,44,255,28,14,23,044,40,27,55,321,40,1*76
$GBGSV,3,3,10,28,58,077,45,33,46,064,49,1*7C
$GBGSV,2,1,07,01,43,152,32,04,35,132,33,07,64,217,24,08,53,262,32,3*7D
$GBGSV,2,2,07,10,64,249,35,13,44,255,13,14,23,044,37,3*4B
$GBGSV,2,1,06,02,28,236,,03,44,206,,05,08,256,,15,30,188,,0*70
$GBGSV,2,2,06,15,30,188,,30,08,298,,0*7F
$GNRMC,044539.00,A,3726.8497096,N,12639.2410757,E,0.016,,210622,,,R,V*0A
$GNVTG,,T,,M,0.016,N,0.029,K,D*34
$GNGNS,044539.00,3726.8497096,N,12639.2410757,E,RRRR,29,0.66,13.466,17.839,2.0,4095,V*00
$GNGGA,044539.00,3726.8497096,N,12639.2410757,E,4,12,0.66,13.466,M,17.839,M,2.0,4095*5D
$GNGSA,A,3,02,19,14,06,17,03,12,09,04,,,,1.21,0.66,1.01,1*01
$GNGSA,A,3,77,71,85,70,87,72,,,,,,,1.21,0.66,1.01,2*06
$GNGSA,A,3,13,26,15,08,03,01,,,,,,,1.21,0.66,1.01,3*09
$GNGSA,A,3,14,10,04,33,27,13,28,08,,,,,1.21,0.66,1.01,4*03
$GPGSV,3,1,11,02,16,275,36,03,30,045,44,04,25,090,46,06,54,300,36,1*6E
$GPGSV,3,2,11,09,25,126,38,11,20,270,14,12,15,319,35,14,23,186,24,1*60
$GPGSV,3,3,11,17,74,094,43,19,74,346,42,50,47,179,32,1*5F
$GPGSV,2,1,08,03,30,045,37,04,25,090,36,06,54,300,29,09,25,126,37,6*62
$GPGSV,2,2,08,11,20,270,19,12,15,319,23,14,23,186,12,17,74,094,36,6*6C
$GPGSV,1,1,02,01,06,073,,20,09,223,,0*6C
$GLGSV,2,1,06,70,27,038,32,71,55,100,47,72,30,165,28,77,26,286,25,1*70
$GLGSV,2,2,06,85,23,083,41,87,28,310,37,1*7F
$GLGSV,1,1,04,71,55,100,35,72,30,165,07,77,26,286,29,85,23,083,38,3*73
$GLGSV,1,1,03,76,19,234,,78,06,337,,86,53,032,,0*41
$GAGSV,2,1,07,01,24,308,25,03,25,064,39,08,33,122,40,13,65,348,40,2*72
$GAGSV,2,2,07,15,34,066,35,21,42,253,21,26,26,282,31,2*4C
$GAGSV,2,1,08,01,24,308,38,03,25,064,48,08,33,122,46,13,65,348,44,7*70
$GAGSV,2,2,08,15,34,066,40,18,27,121,44,21,42,253,27,26,26,282,36,7*7B
$GAGSV,1,1,02,07,10,171,,27,22,195,,0*7F
$GBGSV,3,1,10,01,43,152,31,04,35,132,31,07,64,217,23,08,53,262,32,1*7E
$GBGSV,3,2,10,10,64,249,33,13,44,255,27,14,23,044,42,27,55,321,39,1*72
$GBGSV,3,3,10,28,58,077,45,33,46,064,48,1*7D
$GBGSV,2,1,07,01,43,152,31,04,35,132,33,07,64,217,23,08,53,262,30,3*7B
$GBGSV,2,2,07,10,64,249,34,13,44,255,12,14,23,044,41,3*4A
$GBGSV,2,1,06,02,28,236,,03,44,206,,05,08,256,,15,30,188,,0*70
$GBGSV,2,2,06,15,30,188,,30,08,298,,0*7F
$GNRMC,044540.00,A,3726.8497079,N,12639.2410763,E,0.020,,210622,,,R,V*07
$GNVTG,,T,,M,0.020,N,0.038,K,D*31
$GNGNS,044540.00,3726.8497079,N,12639.2410763,E,RRRR,29,0.63,13.472,17.839,2.0,4095,V*08
$GNGGA,044540.00,3726.8497079,N,12639.2410763,E,4,12,0.63,13.472,M,17.839,M,2.0,4095*55
$GNGSA,A,3,02,19,06,17,03,12,09,04,,,,,1.19,0.63,1.00,1*0B
$GNGSA,A,3,77,71,85,70,87,72,,,,,,,1.19,0.63,1.00,2*09
$GNGSA,A,3,13,26,15,08,03,01,,,,,,,1.19,0.63,1.00,3*06
$GNGSA,A,3,14,10,04,33,01,27,13,28,08,,,,1.19,0.63,1.00,4*0D
$GPGSV,3,1,11,02,16,275,36,03,30,045,42,04,25,090,46,06,54,300,35,1*6B
$GPGSV,3,2,11,09,25,126,38,11,20,270,07,12,15,319,36,14,23,186,24,1*61
$GPGSV,3,3,11,17,74,094,43,19,74,346,42,50,47,179,32,1*5F
$GPGSV,2,1,08,03,30,045,36,04,25,090,33,06,54,300,29,09,25,126,37,6*66
$GPGSV,2,2,08,11,20,270,21,12,15,319,23,14,23,186,11,17,74,094,36,6*64
$GPGSV,1,1,02,01,06,073,,20,09,223,,0*6C
$GLGSV,2,1,06,70,27,038,33,71,55,100,45,72,30,165,28,77,26,286,26,1*70
$GLGSV,2,2,06,85,23,083,39,87,28,310,38,1*7F
$GLGSV,1,1,04,71,55,100,34,72,30,165,11,77,26,286,29,85,23,083,35,3*78
$GLGSV,1,1,03,76,19,234,,78,06,337,,86,53,032,,0*41
$GAGSV,2,1,07,01,24,308,31,03,25,064,38,08,33,122,40,13,65,348,39,2*78
$GAGSV,2,2,07,15,34,066,35,21,42,253,21,26,26,282,30,2*4D
$GAGSV,2,1,08,01,24,308,38,03,25,064,47,08,33,122,45,13,65,348,43,7*7B
$GAGSV,2,2,08,15,34,066,40,18,27,121,43,21,42,253,26,26,26,282,37,7*7C
$GAGSV,1,1,02,07,10,171,,27,22,195,,0*7F
$GBGSV,3,1,10,01,43,152,30,04,35,132,32,07,64,217,23,08,53,262,32,1*7C
$GBGSV,3,2,10,10,64,249,34,13,44,255,27,14,23,044,40,27,55,321,39,1*77
$GBGSV,3,3,10,28,58,077,43,33,46,064,47,1*74
$GBGSV,2,1,07,01,43,152,31,04,35,132,34,07,64,217,24,08,53,262,31,3*7A
$GBGSV,2,2,07,10,64,249,35,13,44,255,11,14,23,044,41,3*48
$GBGSV,2,1,06,02,28,236,,03,44,206,,05,08,256,,15,30,188,,0*70
$GBGSV,2,2,06,15,30,188,,30,08,298,,0*7F
$GNRMC,044541.00,A,3726.8497134,N,12639.2410783,E,0.009,,210622,,,R,V*0B
$GNVTG,,T,,M,0.009,N,0.016,K,D*36
$GNGNS,044541.00,3726.8497134,N,12639.2410783,E,RRRR,29,0.63,13.461,17.839,2.0,4095,V*0D
$GNGGA,044541.00,3726.8497134,N,12639.2410783,E,4,12,0.63,13.461,M,17.839,M,2.0,4095*50
$GNGSA,A,3,02,19,06,17,03,12,09,04,,,,,1.19,0.63,1.00,1*0B
$GNGSA,A,3,77,71,85,70,87,72,,,,,,,1.19,0.63,1.00,2*09
$GNGSA,A,3,13,26,15,08,03,01,,,,,,,1.19,0.63,1.00,3*06
$GNGSA,A,3,14,10,04,33,01,27,13,28,08,,,,1.19,0.63,1.00,4*0D
$GPGSV,3,1,11,02,16,275,35,03,30,045,43,04,25,090,46,06,54,300,31,1*6D
$GPGSV,3,2,11,09,25,126,38,11,20,270,11,12,15,319,33,14,23,186,25,1*62
$GPGSV,3,3,11,17,74,094,43,19,74,346,42,50,47,179,32,1*5F
$GPGSV,2,1,08,03,30,045,37,04,25,090,35,06,54,300,31,09,25,126,37,6*68
$GPGSV,2,2,08,11,20,270,21,12,15,319,23,14,23,186,12,17,74,094,35,6*64
$GPGSV,1,1,02,01,06,073,,20,09,223,,0*6C
$GLGSV,2,1,06,70,27,038,32,71,55,100,46,72,30,165,27,77,26,286,26,1*7D
$GLGSV,2,2,06,85,23,083,41,87,28,310,37,1*7F
$GLGSV,1,1,04,71,55,100,34,72,30,165,15,77,26,286,29,85,23,083,39,3*70
$GLGSV,1,1,03,76,19,234,,78,06,337,,86,53,032,,0*41
$GAGSV,2,1,07,01,24,308,28,03,25,064,35,08,33,122,37,13,65,348,39,2*7D
$GAGSV,2,2,07,15,34,066,34,21,42,253,20,26,26,282,31,2*4C
$GAGSV,2,1,08,01,24,308,37,03,25,064,48,08,33,122,45,13,65,348,45,7*7D
$GAGSV,2,2,08,15,34,066,40,18,27,121,44,21,42,253,26,26,26,282,36,7*7A
$GAGSV,1,1,02,07,10,171,,27,22,195,,0*7F
$GBGSV,3,1,10,01,43,152,30,04,35,132,32,07,64,217,22,08,53,262,32,1*7D
$GBGSV,3,2,10,10,64,249,32,13,44,255,26,14,23,044,42,27,55,321,39,1*72
$GBGSV,3,3,10,28,58,077,43,33,46,064,48,1*7B
$GBGSV,2,1,07,01,43,152,30,04,35,132,32,07,64,217,25,08,53,262,29,3*75
$GBGSV,2,2,07,10,64,249,34,13,44,255,13,14,23,044,41,3*4B
$GNRMC,044542.00,A,3726.8497076,N,12639.2410764,E,0.015,,210622,,,R,V*0B
$GNVTG,,T,,M,0.015,N,0.028,K,D*36
$GNGNS,044542.00,3726.8497076,N,12639.2410764,E,RRRR,29,0.66,13.459,17.839,2.0,4095,V*0E
$GNGGA,044542.00,3726.8497076,N,12639.2410764,E,4,12,0.66,13.459,M,17.839,M,2.0,4095*53
$GNGSA,A,3,02,19,14,06,17,03,12,09,04,,,,1.21,0.66,1.01,1*01
$GNGSA,A,3,77,71,85,70,87,72,,,,,,,1.21,0.66,1.01,2*06
$GNGSA,A,3,13,26,15,08,03,01,,,,,,,1.21,0.66,1.01,3*09
$GNGSA,A,3,14,10,04,33,27,13,28,08,,,,,1.21,0.66,1.01,4*03
$GPGSV,3,1,11,02,16,275,35,03,30,045,42,04,25,090,44,06,54,300,37,1*68
$GPGSV,3,2,11,09,25,126,37,11,20,270,09,12,15,319,34,14,23,186,26,1*60
$GPGSV,3,3,11,17,74,094,43,19,74,346,43,50,47,179,30,1*5C
$GPGSV,2,1,07,03,30,045,35,04,25,090,31,06,54,300,32,09,25,126,37,6*62
$GPGSV,2,2,07,11,20,270,22,12,15,319,22,17,74,094,31,6*55
$GPGSV,1,1,02,01,06,073,,20,09,223,,0*6C
$GLGSV,2,1,06,70,27,038,32,71,55,100,43,72,30,165,27,77,26,286,26,1*78
$GLGSV,2,2,06,85,23,083,39,87,28,310,36,1*71
$GLGSV,1,1,04,71,55,100,29,72,30,165,18,77,26,286,29,85,23,083,33,3*7B
$GLGSV,1,1,03,76,19,234,,78,06,337,,86,53,032,,0*41
$GAGSV,2,1,07,01,24,308,25,03,25,064,33,08,33,122,37,13,65,348,41,2*79
$GBGSV,2,1,07,01,43,152,30,04,35,132,31,07,64,217,24,08,53,262,29,3*77
$GBGSV,2,2,07,10,64,249,33,13,44,255,17,14,23,044,42,3*4B
$GNRMC,044543.00,A,3726.8497019,N,12639.2410833,E,0.015,,210622,,,R,V*0E
$GNVTG,,T,,M,0.015,N,0.028,K,D*36
$GNGNS,044543.00,3726.8497019,N,12639.2410833,E,RRRR,29,0.66,13.469,17.839,1.0,4095,V*0B
$GNGGA,044543.00,3726.8497019,N,12639.2410833,E,4,12,0.66,13.469,M,17.839,M,1.0,4095*56
$GNGSA,A,3,02,19,14,06,17,03,12,09,04,,,,1.21,0.66,1.01,1*01
$GNGSA,A,3,77,71,85,70,87,72,,,,,,,1.21,0.66,1.01,2*06
$GNGSA,A,3,13,26,15,08,03,01,,,,,,,1.21,0.66,1.01,3*09
$GNGSA,A,3,14,10,04,33,27,13,28,08,,,,,1.21,0.66,1.01,4*03
$GPGSV,3,1,11,02,16,275,35,03,30,045,43,04,25,090,44,06,54,300,38,1*66
$GPGSV,3,2,11,09,25,126,36,11,20,270,10,12,15,319,34,14,23,186,26,1*69
$GPGSV,3,3,11,17,74,094,43,19,74,346,43,50,47,179,29,1*54
$GPGSV,2,1,07,03,30,045,35,04,25,090,30,06,54,300,32,09,25,126,36,6*62
$GPGSV,2,2,07,11,20,270,21,12,15,319,22,17,74,094,31,6*56
$GPGSV,1,1,02,01,06,073,,20,09,223,,0*6C
$GLGSV,2,1,06,70,27,038,32,71,55,100,43,72,30,165,28,77,26,286,27,1*76
$GLGSV,2,2,06,85,23,083,38,87,28,310,36,1*70
$GLGSV,1,1,04,71,55,100,27,72,30,165,15,77,26,286,29,85,23,083,33,3*78
$GLGSV,1,1,03,76,19,234,,78,06,337,,86,53,032,,0*41
$GAGSV,2,1,07,01,24,308,23,03,25,064,32,08,33,122,34,13,65,348,40,2*7C
$GAGSV,2,2,07,15,34,066,34,21,42,253,19,26,26,282,29,2*4F
$GAGSV,2,1,08,01,24,308,35,03,25,064,46,08,33,122,42,13,65,348,46,7*75
$GAGSV,2,2,08,15,34,066,40,18,27,121,43,21,42,253,25,26,26,282,37,7*7F
$GAGSV,1,1,02,07,10,171,,27,22,195,,0*7F
$GBGSV,3,1,10,01,43,152,28,04,35,132,32,07,64,217,25,08,53,262,32,1*73
$GBGSV,3,2,10,10,64,249,31,13,44,255,26,14,23,044,41,27,55,321,41,1*7D
$GBGSV,3,3,10,28,58,077,38,33,46,064,46,1*79
$GBGSV,2,1,07,01,43,152,29,04,35,132,31,07,64,217,22,08,53,262,29,3*79
$GBGSV,2,2,07,10,64,249,33,13,44,255,19,14,23,044,40,3*47
$GBGSV,2,1,06,02,28,236,,03,44,206,,05,08,256,,15,30,188,,0*70
$GBGSV,2,2,06,15,30,188,,30,08,298,,0*7F
$GNRMC,044544.00,A,3726.8497043,N,12639.2410828,E,0.006,,210622,,,R,V*0E
$GNVTG,,T,,M,0.006,N,0.012,K,D*3D
$GNGNS,044544.00,3726.8497043,N,12639.2410828,E,RRRR,29,0.66,13.465,17.839,2.0,4095,V*06
$GNGGA,044544.00,3726.8497043,N,12639.2410828,E,4,12,0.66,13.465,M,17.839,M,2.0,4095*5B
$GNGSA,A,3,02,19,14,06,17,03,12,09,04,,,,1.21,0.66,1.01,1*01
$GNGSA,A,3,77,71,85,70,87,72,,,,,,,1.21,0.66,1.01,2*06
$GNGSA,A,3,13,26,15,08,03,01,,,,,,,1.21,0.66,1.01,3*09
$GNGSA,A,3,14,10,04,33,27,13,28,08,,,,,1.21,0.66,1.01,4*03
$GPGSV,3,1,11,02,16,275,34,03,30,045,41,04,25,090,44,06,54,300,38,1*65
$GPGSV,3,2,11,09,25,126,35,11,20,270,09,12,15,319,34,14,23,186,25,1*61
$GPGSV,3,3,11,17,74,094,42,19,74,346,43,50,47,179,29,1*55
$GPGSV,2,1,07,03,30,045,35,04,25,090,28,06,54,300,33,09,25,126,36,6*6A
$GPGSV,2,2,07,11,20,270,21,12,15,319,22,17,74,094,31,6*56
$GPGSV,1,1,02,01,06,073,,20,09,223,,0*6C
$GLGSV,2,1,06,70,27,038,32,71,55,100,42,72,30,165,28,77,26,286,26,1*76
$GLGSV,2,2,06,85,23,083,38,87,28,310,37,1*71
$GLGSV,1,1,04,71,55,100,26,72,30,165,07,77,26,286,29,85,23,083,33,3*7A
$GLGSV,1,1,03,76,19,234,,78,06,337,,86,53,032,,0*41
$GAGSV,2,1,07,01,24,308,21,03,25,064,32,08,33,122,35,13,65,348,41,2*7E
$GAGSV,2,2,07,15,34,066,35,21,42,253,20,26,26,282,29,2*44
$GAGSV,2,1,08,01,24,308,35,03,25,064,46,08,33,122,41,13,65,348,45,7*75
$GAGSV,2,2,08,15,34,066,40,18,27,121,43,21,42,253,25,26,26,282,37,7*7F
$GAGSV,1,1,02,07,10,171,,27,22,195,,0*7F
$GBGSV,3,1,10,01,43,152,27,04,35,132,32,07,64,217,25,08,53,262,32,1*7C
$GBGSV,3,2,10,10,64,249,31,13,44,255,26,14,23,044,40,27,55,321,41,1*7C
$GBGSV,3,3,10,28,58,077,40,33,46,064,47,1*77
$GBGSV,2,1,07,01,43,152,29,04,35,132,30,07,64,217,21,08,53,262,28,3*7A
$GBGSV,2,2,07,10,64,249,32,13,44,255,19,14,23,044,41,3*47
$GBGSV,2,1,06,02,28,236,,03,44,206,,05,08,256,,15,30,188,,0*70
$GBGSV,2,2,06,15,30,188,,30,08,298,,0*7F
$GNRMC,044545.00,A,3726.8497112,N,12639.2410841,E,0.017,,210622,,,R,V*05
$GNVTG,,T,,M,0.017,N,0.031,K,D*3C
$GNGNS,044545.00,3726.8497112,N,12639.2410841,E,RRRR,29,0.65,13.477,17.839,3.0,4095,V*0C
$GNGGA,044545.00,3726.8497112,N,12639.2410841,E,4,12,0.65,13.477,M,17.839,M,3.0,4095*51
$GNGSA,A,3,02,19,06,17,03,12,09,04,,,,,1.17,0.65,0.98,1*03
$GNGSA,A,3,77,71,85,70,87,72,,,,,,,1.17,0.65,0.98,2*01
$GNGSA,A,3,13,26,15,08,03,01,,,,,,,1.17,0.65,0.98,3*0E
$GNGSA,A,3,14,10,04,33,07,27,13,28,08,,,,1.17,0.65,0.98,4*03
$GPGSV,3,1,11,02,16,275,34,03,30,045,40,04,25,090,44,06,54,300,37,1*6B
$GPGSV,3,2,11,09,25,126,36,11,20,270,14,12,15,319,34,14,23,186,24,1*6F
$GPGSV,3,3,11,17,74,094,42,19,74,346,43,50,47,179,28,1*54
$GPGSV,2,1,07,03,30,045,35,04,25,090,28,06,54,300,32,09,25,126,36,6*6B
$GPGSV,2,2,07,11,20,270,22,12,15,319,22,17,74,094,31,6*55
$GPGSV,1,1,02,01,06,073,,20,09,223,,0*6C
$GLGSV,2,1,06,70,27,038,32,71,55,100,42,72,30,165,27,77,26,286,26,1*79
$GLGSV,2,2,06,85,23,083,40,87,28,310,37,1*7E
$GLGSV,1,1,04,71,55,100,24,72,30,165,09,77,26,286,29,85,23,083,32,3*77
$GLGSV,1,1,03,76,19,234,,78,06,337,,86,53,032,,0*41
$GAGSV,2,1,07,01,24,308,20,03,25,064,31,08,33,122,35,13,65,348,40,2*7D
$GAGSV,2,2,07,15,34,066,34,21,42,253,19,26,26,282,27,2*41
$GAGSV,2,1,08,01,24,308,38,03,25,064,47,08,33,122,42,13,65,348,44,7*7B
$GAGSV,2,2,08,15,34,066,40,18,27,121,43,21,42,253,25,26,26,282,37,7*7F
$GAGSV,1,1,02,07,10,171,,27,22,195,,0*7F
$GBGSV,3,1,10,01,43,152,27,04,35,132,32,07,64,217,26,08,53,262,32,1*7F
$GBGSV,3,2,10,10,64,249,32,13,44,255,25,14,23,044,41,27,55,321,41,1*7D
$GBGSV,3,3,10,28,58,077,40,33,46,064,46,1*76
$GBGSV,2,1,07,01,43,152,30,04,35,132,30,07,64,217,21,08,53,262,28,3*72
$GBGSV,2,2,07,10,64,249,32,13,44,255,19,14,23,044,41,3*47
$GBGSV,2,1,06,02,28,236,,03,44,206,,05,08,256,,15,30,188,,0*70
$GBGSV,2,2,06,15,30,188,,30,08,298,,0*7F
$GNRMC,044546.00,A,3726.8497108,N,12639.2410833,E,0.012,,210622,,,R,V*0D
$GNVTG,,T,,M,0.012,N,0.022,K,D*3B
$GNGNS,044546.00,3726.8497108,N,12639.2410833,E,RRRR,29,0.65,13.471,17.839,2.0,4095,V*06
$GNGGA,044546.00,3726.8497108,N,12639.2410833,E,4,12,0.65,13.471,M,17.839,M,2.0,4095*5B
$GNGSA,A,3,02,19,06,17,03,12,09,04,,,,,1.17,0.65,0.98,1*03
$GNGSA,A,3,77,71,85,70,87,72,,,,,,,1.17,0.65,0.98,2*01
$GNGSA,A,3,14,10,04,33,07,27,13,28,08,,,,1.17,0.65,0.98,4*03
$GPGSV,3,1,11,02,16,275,34,03,30,045,40,04,25,090,44,06,54,300,36,1*6A
$GPGSV,3,2,11,09,25,126,36,11,20,270,12,12,15,319,34,14,23,186,23,1*6E
$GPGSV,3,3,11,17,74,094,43,19,74,346,43,50,47,179,28,1*55
$GPGSV,2,1,07,03,30,045,36,04,25,090,27,06,54,300,32,09,25,126,36,6*67
$GPGSV,2,2,07,11,20,270,23,12,15,319,23,17,74,094,31,6*55
$GPGSV,1,1,02,01,06,073,,20,09,223,,0*6C
$GLGSV,2,1,06,70,27,038,31,71,55,100,43,72,30,165,25,77,26,286,26,1*79
$GLGSV,2,2,06,85,23,083,39,87,28,310,37,1*70
$GLGSV,1,1,04,71,55,100,24,72,30,165,12,77,26,286,29,85,23,083,31,3*7E
$GLGSV,1,1,03,76,19,234,,78,06,337,,86,53,032,,0*41
$GAGSV,2,1,07,01,24,308,23,03,25,064,30,08,33,122,36,13,65,348,41,2*7D
$GAGSV,2,2,07,15,34,066,34,21,42,253,21,26,26,282,27,2*4A
$GAGSV,2,1,08,01,24,308,37,03,25,064,46,08,33,122,42,13,65,348,45,7*74
$GAGSV,2,2,08,15,34,066,40,18,27,121,44,21,42,253,25,26,26,282,38,7*77
$GAGSV,1,1,0$GNRMC,044547.00,A,3726.8497119,N,12639.2410863,E,0.014,,210622,,,R,V*0F
$GNVTG,,T,,M,0.014,N,0.026,K,D*39
$GNGNS,044547.00,3726.8497119,N,12639.2410863,E,RRRR,29,0.67,13.466,17.839,2.0,4095,V*06
$GNGGA,044547.00,3726.8497119,N,12639.2410863,E,4,12,0.67,13.466,M,17.839,M,2.0,4095*5B
$GNGSA,A,3,02,19,06,17,03,12,09,04,,,,,1.20,0.67,0.99,1*04
$GNGSA,A,3,77,71,85,70,87,,,,,,,,1.20,0.67,0.99,2*03
$GNGSA,A,3,13,26,15,08,03,01,,,,,,,1.20,0.67,0.99,3*09
$GNGSA,A,3,14,10,04,33,07,27,13,28,08,01,,,1.20,0.67,0.99,4*05
$GPGSV,3,1,11,02,16,275,34,03,30,045,42,04,25,090,44,06,54,300,36,1*68
$GPGSV,3,2,11,09,25,126,36,11,20,270,14,12,15,319,33,14,23,186,23,1*6F
$GPGSV,3,3,11,17,74,094,42,19,74,346,43,50,47,179,28,1*54
$GPGSV,2,1,07,03,30,045,36,04,25,090,26,06,54,300,33,09,25,126,36,6*67
$GPGSV,2,2,07,11,20,270,23,12,15,319,22,17,74,094,30,6*55
$GPGSV,1,1,02,01,06,073,,20,09,223,,0*6C
$GLGSV,2,1,06,70,27,038,31,71,55,100,43,72,30,165,26,77,26,286,26,1*7A
$GLGSV,2,2,06,85,23,083,38,87,28,310,37,1*71
$GLGSV,1,1,04,71,55,100,26,72,30,165,15,77,26,286,29,85,23,083,31,3*7B
$GLGSV,1,1,03,76,19,234,,78,06,337,,86,53,032,,0*41
$GAGSV,2,1,07,01,24,308,22,03,25,064,31,08,33,122,36,13,65,348,40,2*7C
$GAGSV,2,2,07,15,34,066,34,21,42,253,19,26,26,282,28,2*4E
$GAGSV,2,1,08,01,24,308,36,03,25,064,46,08,33,122,42,13,65,348,45,7*75
$GAGSV,2,2,08,15,34,066,40,18,27,121,43,21,42,253,24,26,26,282,38,7*71
$GAGSV,1,1,02,07,10,171,,27,22,195,,0*7F
$GBGSV,3,1,10,01,43,152,28,04,35,132,32,07,64,217,27,08,53,262,32,1*71
$GBGSV,3,2,10,10,64,249,31,13,44,255,25,14,23,044,40,27,55,321,40,1*7E
$GBGSV,3,3,10,28,58,077,40,33,46,064,47,1*77
$GBGSV,2,1,07,01,43,152,29,04,35,132,30,07,64,217,23,08,53,262,28,3*78
$GBGSV,2,2,07,10,64,249,33,13,44,255,20,14,23,044,40,3*4D
$GBGSV,2,1,06,02,28,236,,03,44,206,,05,08,256,,15,30,188,,0*70
$GBGSV,2,2,06,15,30,188,,30,08,298,,0*7F
$GNRMC,044548.00,A,3726.8497159,N,12639.2410869,E,0.010,,210622,,,R,V*0A
$GNVTG,,T,,M,0.010,N,0.019,K,D*31
$GNGNS,044548.00,3726.8497159,N,12639.2410869,E,RRRR,29,0.67,13.463,17.839,2.0,4095,V*02
$GNGSA,A,3,02,19,06,17,03,12,09,04,,,,,1.20,0.67,0.99,1*04
$GNGSA,A,3,77,71,85,70,87,,,,,,,,1.20,0.67,0.99,2*03
$GNGSA,A,3,13,26,15,08,03,01,,,,,,,1.20,0.67,0.99,3*09
$GNGSA,A,3,14,10,04,33,07,27,13,28,08,01,,,1.20,0.67,0.99,4*05
$GPGSV,3,1,11,02,16,275,34,03,30,045,43,04,25,090,45,06,54,300,37,1*69
$GPGSV,3,2,11,09,25,126,36,11,20,270,16,12,15,319,32,14,23,186,23,1*6C
$GPGSV,3,3,11,17,74,094,42,19,74,346,42,50,47,179,28,1*55
$GAGSV,2,1,06,01,24,308,20,03,25,064,32,08,33,122,35,13,65,348,39,2*71
$GAGSV,2,2,06,15,34,066,33,26,26,282,27,2*7E
$GAGSV,2,1,08,01,24,308,35,03,25,064,46,08,33,122,41,13,65,348,45,7*75
$GAGSV,1,1,02,07,10,171,,27,22,195,,0*7F
$GBGSV,3,1,10,01,43,152,28,04,35,132,32,07,64,217,27,08,53,262,31,1*72
$GBGSV,3,2,10,10,64,249,31,13,44,255,25,14,23,044,40,27,55,321,39,1*70
$GBGSV,3,3,10,28,58,077,39,33,46,064,47,1*79
$GNRMC,044549.00,A,3726.8497100,N,12639.2410884,E,0.045,,210622,,,R,V*04
$GNVTG,,T,,M,0.045,N,0.083,K,D*32
$GNGNS,044549.00,3726.8497100,N,12639.2410884,E,RRRR,29,0.64,13.471,17.839,2.0,4095,V*0C
$GNGGA,044549.00,3726.8497100,N,12639.2410884,E,4,12,0.64,13.471,M,17.839,M,2.0,4095*51
$GNGSA,A,3,02,19,06,17,03,12,09,04,,,,,1.17,0.64,0.98,1*02
$GNGSA,A,3,77,71,85,72,70,87,,,,,,,1.17,0.64,0.98,2*00
$GNGSA,A,3,13,26,15,08,03,01,,,,,,,1.17,0.64,0.98,3*0F
$GNGSA,A,3,14,10,33,07,27,13,28,08,01,,,,1.17,0.64,0.98,4*07
$GPGSV,3,1,11,02,16,275,31,03,30,045,43,04,25,090,44,06,54,300,39,1*63
$GPGSV,3,2,11,09,25,126,34,11,20,270,16,12,15,319,32,14,23,186,22,1*6F
$GPGSV,3,3,11,17,74,094,39,19,74,346,42,50,47,179,27,1*56
$GPGSV,1,1,01,14,23,186,14,5*5F
$GPGSV,2,1,07,03,30,045,38,04,25,090,27,06,54,300,33,09,25,126,32,6*6C
$GPGSV,2,2,07,11,20,270,21,12,15,319,23,17,74,094,34,6*52
$GPGSV,1,1,02,01,06,073,,20,09,223,,0*6C
$GLGSV,2,1,06,70,27,038,32,71,55,100,44,72,30,165,27,77,26,286,26,1*7F
$GLGSV,2,2,06,85,23,083,35,87,28,310,35,1*7E
$GLGSV,1,1,04,71,55,100,26,72,30,165,12,77,26,286,29,85,23,083,32,3*7F
$GLGSV,1,1,03,76,19,234,,78,06,337,,86,53,032,,0*41
$GAGSV,2,1,06,01,24,308,21,03,25,064,36,08,33,122,34,13,65,348,42,2*79
$GAGSV,2,2,06,15,34,066,35,26,26,282,29,2*76
$GAGSV,2,1,08,01,24,308,35,03,25,064,46,08,33,122,40,13,65,348,47,7*76
$GAGSV,2,2,08,15,34,066,42,18,27,121,43,21,42,253,23,26,26,282,37,7*7B
$GAGSV,1,1,02,07,10,171,,27,22,195,,0*7F
$GBGSV,3,1,10,01,43,152,28,04,35,132,32,07,64,217,26,08,53,262,31,1*73
$GBGSV,3,2,10,10,64,249,29,13,44,255,24,14,23,044,38,27,55,321,39,1*77
$GBGSV,3,3,10,28,58,077,41,33,46,064,46,1*77
$GBGSV,2,1,07,01,43,152,29,04,35,132,29,07,64,217,24,08,53,262,28,3*77
$GBGSV,2,2,07,10,64,249,31,13,44,255,21,14,23,044,37,3*4E
$GBGSV,2,1,06,02,28,236,,03,44,206,,05,08,256,,15,30,188,,0*70
$GBGSV,2,2,06,15,30,188,,30,08,298,,0*7F
$GNRMC,044550.00,A,3726.8497212,N,12639.2410822,E,0.041,,210622,,,R,V*04
$GNVTG,,T,,M,0.041,N,0.075,K,D*3F
$GNGNS,044550.00,3726.8497212,N,12639.2410822,E,RRRR,29,0.67,13.482,17.839,2.0,4095,V*07
$GNGGA,044550.00,3726.8497212,N,12639.2410822,E,4,12,0.67,13.482,M,17.839,M,2.0,4095*5A
$GNGSA,A,3,02,19,06,17,03,12,09,04,,,,,1.20,0.67,0.99,1*04
$GNGSA,A,3,77,71,85,70,87,,,,,,,,1.20,0.67,0.99,2*03
$GNGSA,A,3,13,26,15,08,03,01,,,,,,,1.20,0.67,0.99,3*09
$GNGSA,A,3,14,10,04,33,07,27,13,28,08,01,,,1.20,0.67,0.99,4*05
$GPGSV,3,1,11,02,16,275,36,03,30,045,42,04,25,090,41,06,54,300,32,1*6B
$GPGSV,3,2,11,09,25,126,38,11,20,270,17,12,15,319,32,14,23,186,21,1*61
$GPGSV,3,3,11,17,74,094,39,19,74,346,42,50,47,179,27,1*56
$GPGSV,2,1,08,03,30,045,37,04,25,090,28,06,54,300,32,09,25,126,33,6*63
$GPGSV,2,2,08,11,20,270,18,12,15,319,23,14,23,186,14,17,74,094,35,6*68
$GPGSV,1,1,02,01,06,073,,20,09,223,,0*6C
$GLGSV,2,1,06,70,27,038,30,71,55,100,45,72,30,165,24,77,26,286,25,1*7C
$GLGSV,2,2,06,85,23,083,41,87,28,310,38,1*70
$GLGSV,1,1,04,71,55,100,27,72,30,165,07,77,26,286,30,85,23,083,32,3*72
$GLGSV,1,1,03,76,19,234,,78,06,337,,86,53,032,,0*41
$GAGSV,2,1,06,01,24,308,20,03,25,064,27,08,33,122,32,13,65,348,43,2*7F
$GAGSV,2,2,06,15,34,066,27,26,26,282,27,2*7B
$GAGSV,2,1,08,01,24,308,37,03,25,064,44,08,33,122,40,13,65,348,43,7*72
$GAGSV,2,2,08,15,34,066,33,18,27,121,43,21,42,253,23,26,26,282,38,7*72
$GAGSV,1,1,02,07,10,171,,27,22,195,,0*7F
$GBGSV,3,1,10,01,43,152,28,04,35,132,29,07,64,217,25,08,53,262,32,1*79
$GBGSV,3,2,10,10,64,249,34,13,44,255,27,14,23,044,40,27,55,321,40,1*79
$GBGSV,3,3,10,28,58,077,41,33,46,064,46,1*77
$GBGSV,2,1,07,01,43,152,29,04,35,132,29,07,64,217,25,08,53,262,33,3*7C
$GBGSV,2,2,07,10,64,249,32,13,44,255,19,14,23,044,40,3*46
$GBGSV,2,1,06,02,28,236,,03,44,206,,05,08,256,,15,30,188,,0*70
$GNRMC,044551.00,A,3726.8497167,N,12639.2410863,E,0.014,,210622,,,R,V*01
$GNVTG,,T,,M,0.014,N,0.025,K,D*3A
$GNGNS,044551.00,3726.8497167,N,12639.2410863,E,RRRR,29,0.67,13.485,17.839,2.0,4095,V*05
$GNGGA,044551.00,3726.8497167,N,12639.2410863,E,4,12,0.67,13.485,M,17.839,M,2.0,4095*58
$GNGSA,A,3,02,19,06,17,03,12,09,04,,,,,1.20,0.67,0.99,1*04
$GNGSA,A,3,77,71,85,70,87,,,,,,,,1.20,0.67,0.99,2*03
$GNGSA,A,3,13,26,15,08,03,01,,,,,,,1.20,0.67,0.99,3*09
$GNGSA,A,3,14,10,04,33,07,27,13,28,08,01,,,1.20,0.67,0.99,4*05
$GPGSV,3,1,11,02,16,275,37,03,30,045,41,04,25,090,42,06,54,300,36,1*6E
$GPGSV,3,2,11,09,25,126,38,11,20,270,19,12,15,319,36,14,23,186,18,1*61
$GPGSV,3,3,11,17,74,094,37,19,74,346,43,50,47,179,27,1*59
$GPGSV,2,1,08,03,30,045,38,04,25,090,28,06,54,300,33,09,25,126,34,6*6A
$GPGSV,2,2,08,11,20,270,20,12,15,319,24,14,23,186,15,17,74,094,36,6*66
$GPGSV,1,1,02,01,06,073,,20,09,223,,0*6C
$GLGSV,2,1,06,70,27,038,30,71,55,100,45,72,30,165,23,77,26,286,25,1*7B
$GLGSV,2,2,06,85,23,083,43,87,28,310,38,1*72
$GLGSV,1,1,04,71,55,100,28,72,30,165,11,77,26,286,30,85,23,083,36,3*7E
$GLGSV,1,1,03,76,19,234,,78,06,337,,86,53,032,,0*41
$GAGSV,2,1,06,01,24,308,31,03,25,064,32,08,33,122,39,13,65,348,42,2*71
$GAGSV,2,2,06,15,34,066,31,26,26,282,29,2*72
$GAGSV,2,1,08,01,24,308,39,03,25,064,43,08,33,122,43,13,65,348,41,7*7A
$GAGSV,2,2,08,15,34,066,33,18,27,121,43,21,42,253,22,26,26,282,38,7*73
$GAGSV,1,1,02,07,10,171,,27,22,195,,0*7F
$GBGSV,3,1,10,01,43,152,28,04,35,132,31,07,64,217,25,08,53,262,34,1*76
$GBGSV,3,2,10,10,64,249,34,13,44,255,27,14,23,044,37,27,55,321,41,1*78
$GBGSV,3,3,10,28,58,077,40,33,46,064,48,1*78
$GBGSV,2,1,07,01,43,152,32,04,35,132,33,07,64,217,25,08,53,262,33,3*7D
$GBGSV,2,2,07,10,64,249,34,13,44,255,17,14,23,044,31,3*48
$GBGSV,2,1,06,02,28,236,,03,44,206,,05,08,256,,15,30,188,,0*70
$GBGSV,2,2,06,15,30,188,,30,08,298,,0*7F
$GNRMC,044552.00,A,3726.8497133,N,12639.2410881,E,0.007,,210622,,,R,V*0D
$GNVTG,,T,,M,0.007,N,0.012,K,D*3C
$GNGNS,044552.00,3726.8497133,N,12639.2410881,E,RRRR,29,0.67,13.471,17.839,2.0,4095,V*00
$GNGGA,044552.00,3726.8497133,N,12639.2410881,E,4,12,0.67,13.471,M,17.839,M,2.0,4095*5D
$GNGSA,A,3,02,19,06,17,03,12,09,04,,,,,1.20,0.67,0.99,1*04
$GNGSA,A,3,77,71,85,70,87,,,,,,,,1.20,0.67,0.99,2*03
$GNGSA,A,3,13,26,15,08,03,01,,,,,,,1.20,0.67,0.99,3*09
$GNGSA,A,3,14,10,04,33,07,27,13,28,08,01,,,1.20,0.67,0.99,4*05
$GPGSV,3,1,11,02,16,275,37,03,30,045,43,04,25,090,44,06,54,300,25,1*68
$GPGSV,3,2,11,09,25,126,38,11,20,270,23,12,15,319,31,14,23,186,18,1*6F
$GPGSV,3,3,11,17,74,094,39,19,74,346,41,50,47,179,27,1*55
$GPGSV,2,1,08,03,30,045,39,04,25,090,29,06,54,300,27,09,25,126,33,6*68
$GPGSV,2,2,08,11,20,270,21,12,15,319,25,14,23,186,14,17,74,094,36,6*67
$GPGSV,1,1,02,01,06,073,,20,09,223,,0*6C
$GNRMC,044553.00,A,3726.8497110,N,12639.2410925,E,0.029,,210622,,,R,V*0E
$GNVTG,,T,,M,0.029,N,0.054,K,D*32
$GNGNS,044553.00,3726.8497110,N,12639.2410925,E,RRRR,29,0.67,13.466,17.839,1.0,4095,V*0A
$GNGGA,044553.00,3726.8497110,N,12639.2410925,E,4,12,0.67,13.466,M,17.839,M,1.0,4095*57
$GNGSA,A,3,02,19,06,17,03,12,09,04,,,,,1.20,0.67,0.99,1*04
$GNGSA,A,3,77,71,85,70,87,,,,,,,,1.20,0.67,0.99,2*03
$GNGSA,A,3,13,26,15,08,03,01,,,,,,,1.20,0.67,0.99,3*09
$GNGSA,A,3,14,10,04,33,07,27,13,28,08,01,,,1.20,0.67,0.99,4*05
$GPGSV,3,1,11,02,16,275,37,03,30,045,43,04,25,090,45,06,54,300,25,1*69
$GPGSV,3,2,11,09,25,126,39,11,20,270,24,12,15,319,30,14,23,186,20,1*63
$GPGSV,3,3,11,17,74,094,39,19,74,346,42,50,47,179,27,1*56
$GPGSV,2,1,08,03,30,045,38,04,25,090,30,06,54,300,24,09,25,126,32,6*63
$GPGSV,2,2,08,11,20,270,21,12,15,319,27,14,23,186,12,17,74,094,35,6*60
$GPGSV,1,1,02,01,06,073,,20,09,223,,0*6C
$GLGSV,2,1,06,70,27,038,30,71,55,100,44,72,30,165,21,77,26,286,25,1*78
$GLGSV,2,2,06,85,23,083,43,87,28,310,36,1*7C
$GLGSV,1,1,04,71,55,100,32,72,30,165,12,77,26,286,30,85,23,083,36,3*76
$GLGSV,1,1,03,76,19,234,,78,06,337,,86,53,032,,0*41
$GAGSV,2,1,06,01,24,308,26,03,25,064,33,08,33,122,37,13,65,348,40,2*7A
$GAGSV,2,2,06,15,34,066,30,26,26,282,29,2*73
$GAGSV,2,1,08,01,24,308,34,03,25,064,45,08,33,122,43,13,65,348,39,7*7E
$GAGSV,2,2,08,15,34,066,42,18,27,121,43,21,42,253,22,26,26,282,37,7*7A
$GAGSV,1,1,02,07,10,171,,27,22,195,,0*7F
$GBGSV,3,1,10,01,43,152,30,04,35,132,33,07,63,216,26,08,53,263,34,1*79
$GBGSV,3,2,10,10,64,249,33,13,44,255,30,14,23,044,37,27,55,321,33,1*7C
$GBGSV,3,3,10,28,58,077,39,33,46,064,49,1*77
$GBGSV,2,1,07,01,43,152,32,04,35,132,32,07,63,216,26,08,53,263,30,3*7B
$GBGSV,2,2,07,10,64,249,32,13,44,255,18,14,23,044,35,3*45
$GBGSV,2,1,06,02,28,236,,03,44,206,,05,08,256,,15,30,188,,0*70
$GBGSV,2,2,06,15,30,188,,30,08,298,,0*7F
$GNGNS,044554.00,3726.8497127,N,12639.2410899,E,RRRR,30,0.66,13.459,17.839,2.0,4095,V*09
$GPGSV,3,1,11,02,16,275,36,03,30,045,43,04,25,090,46,06,54,300,31,1*6E
$GPGSV,3,2,11,09,25,126,39,11,20,270,22,12,15,319,23,14,23,186,20,1*67
$GPGSV,3,3,11,17,74,094,38,19,74,346,41,50,47,179,27,1*54
$GPGSV,2,1,08,03,30,045,39,04,25,090,30,06,54,300,22,09,25,126,32,6*64
$GPGSV,2,2,08,11,20,270,22,12,15,319,28,14,23,186,11,17,74,094,35,6*6F
$GPGSV,1,1,02,01,06,073,,20,09,223,,0*6C
$GLGSV,2,1,06,70,27,038,30,71,55,100,45,72,30,165,23,77,26,286,24,1*7A
$GLGSV,2,2,06,85,23,083,43,87,28,310,33,1*79
$GLGSV,1,1,04,71,55,100,33,72,30,165,12,77,26,286,30,85,23,083,35,3*74
$GLGSV,1,1,03,76,19,234,,78,06,337,,86,53,032,,0*41
$GAGSV,2,1,07,01,24,308,31,03,25,064,34,08,33,122,38,13,65,348,38,2*7A
$GAGSV,2,2,07,15,34,066,31,21,42,253,25,26,26,282,30,2*4D
$GAGSV,2,1,08,01,24,308,35,03,25,064,45,08,33,122,44,13,65,348,39,7*78
$GAGSV,2,2,08,15,34,066,40,18,27,121,43,21,42,253,24,26,26,282,36,7*7F
$GAGSV,1,1,02,07,10,171,,27,22,195,,0*7F
$GBGSV,3,1,10,01,43,152,30,04,35,132,33,07,63,216,24,08,53,263,33,1*7C
$GBGSV,3,2,10,10,64,249,32,13,44,255,31,14,23,044,38,27,55,321,34,1*74
$GBGSV,3,3,10,28,58,077,40,33,46,064,49,1*79
$GBGSV,2,1,07,01,43,152,32,04,35,132,31,07,63,216,25,08,53,263,28,3*72
$GBGSV,2,2,07,10,64,249,32,13,44,255,20,14,23,044,35,3*4E
$GBGSV,2,1,06,02,28,236,,03,44,206,,05,08,256,,15,30,188,,0*70
$GBGSV,2,2,06,15,30,188,,30,08,298,,0*7F
$GNRMC,044555.00,A,3726.8497203,N,12639.2410905,E,0.052,,210622,,,R,V*07
$GNVTG,,T,,M,0.052,N,0.096,K,D*30
$GNGNS,044555.00,3726.8497203,N,12639.2410905,E,RRRR,29,0.67,13.475,17.839,2.0,4095,V*0E
$GNGSA,A,3,02,19,06,17,03,12,09,04,,,,,1.20,0.67,0.99,1*04
$GNGSA,A,3,77,71,85,70,87,,,,,,,,1.20,0.67,0.99,2*03
$GNGSA,A,3,13,26,15,08,03,01,,,,,,,1.20,0.67,0.99,3*09
$GNGSA,A,3,14,10,04,33,07,27,13,28,08,01,,,1.20,0.67,0.99,4*05
$GPGSV,3,1,10,02,16,275,36,03,30,045,45,04,25,090,46,06,54,300,31,1*69
$GPGSV,3,2,10,09,25,126,41,11,20,270,19,12,15,319,23,14,23,186,23,1*62
$GPGSV,3,3,10,17,74,094,42,19,74,346,42,1*67
$GPGSV,2,1,08,03,30,045,40,04,25,090,37,06,54,300,19,09,25,126,32,6*65
$GPGSV,2,2,08,11,20,270,22,12,15,319,29,14,23,186,09,17,74,094,36,6*64
$GPGSV,1,1,03,01,06,073,,20,09,223,,50,47,179,,0*54
$GLGSV,2,1,06,70,27,038,30,71,55,100,46,72,30,165,24,77,26,286,24,1*7E
$GLGSV,2,2,06,85,23,083,42,87,28,310,37,1*7C
$GLGSV,1,1,04,71,55,100,34,72,30,165,08,77,26,286,31,85,23,083,35,3*79
$GLGSV,1,1,03,76,19,234,,78,06,337,,86,53,032,,0*41
$GAGSV,2,1,07,01,24,308,30,03,25,064,38,08,33,122,38,13,65,348,38,2*77$GAGSV,2,2,07,15,34,066,30,21,42,253,25,26,26,282,29,2*44
$GAGSV,2,1,08,01,24,308,34,03,25,064,46,08,33,122,45,13,65,348,40,7*75
$GAGSV,2,2,08,15,34,066,43,18,27,121,44,21,42,253,24,26,26,282,37,7*7A
$GAGSV,1,1,02,07,10,171,,27,22,195,,0*7F
$GBGSV,3,1,10,01,43,152,29,04,35,132,33,07,63,216,24,08,53,263,33,1*74
$GBGSV,3,2,10,10,64,248,32,13,44,255,31,14,23,044,34,27,55,321,37,1*7A
$GBGSV,3,3,10,28,58,077,45,33,46,064,49,1*7C
$GBGSV,2,1,07,01,43,152,32,04,35,132,32,07,63,216,26,08,53,263,29,3*73
$GBGSV,2,2,07,10,64,248,32,13,44,255,22,14,23,044,33,3*4B
$GBGSV,2,1,06,02,28,236,,03,44,206,,05,08,256,,15,30,188,,0*70
$GBGSV,2,2,06,15,30,188,,30,08,298,,0*7F
$GNRMC,044556.00,A,3726.8497288,N,12639.2410898,E,0.076,,210622,,,R,V*04
$GNVTG,,T,,M,0.076,N,0.141,K,D*3D
$GNGNS,044556.00,3726.8497288,N,12639.2410898,E,RRRR,29,0.67,13.483,17.839,2.0,4095,V*02
$GNGGA,044556.00,3726.8497288,N,12639.2410898,E,4,12,0.67,13.483,M,17.839,M,2.0,4095*5F
$GNGSA,A,3,02,19,06,17,03,12,09,04,,,,,1.20,0.67,0.99,1*04
$GNGSA,A,3,77,71,85,70,87,,,,,,,,1.20,0.67,0.99,2*03
$GNGSA,A,3,13,26,15,08,03,01,,,,,,,1.20,0.67,0.99,3*09
$GNGSA,A,3,14,10,04,33,07,27,13,28,08,01,,,1.20,0.67,0.99,4*05
$GPGSV,3,2,10,09,25,126,39,11,20,270,22,12,15,319,31,14,23,186,22,1*67
$GPGSV,3,3,10,17,74,094,44,19,74,346,42,1*61
$GPGSV,2,1,07,03,30,045,41,04,25,090,37,06,54,300,29,09,25,126,35,6*6F
$GPGSV,2,2,07,11,20,270,21,12,15,319,28,17,74,094,38,6*55
$GPGSV,1,1,03,01,06,073,,20,09,223,,50,47,179,,0*54
$GLGSV,2,1,06,70,27,038,30,71,55,100,47,72,30,165,26,77,26,286,25,1*7C
$GLGSV,2,2,06,85,23,083,41,87,28,310,35,1*7D
$GLGSV,1,1,04,71,55,100,36,72,30,165,12,77,26,286,31,85,23,083,35,3*70
$GLGSV,1,1,03,76,19,234,,78,06,337,,86,53,032,,0*41
$GAGSV,2,1,07,01,24,308,34,03,25,064,39,08,33,122,41,13,65,348,42,2*71
$GAGSV,2,2,07,15,34,066,34,21,42,253,25,26,26,282,30,2*48
$GAGSV,2,1,08,01,24,308,34,03,25,064,47,08,33,122,45,13,65,348,43,7*77
$GAGSV,2,2,08,15,34,066,43,18,27,121,44,21,42,253,23,26,26,282,37,7*7D
$GAGSV,1,1,02,07,10,171,,27,22,195,,0*7F
$GBGSV,3,1,10,01,43,152,30,04,35,132,32,07,63,216,25,08,53,263,35,1*7A
$GBGSV,3,2,10,10,6$GBGSV,3,3,10,28,58,077,44,33,46,064,46,1*72
$GBGSV,2,1,07,01,43,152,33,04,35,132,33,07,63,216,26,08,53,263,30,3*7B
$GBGSV,2,2,07,10,64,248,34,13,44,255,21,14,23,044,37,3*4A
$GBGSV,2,1,06,02,28,236,,03,44,206,,05,08,256,,15,30,188,,0*70
$GBGSV,2,2,06,15,30,188,,30,08,298,,0*7F
$GNRMC,044557.00,A,3726.8497311,N,12639.2410919,E,0.025,,210622,,,R,V*0A
$GNVTG,,T,,M,0.025,N,0.047,K,D*3C
$GNGNS,044557.00,3726.8497311,N,12639.2410919,E,RRRR,29,0.67,13.477,17.839,2.0,4095,V*01
$GNGGA,044557.00,3726.8497311,N,12639.2410919,E,4,12,0.67,13.477,M,17.839,M,2.0,4095*5C
$GNGSA,A,3,02,19,06,17,03,12,09,04,,,,,1.20,0.67,0.99,1*04
$GNGSA,A,3,77,71,85,70,87,,,,,,,,1.20,0.67,0.99,2*03
$GNGSA,A,3,13,26,15,08,03,01,,,,,,,1.20,0.67,0.99,3*09
$GNGSA,A,3,14,10,04,33,07,27,13,28,08,01,,,1.20,0.67,0.99,4*05
$GPGSV,3,1,10,02,16,275,34,03,30,045,43,04,25,090,46,06,54,300,40,1*6B
$GPGSV,3,2,10,09,25,126,36,11,20,270,21,12,15,319,25,14,23,186,22,1*6E
$GPGSV,3,3,10,17,74,094,45,19,74,346,46,1*64
$GPGSV,2,1,07,03,30,045,36,04,25,090,37,06,54,300,35,09,25,126,33,6*64
$GPGSV,2,2,07,11,20,270,22,12,15,319,26,17,74,094,40,6*57
$GPGSV,1,1,03,01,06,073,,20,09,223,,50,47,179,,0*54
$GLGSV,2,1,06,70,27,038,30,71,55,100,49,72,30,165,27,77,26,286,25,1*73
$GLGSV,2,2,06,85,23,083,42,87,28,310,36,1*7D
$GLGSV,1,1,04,71,55,100,35,72,30,165,11,77,26,286,30,85,23,083,35,3*71
$GLGSV,1,1,03,76,19,234,,78,06,337,,86,53,032,,0*41
$GAGSV,2,1,07,01,24,308,27,03,25,064,39,08,33,122,36,13,65,348,43,2*72
$GAGSV,2,2,07,15,34,066,36,21,42,253,26,26,26,282,25,2*4D
$GAGSV,2,1,08,01,24,308,34,03,25,064,45,08,33,122,41,13,65,348,46,7*74
$GAGSV,2,2,08,15,34,066,38,18,27,121,42,21,42,253,26,26,26,282,36,7*73
$GAGSV,1,1,02,07,10,171,,27,22,195,,0*7F
$GBGSV,3,1,10,01,43,152,29,04,35,132,30,07,63,216,26,08,53,263,35,1*73
$GBGSV,3,2,10,10,64,248,35,13,44,256,29,14,23,044,37,27,55,321,41,1*75
$GBGSV,3,3,10,28,58,077,46,33,46,064,47,1*71
$GBGSV,2,1,07,01,43,152,32,04,35,132,33,07,63,216,28,08,53,263,33,3*77
$GBGSV,2,2,07,10,64,248,37,13,44,256,22,14,23,044,33,3*4D
$GBGSV,2,1,06,02,28,236,,03,44,206,,05,08,256,,15,30,188,,0*70
$GBGSV,2,2,06,15,30,188,,30,08,298,,0*7F
$GNRMC,044558.00,A,3726.8497452,N,12639.2411750,E,0.013,,210622,,,R,V*02
$GNVTG,,T,,M,0.013,N,0.025,K,D*3D
$GNGNS,044558.00,3726.8497452,N,12639.2411750,E,RRRR,29,0.63,13.613,17.839,2.0,4095,V*08
$GNGSA,A,3,02,19,06,17,03,09,04,,,,,,1.16,0.63,0.98,1*07
$GNGSA,A,3,77,71,85,70,87,72,,,,,,,1.16,0.63,0.98,2*06
$GNGSA,A,3,21,13,26,15,08,03,01,,,,,,1.16,0.63,0.98,3*0A
$GNGSA,A,3,14,10,33,07,27,13,28,08,01,,,,1.16,0.63,0.98,4*01
$GPGSV,3,1,09,02,16,275,34,03,30,045,44,04,25,090,43,06,54,300,39,1*6F
$GPGSV,3,2,09,09,25,126,37,11,20,270,23,14,23,186,20,17,74,094,44,1*64
$GPGSV,3,3,09,19,74,346,44,1*57
$GPGSV,2,1,07,03,30,045,37,04,25,090,38,06,54,300,31,09,25,126,34,6*69
$GPGSV,2,2,07,11,20,270,22,12,15,319,25,17,74,094,38,6*5B
$GPGSV,1,1,03,01,06,073,,20,09,223,,50,47,179,,0*54
$GLGSV,2,1,06,70,27,038,31,71,55,100,48,72,30,165,27,77,26,286,24,1*72
$GLGSV,2,2,06,85,23,083,41,87,28,310,35,1*7D
$GLGSV,1,1,04,71,55,100,36,72,30,165,13,77,26,286,28,85,23,083,35,3*79
$GLGSV,1,1,03,76,19,234,,78,06,337,,86,53,032,,0*41
$GAGSV,2,1,07,01,24,308,26,03,25,064,42,08,33,122,39,13,65,348,43,2*70
$GAGSV,2,2,07,15,34,066,3$GAGSV,2,1,08,01,24,308,35,03,25,064,47,08,33,122,42,13,65,348,44,7*76
$GAGSV,2,2,08,15,34,066,38,18,27,121,43,21,42,253,25,26,26,282,36,7*71
$GAGSV,1,1,02,07,10,171,,27,22,195,,0*7F
$GBGSV,3,1,10,01,43,152,29,04,35,132,29,07,63,216,26,08,53,263,34,1*7A
$GBGSV,3,2,10,10,64,248,35,13,44,256,28,14,23,044,38,27,55,321,37,1*7A
$GBGSV,3,3,10,28,58,077,44,33,46,064,47,1*73
$GBGSV,2,1,07,01,43,152,32,04,35,132,32,07,63,216,29,08,53,263,33,3*77
$GBGSV,2,2,07,10,64,248,38,13,44,256,22,14,23,044,40,3*46
$GBGSV,2,1,06,02,28,236,,03,44,206,,05,08,256,,15,30,188,,0*70
$GBGSV,2,2,06,15,30,188,,30,08,298,,0*7F
$GNRMC,044559.00,A,3726.8497458,N,12639.2411694,E,0.067,,210622,,,R,V*03
$GNVTG,,T,,M,0.067,N,0.123,K,D*39
$GNGNS,044559.00,3726.8497458,N,12639.2411694,E,RRRR,29,0.63,13.604,17.839,2.0,4095,V*0C
$GNGGA,044559.00,3726.8497458,N,12639.2411694,E,4,12,0.63,13.604,M,17.839,M,2.0,4095*51
$GNGSA,A,3,02,19,06,17,03,09,04,,,,,,1.16,0.63,0.98,1*07
$GNGSA,A,3,77,71,85,70,87,72,,,,,,,1.16,0.63,0.98,2*06
$GNGSA,A,3,21,13,26,15,08,03,01,,,,,,1.16,0.63,0.98,3*0A
$GNGSA,A,3,14,10,33,07,27,13,28,08,01,,,,1.16,0.63,0.98,4*01
$GPGSV,3,1,10,02,16,275,35,03,30,045,44,04,25,090,44,06,54,300,38,1*60
$GPGSV,3,2,10,09,25,126,37,11,20,270,25,12,15,319,33,14,23,186,20,1*6E
$GPGSV,3,3,10,17,74,094,42,19,74,346,42,1*67
$GPGSV,2,1,07,03,30,045,38,04,25,090,37,06,54,300,31,09,25,126,34,6*69
$GPGSV,2,2,07,11,20,270,23,12,15,319,22,17,74,094,38,6*5D
$GPGSV,1,1,03,01,06,073,,20,09,223,,50,47,179,,0*54
$GLGSV,2,1,06,70,27,038,31,71,55,100,47,72,30,165,27,77,26,286,23,1*7A
$GLGSV,2,2,06,85,23,083,41,87,28,310,35,1*7D
$GLGSV,1,1,04,71,55,100,36,72,30,165,09,77,26,286,28,85,23,083,34,3*73
$GLGSV,1,1,03,76,19,234,,78,06,337,,86,53,032,,0*41
$GAGSV,2,1,07,01,24,308,28,03,25,064,41,08,33,122,40,13,65,348,44,2*74
$GAGSV,2,2,07,15,34,066,36,21,42,253,27,26,26,282,26,2*4F
$GAGSV,2,1,08,01,24,308,35,03,25,064,48,08,33,122,42,13,65,348,43,7*7E
$GAGSV,2,2,08,15,34,066,39,18,27,121,43,21,42,253,25,26,26,282,36,7*70
$GAGSV,1,1,02,07,10,171,,27,22,195,,0*7F
$GBGSV,3,1,10,01,43,152,29,04,35,132,29,07,63,216,25,08,53,263,34,1*79
$GBGSV,3,2,10,10,64,248,35,13,44,256,27,14,23,044,38,27,55,321,37,1*75
$GBGSV,3,3,10,28,58,077,42,33,46,064,47,1*75
$GBGSV,2,1,07,01,43,152,33,04,35,132,32,07,63,216,29,08,53,263,33,3*76
$GBGSV,2,2,07,10,64,248,37,13,44,256,21,14,23,044,39,3*44
$GBGSV,2,1,06,02,28,236,,03,44,206,,05,08,256,,15,31,188,,0*71
$GBGSV,2,2,06,15,31,188,,30,08,298,,0*7E
$GNRMC,044600.00,A,3726.8497434,N,12639.2411591,E,0.025,,210622,,,R,V*06
$GNVTG,,T,,M,0.025,N,0.046,K,D*3D
$GNGNS,044600.00,3726.8497434,N,12639.2411591,E,RRRR,29,0.63,13.596,17.839,2.0,4095,V*07
$GNGGA,044600.00,3726.8497434,N,12639.2411591,E,4,12,0.63,13.596,M,17.839,M,2.0,4095*5A
$GNGSA,A,3,02,19,06,17,03,12,09,04,,,,,1.12,0.63,0.92,1*0A
$GNGSA,A,3,77,71,85,70,87,72,,,,,,,1.12,0.63,0.92,2*08
$GNGSA,A,3,21,13,26,15,08,03,01,,,,,,1.12,0.63,0.92,3*04
$GNGSA,A,3,14,10,33,07,27,13,28,08,,,,,1.12,0.63,0.92,4*0E
$GNRMC,044601.00,A,3726.8497413,N,12639.2411542,E,0.010,,210622,,,R,V*0A
$GNVTG,,T,,M,0.010,N,0.019,K,D*31
$GNGNS,044601.00,3726.8497413,N,12639.2411542,E,RRRR,29,0.63,13.596,17.839,2.0,4095,V*0D
$GNGGA,044601.00,3726.8497413,N,12639.2411542,E,4,12,0.63,13.596,M,17.839,M,2.0,4095*50
$GNGSA,A,3,02,19,06,17,03,12,09,04,,,,,1.12,0.63,0.92,1*0A
$GNGSA,A,3,77,71,85,70,87,72,,,,,,,1.12,0.63,0.92,2*08
$GNGSA,A,3,21,13,26,15,08,03,01,,,,,,1.12,0.63,0.92,3*04
$GNGSA,A,3,14,10,33,07,27,13,28,08,,,,,1.12,0.63,0.92,4*0E
$GPGSV,3,1,10,02,16,275,36,03,30,045,45,04,25,090,44,06,54,300,38,1*62
$GPGSV,3,2,10,09,25,126,38,11,20,270,26,12,15,319,31,14,23,186,19,1*6A
$GPGSV,3,3,10,17,74,094,42,19,74,346,43,1*66
$GPGSV,2,1,07,03,30,045,39,04,25,090,37,06,54,300,30,09,25,126,34,6*69
$GPGSV,2,2,07,11,20,270,22,12,15,319,17,17,74,094,37,6*55
$GPGSV,1,1,03,01,06,073,,20,09,223,,50,47,179,,0*54
$GLGSV,2,1,06,70,27,038,31,71,55,100,47,72,30,165,29,77,26,286,22,1*75
$GLGSV,2,2,06,85,23,083,41,87,28,310,35,1*7D
$GLGSV,1,1,04,71,55,100,36,72,30,165,12,77,26,286,29,85,23,083,34,3*78
$GLGSV,1,1,03,76,19,234,,78,06,337,,86,53,032,,0*41
$GAGSV,2,1,07,01,24,308,29,03,25,064,41,08,33,122,40,13,65,348,43,2*72
$GAGSV,2,2,07,15,34,066,36,21,42,253,27,26,26,282,26,2*4F
$GAGSV,2,1,08,01,24,308,35,03,25,064,47,08,33,122,43,13,65,348,43,7*70
$GAGSV,2,2,08,15,34,066,41,18,27,121,43,21,42,253,27,26,26,282,37,7*7C
$GAGSV,1,1,02,07,10,171,,27,22,195,,0*7F
$GBGSV,3,1,10,01,43,152,29,04,35,132,29,07,63,216,25,08,53,263,35,1*78
$GBGSV,3,2,10,10,64,248,35,13,44,256,26,14,23,044,38,27,55,321,39,1*7A
$GBGSV,3,3,10,28,58,077,42,33,46,064,47,1*75
$GBGSV,2,1,07,01,43,152,32,04,35,132,33,07,63,216,28,08,53,263,33,3*77
$GBGSV,2,2,07,10,64,248,36,13,44,256,22,14,23,044,40,3*48
$GBGSV,2,1,06,02,28,236,,03,44,206,,05,08,256,,15,31,188,,0*71
$GBGSV,2,2,06,15,31,188,,30,08,298,,0*7E
$GNRMC,044602.00,A,3726.8497372,N,12639.2411552,E,0.011,,210622,,,R,V*09
$GNVTG,,T,,M,0.011,N,0.021,K,D*3B
$GNGNS,044602.00,3726.8497372,N,12639.2411552,E,RRRR,29,0.63,13.585,17.839,2.0,4095,V*0D
$GNGGA,044602.00,3726.8497372,N,12639.2411552,E,4,12,0.63,13.585,M,17.839,M,2.0,4095*50
$GNGSA,A,3,02,19,06,17,03,12,09,04,,,,,1.12,0.63,0.92,1*0A
$GNGSA,A,3,77,71,85,70,87,72,,,,,,,1.12,0.63,0.92,2*08
$GNGSA,A,3,21,13,26,15,08,03,01,,,,,,1.12,0.63,0.92,3*04
$GNGSA,A,3,14,10,33,07,27,13,28,08,,,,,1.12,0.63,0.92,4*0E
$GPGSV,3,1,10,02,16,275,36,03,30,045,44,04,25,090,45,06,54,300,38,1*62
$GPGSV,3,3,10,17,74,094,42,19,74,346,44,1*61
$GPGSV,2,1,07,03,30,045,36,04,25,090,37,06,54,300,31,09,25,126,33,6*60
$GPGSV,2,2,07,11,20,270,23,12,15,319,18,17,74,094,37,6*5B
$GPGSV,1,1,03,01,06,073,,20,09,223,,50,47,179,,0*54
$GLGSV,2,1,06,70,27,038,32,71,55,100,47,72,30,165,29,77,26,286,21,1*75
$GLGSV,2,2,06,85,23,083,42,87,28,310,36,1*7D
$GLGSV,1,1,04,71,55,100,36,72,30,165,13,77,26,286,29,85,23,083,34,3*79
$GLGSV,1,1,03,76,19,234,,78,06,337,,86,53,032,,0*41
$GAGSV,2,1,07,01,24,308,30,03,25,064,39,08,33,122,39,13,65,348,45,2*7D
$GAGSV,2,2,07,15,34,066,37,21,42,253,28,26,26,282,26,2*41
$GAGSV,2,1,08,01,24,308,36,03,25,064,47,08,33,122,42,13,65,348,44,7*75
$GAGSV,2,2,08,15,34,066,41,18,27,121,43,21,42,253,25,26,26,282,36,7*7F
$GAGSV,1,1,02,07,10,171,,27,22,195,,0*7F
$GBGSV,3,1,10,01,43,152,27,04,35,132,29,07,63,216,26,08,53,263,34,1*74
$GBGSV,3,2,10,10,64,248,35,13,44,256,26,14,23,044,38,27,55,321,38,1*7B
$GBGSV,3,3,10,28,5$GBGSV,2,1,07,01,43,152,31,04,35,132,32,07,63,216,28,08,53,263,33,3*75
$GBGSV,2,2,07,10,64,248,36,13,44,256,22,14,23,044,39,3*46
$GBGSV,2,1,06,02,28,236,,03,44,206,,05,08,256,,15,31,188,,0*71
$GBGSV,2,2,06,15,31,188,,30,08,298,,0*7E
$GNRMC,044603.00,A,3726.8497319,N,12639.2411528,E,0.012,,210622,,,R,V*0B
$GNVTG,,T,,M,0.012,N,0.023,K,D*3A
$GNGNS,044603.00,3726.8497319,N,12639.2411528,E,RRRR,29,0.63,13.593,17.839,1.0,4095,V*08
$GNGGA,044603.00,3726.8497319,N,12639.2411528,E,4,12,0.63,13.593,M,17.839,M,1.0,4095*55
$GNGSA,A,3,02,19,06,17,03,12,09,04,,,,,1.12,0.63,0.92,1*0A
$GNGSA,A,3,77,71,85,70,87,72,,,,,,,1.12,0.63,0.92,2*08
$GNGSA,A,3,21,13,26,15,08,03,01,,,,,,1.12,0.63,0.92,3*04
$GNGSA,A,3,14,10,33,07,27,13,28,08,,,,,1.12,0.63,0.92,4*0E
$GPGSV,3,1,10,02,16,275,36,03,30,045,43,04,25,090,46,06,54,300,39,1*67
$GPGSV,3,2,10,09,25,126,37,11,20,270,25,12,15,319,27,14,23,186,19,1*61
$GPGSV,3,3,10,17,74,094,43,19,74,346,43,1*67
$GPGSV,2,1,07,03,30,045,37,04,25,090,34,06,54,300,31,09,25,126,32,6*63
$GPGSV,2,2,07,11,20,270,24,12,15,319,20,17,74,094,37,6*57
$GPGSV,1,1,03,01,06,073,,20,09,223,,50,47,179,,0*54
$GLGSV,2,1,06,70,27,038,31,71,55,100,47,72,30,165,29,77,26,286,21,1*76
$GLGSV,2,2,06,85,23,083,41,87,28,310,36,1*7E
$GLGSV,1,1,04,71,55,100,36,72,30,165,16,77,26,286,29,85,23,083,33,3*7B
$GLGSV,1,1,03,76,19,234,,78,06,337,,86,53,032,,0*41
$GAGSV,2,1,07,01,24,308,31,03,25,064,38,08,33,122,40,13,65,348,45,2*73
$GAGSV,2,2,07,15,34,066,34,21,42,253,28,26,26,282,26,2*42
$GAGSV,2,1,08,01,24,308,36,03,25,064,46,08,33,122,43,13,65,348,44,7*75
$GAGSV,2,2,08,15,34,066,42,18,27,121,43,21,42,253,26,26,26,282,36,7*7F
$GAGSV,1,1,02,07,10,171,,27,22,195,,0*7F
$GBGSV,3,1,10,01,43,152,28,04,35,132,30,07,63,216,25,08,53,263,34,1*70
$GBGSV,3,2,10,10,64,248,35,13,44,256,25,14,23,044,37,27,55,321,39,1*76
$GBGSV,3,3,10,28,58,077,40,33,46,064,46,1*76
$GBGSV,2,1,07,01,43,152,32,04,35,132,33,07,63,216,28,08,53,263,33,3*77
$GBGSV,2,2,07,10,64,248,36,13,44,256,23,14,23,044,37,3*49
$GBGSV,2,1,06,02,28,236,,03,44,206,,05,08,256,,15,31,188,,0*71
$GBGSV,2,2,06,15,31,188,,30,08,298,,0*7E
$GNRMC,044604.00,A,3726.8497319,N,12639.2411466,E,0.011,,210622,,,R,V*04
$GNVTG,,T,,M,0.011,N,0.020,K,D*3A
$GNGNS,044604.00,3726.8497319,N,12639.2411466,E,RRRR,29,0.62,13.576,17.839,2.0,4095,V*0D
$GNGGA,044604.00,3726.8497319,N,12639.2411466,E,4,12,0.62,13.576,M,17.839,M,2.0,4095*50
$GNGSA,A,3,02,19,06,17,03,12,09,04,,,,,1.11,0.62,0.92,1*08
$GNGSA,A,3,77,71,85,70,87,72,,,,,,,1.11,0.62,0.92,2*0A
$GNGSA,A,3,21,13,26,15,08,03,01,,,,,,1.11,0.62,0.92,3*06
$GNGSA,A,3,14,10,33,07,27,04,28,08,,,,,1.11,0.62,0.92,4*0A
$GPGSV,3,1,10,02,16,275,36,03,30,045,46,04,25,090,46,06,54,300,40,1*6C
$GPGSV,3,2,10,09,25,126,38,11,20,270,24,12,15,319,29,14,23,186,20,1*6B
$GPGSV,3,3,10,17,74,094,43,19,74,346,43,1*67
$GPGSV,2,1,07,03,30,045,37,04,25,090,34,06,54,300,31,09,25,126,32,6*63
$GPGSV,2,2,07,11,20,270,26,12,15,319,22,17,74,094,37,6*57
$GPGSV,1,1,03,01,06,073,,20,09,223,,50,47,179,,0*54
$GLGSV,2,1,06,70,27,038,30,71,55,100,46,72,30,165,28,77,26,286,21,1*77
$GLGSV,2,2,06,85,23,083,42,87,28,310,38,1*73
$GLGSV,1,1,04,71,55,100,34,72,30,165,17,77,26,286,29,85,23,083,32,3*79
$GLGSV,1,1,03,76,19,234,,78,06,337,,86,53,032,,0*41
$GAGSV,2,1,07,01,24,308,33,03,25,064,38,08,33,122,40,13,65,348,43,2*77
$GAGSV,2,2,07,15,34,066,34,21,42,253,27,26,26,282,27,2*4C
$GAGSV,2,1,08,01,24,308,35,03,25,064,46,08,33,122,43,13,65,348,43,7*71
$GAGSV,2,2,08,15,34,066,43,18,27,121,44,21,42,253,25,26,26,282,36,7*7A
$GAGSV,1,1,02,07,10,171,,27,22,195,,0*7F
$GBGSV,3,1,10,01,43,152,28,04,35,132,31,07,63,216,25,08,53,263,35,1*70
$GBGSV,3,2,10,10,64,248,35,13,44,256,24,14,23,044,36,27,55,321,40,1*78
$GBGSV,3,3,10,28,58,077,38,33,46,064,44,1*7B
$GBGSV,2,1,07,01,43,152,32,04,35,132,34,07,63,216,27,08,53,263,33,3*7F
$GBGSV,2,2,07,10,64,248,35,13,44,256,22,14,23,044,33,3*4F
$GBGSV,2,1,06,02,28,236,,03,44,206,,05,08,256,,15,31,188,,0*71
$GBGSV,2,2,06,15,31,188,,30,08,298,,0*7E
$GNRMC,044605.00,A,3726.8497350,N,12639.2411400,E,0.009,,210622,,,R,V*01
$GNVTG,,T,,M,0.009,N,0.017,K,D*37
$GNGNS,044605.00,3726.8497350,N,12639.2411400,E,RRRR,29,0.64,13.567,17.839,2.0,4095,V*07
$GNGGA,044605.00,3726.8497350,N,12639.2411400,E,4,12,0.64,13.567,M,17.839,M,2.0,4095*5A
$GNGSA,A,3,77,71,85,70,87,72,,,,,,,1.17,0.64,0.98,2*00
$GNGSA,A,3,21,13,26,15,08,03,01,,,,,,1.17,0.64,0.98,3*0C
$GNGSA,A,3,14,10,33,07,27,04,28,08,,,,,1.17,0.64,0.98,4*00
$GPGSV,3,1,10,02,16,275,37,03,30,045,46,04,25,090,46,06,54,300,38,1*62
$GPGSV,3,2,10,09,25,126,38,11,20,270,24,12,15,319,29,14,23,186,21,1*6A
$GPGSV,3,3,10,17,74,094,43,19,74,346,43,1*67
$GPGSV,2,1,07,03,30,045,40,04,25,090,35,06,54,300,31,09,25,126,33,6*63
$GPGSV,2,2,07,11,20,270,26,12,15,319,23,17,74,094,37,6*56
$GPGSV,1,1,03,01,06,073,,20,09,223,,50,47,179,,0*54
$GLGSV,2,1,06,70,27,038,31,71,55,100,47,72,30,165,28,77,26,286,22,1*74
$GLGSV,2,2,06,85,23,083,42,87,28,310,37,1*7C
$GLGSV,1,1,04,71,55,100,33,72,30,165,12,77,26,286,28,85,23,083,30,3*78
$GLGSV,1,1,03,76,19,234,,78,06,337,,86,53,032,,0*41
$GAGSV,2,1,07,01,24,308,33,03,25,064,41,08,33,122,41,13,65,348,43,2*78
$GAGSV,2,2,07,15,34,066,38,21,42,253,27,26,26,282,28,2*4F
$GAGSV,2,1,08,01,24,308,35,03,25,064,47,08$GAGSV,2,2,08,15,34,066,44,18,27,121,44,21,42,253,25,26,26,282,37,7*7C
$GAGSV,1,1,02,07,10,171,,27,22,195,,0*7F
$GBGSV,3,1,10,01,43,152,29,04,35,132,31,07,63,216,26,08,53,263,35,1*72
$GBGSV,3,2,10,10,64,248,34,13,44,256,23,14,23,044,37,27,55,321,39,1*71
$GBGSV,3,3,10,28,58,077,38,33,46,064,45,1*7A
$GBGSV,2,1,07,01,43,152,32,04,35,132,34,07,63,216,27,08,53,263,33,3*7F
$GBGSV,2,2,07,10,64,248,35,13,44,256,22,14,23,044,31,3*4D
$GBGSV,2,1,06,02,28,236,,03,44,206,,05,08,256,,15,31,188,,0*71
$GBGSV,2,2,06,15,31,188,,30,08,298,,0*7E
$GNRMC,044606.00,A,3726.8497376,N,12639.2411359,E,0.016,,210622,,,R,V*03
$GNVTG,,T,,M,0.016,N,0.030,K,D*3C
$GNGNS,044606.00,3726.8497376,N,12639.2411359,E,RRRR,29,0.64,13.561,17.839,2.0,4095,V*0D
$GNGGA,044606.00,3726.8497376,N,12639.2411359,E,4,12,0.64,13.561,M,17.839,M,2.0,4095*50
$GNGSA,A,3,02,19,06,17,03,12,09,04,,,,,1.17,0.64,0.98,1*02
$GNGSA,A,3,77,71,85,70,87,72,,,,,,,1.17,0.64,0.98,2*00
$GNGSA,A,3,21,13,26,15,08,03,01,,,,,,1.17,0.64,0.98,3*0C
$GNGSA,A,3,14,10,33,07,27,04,28,08,,,,,1.17,0.64,0.98,4*00
$GPGSV,3,1,10,02,16,275,36,03,30,045,46,04,25,090,47,06,54,300,39,1*63
$GPGSV,3,2,10,09,25,126,38,11,20,270,24,12,15,319,28,14,23,186,20,1*6A
$GPGSV,3,3,10,17,74,094,43,19,74,346,43,1*67
$GPGSV,2,1,07,03,30,045,40,04,25,090,35,06,54,300,32,09,25,126,34,6*67
$GPGSV,2,2,07,11,20,270,27,12,15,319,25,17,74,094,38,6*5E
$GPGSV,1,1,03,01,06,073,,20,09,223,,50,47,179,,0*54
$GLGSV,2,1,06,70,27,038,31,71,55,100,46,72,30,165,27,77,26,286,23,1*7B
$GLGSV,2,2,06,85,23,083,40,87,28,310,37,1*7E
$GLGSV,1,1,04,71,55,100,32,72,30,165,11,77,26,286,29,85,23,083,32,3*79
$GLGSV,1,1,03,76,19,234,,78,06,337,,86,53,032,,0*41
$GAGSV,2,1,07,01,24,308,34,03,25,064,40,08,33,122,41,13,65,348,43,2*7E
$GAGSV,2,2,07,15,34,066,36,21,42,253,27,26,26,282,29,2*40
$GAGSV,2,1,08,01,24,308,34,03,25,064,46,08,33,122,44,13,65,348,43,7*77
$GAGSV,2,2,08,15,34,066,44,18,27,121,44,21,42,253,26,26,26,282,37,7*7F
$GAGSV,1,1,02,07,10,171,,27,22,195,,0*7F
$GBGSV,3,1,10,01,43,152,29,04,35,132,30,07,63,216,25,08,53,263,35,1*70
$GBGSV,3,2,10,10,64,248,33,13,44,256,23,14,23,044,37,27,55,321,41,1*79
$GBGSV,3,3,10,28,58,077,40,33,46,064,45,1*75
$GNRMC,044607.00,A,3726.8497303,N,12639.2411339,E,0.021,,210622,,,R,V*02
$GNVTG,,T,,M,0.021,N,0.039,K,D*31
$GNGNS,044607.00,3726.8497303,N,12639.2411339,E,RRRR,29,0.64,13.552,17.839,2.0,4095,V*08
$GNGGA,044607.00,3726.8497303,N,12639.2411339,E,4,12,0.64,13.552,M,17.839,M,2.0,4095*55
$GNGSA,A,3,02,19,06,17,03,12,09,04,,,,,1.17,0.64,0.98,1*02
$GNGSA,A,3,77,71,85,70,87,72,,,,,,,1.17,0.64,0.98,2*00
$GNGSA,A,3,21,13,26,15,08,03,01,,,,,,1.17,0.64,0.98,3*0C
$GNGSA,A,3,14,10,33,07,27,04,28,08,,,,,1.17,0.64,0.98,4*00
$GPGSV,3,1,10,02,16,275,35,03,30,045,46,04,25,090,47,06,54,300,39,1*60
$GPGSV,3,2,10,09,25,126,38,11,20,270,23,12,15,319,27,14,23,186,17,1*66
$GPGSV,3,3,10,17,74,094,43,19,74,346,43,1*67
$GPGSV,2,1,07,03,30,045,40,04,25,090,35,06,54,300,32,09,25,126,34,6*67
$GPGSV,2,2,07,11,20,270,27,12,15,319,25,17,74,094,37,6*51
$GPGSV,1,1,03,01,06,073,,20,09,223,,50,47,179,,0*54
$GLGSV,2,1,06,70,27,038,31,71,55,100,47,72,30,165,28,77,26,286,24,1*72
$GLGSV,2,2,06,85,23,083,41,87,28,310,37,1*7F
$GLGSV,1,1,04,71,55,100,33,72,30,165,09,77,26,286,30,85,23,083,32,3*79
$GLGSV,1,1,03,76,19,234,,78,06,337,,86,53,032,,0*41
$GAGSV,2,1,07,01,24,308,33,03,25,064,39,08,33,122,40,13,65,348,43,2*76
$GAGSV,2,2,07,15,34,066,36,21,42,253,27,26,26,282,30,2*48
$GAGSV,2,1,08,01,24,308,35,03,25,064,45,08,33,122,44,13,65,348,43,7*75
$GAGSV,2,2,08,15,34,066,43,18,27,121,44,21,42,253,26,26,26,282,37,7*78
$GAGSV,1,1,02,07,10,171,,27,22,195,,0*7F
$GBGSV,3,1,10,01,43,152,30,04,35,132,31,07,63,216,25,08,53,263,35,1*79
$GBGSV,3,2,10,10,64,248,33,13,44,256,22,14,23,044,36,27,55,321,41,1*79
$GBGSV,3,3,10,28,58,077,40,33,46,064,45,1*75
$GBGSV,2,1,07,01,43,152,34,04,35,132,35,07,63,216,26,08,53,263,33,3*79
$GBGSV,2,2,07,10,64,248,35,13,44,256,21,14,23,044,34,3*4B
$GBGSV,2,1,06,02,28,236,,03,44,206,,05,08,256,,15,31,188,,0*71
$GBGSV,2,2,06,15,31,188,,30,08,298,,0*7E
$GNRMC,044608.00,A,3726.8497254,N,12639.2411298,E,0.011,,210622,,,R,V*07
$GNVTG,,T,,M,0.011,N,0.021,K,D*3B
$GNGGA,044608.00,3726.8497254,N,12639.2411298,E,4,12,0.62,13.558,M,17.839,M,2.0,4095*5F
$GNGSA,A,3,02,19,06,17,03,12,09,04,,,,,1.11,0.62,0.92,1*08
$GNGSA,A,3,77,71,85,70,87,72,,,,,,,1.11,0.62,0.92,2*0A
$GNGSA,A,3,21,13,26,15,08,03,01,,,,,,1.11,0.62,0.92,3*06
$GNGSA,A,3,14,10,33,07,27,04,28,08,,,,,1.11,0.62,0.92,4*0A
$GPGSV,3,1,11,02,16,275,35,03,30,045,46,04,25,090,47,06,54,300,39,1*61
$GPGSV,3,2,11,09,25,126,39,11,20,270,25,12,15,319,25,14,23,186,16,1*63
$GPGSV,3,3,11,17,74,094,43,19,74,346,43,50,47,179,28,1*55
$GPGSV,2,1,07,03,30,045,41,04,25,090,36,06,54,300,30,09,25,126,33,6*60
$GPGSV,2,2,07,11,20,270,28,12,15,319,26,17,74,094,37,6*5D
$GPGSV,1,1,02,01,06,073,,20,09,223,,0*6C
$GLGSV,2,1,06,70,27,038,32,71,55,100,47,72,30,165,28,77,26,286,25,1*70
$GLGSV,2,2,06,85,23,083,43,87,28,310,37,1*7D
$GLGSV,1,1,04,71,55,100,33,72,30,165,09,77,26,286,30,85,23,083,31,3*7A
$GLGSV,1,1,03,76,19,234,,78,06,337,,86,53,032$GAGSV,2,1,07,01,24,308,34,03,25,064,40,08,33,122,40,13,65,348,42,2*7E
$GAGSV,2,2,07,15,34,066,35,21,42,253,27,26,26,282,30,2*4B
$GAGSV,2,1,08,01,24,308,35,03,25,064,45,08,33,122,44,13,65,348,42,7*74
$GAGSV,2,2,08,15,34,066,44,18,27,121,44,21,42,253,26,26,26,282,37,7*7F
$GAGSV,1,1,02,07,10,171,,27,22,195,,0*7F
$GBGSV,3,1,10,01,43,152,29,04,35,132,31,07,63,216,25,08,53,263,35,1*71
$GBGSV,3,2,10,10,64,248,33,13,44,256,24,14,23,044,36,27,55,321,40,1*7E
$GBGSV,3,3,10,28,58,077,37,33,46,064,44,1*74
$GBGSV,2,1,07,01,43,152,34,04,35,132,35,07,63,216,26,08,53,263,33,3*79
$GBGSV,2,2,07,10,64,248,36,13,44,256,21,14,23,044,29,3*44
$GBGSV,2,1,06,02,28,236,,03,44,206,,05,08,256,,15,31,188,,0*71
$GBGSV,2,2,06,15,31,188,,30,08,298,,0*7E
$GNRMC,044609.00,A,3726.8497272,N,12639.2411310,E,0.004,,210622,,,R,V*07
$GNVTG,,T,,M,0.004,N,0.008,K,D*34
$GNGNS,044609.00,3726.8497272,N,12639.2411310,E,RRRR,29,0.63,13.548,17.839,2.0,4095,V*06
$GNGGA,044609.00,3726.8497272,N,12639.2411310,E,4,12,0.63,13.548,M,17.839,M,2.0,4095*5B
$GNGSA,A,3,02,19,06,17,03,11,09,04,,,,,1.13,0.63,0.93,1*09
$GNGSA,A,3,77,71,85,70,87,72,,,,,,,1.13,0.63,0.93,2*08
$GNGSA,A,3,21,13,26,15,08,03,01,,,,,,1.13,0.63,0.93,3*04
$GNGSA,A,3,14,10,33,07,27,04,28,08,,,,,1.13,0.63,0.93,4*08
$GPGSV,3,1,11,02,16,275,36,03,30,045,46,04,25,090,47,06,54,300,39,1*62
$GPGSV,3,2,11,09,25,126,38,11,20,270,24,12,15,319,24,14,23,186,18,1*6C
$GPGSV,3,3,11,17,74,094,43,19,74,346,43,50,47,179,29,1*54
$GPGSV,2,1,07,03,30,045,41,04,25,090,36,06,54,300,31,09,25,126,33,6*61
$GPGSV,2,2,07,11,20,270,28,12,15,319,26,17,74,094,37,6*5D
$GPGSV,1,1,02,01,06,073,,20,09,223,,0*6C
$GLGSV,2,1,06,70,27,038,33,71,55,100,47,72,30,165,28,77,26,286,26,1*72
$GLGSV,2,2,06,85,23,083,42,87,28,310,37,1*7C
$GLGSV,1,1,04,71,55,100,33,72,30,165,10,77,26,286,30,85,23,083,32,3*71
$GLGSV,1,1,03,76,19,234,,78,06,337,,86,53,032,,0*41
$GAGSV,2,1,07,01,24,308,33,03,25,064,40,08,33,122,40,13,65,348,42,2*79
$GAGSV,2,2,07,15,34,066,35,21,42,253,27,26,26,282,30,2*4B
$GAGSV,2,1,08,01,24,308,35,03,25,064,45,08,33,122,44,13,65,348,42,7*74
$GAGSV,2,2,08,15,34,066,43,18,27,121,44,21,42,253,26,26,26,282,37,7*78
$GAGSV,1,1,02,07,10,171,,27,22,195,,0*7F
$GBGSV,3,1,10,01,43,152,30,04,35,132,32,07,63,216,24,08,53,263,35,1*7B
$GBGSV,3,2,10,10,64,248,33,13,44,256,24,14,23,044,35,27,56,321,41,1*7F
$GBGSV,3,3,10,28,58,077,37,33,46,064,45,1*75
$GBGSV,2,1,07,01,43,152,34,04,35,132,35,07,63,216,27,08,53,263,33,3*78
$GBGSV,2,2,07,10,64,248,35,13,44,256,22,14,23,044,30,3*4C
$GBGSV,2,1,06,02,28,236,,03,44,206,,05,08,256,,15,31,188,,0*71
$GBGSV,2,2,06,15,31,188,,30,08,298,,0*7E
$GNRMC,044610.00,A,3726.8497313,N,12639.2411271,E,0.005,,210622,,,R,V*0E
$GNVTG,,T,,M,0.005,N,0.009,K,D*34
$GNGNS,044610.00,3726.8497313,N,12639.2411271,E,RRRR,29,0.64,13.547,17.839,2.0,4095,V*06
$GNGGA,044610.00,3726.8497313,N,12639.2411271,E,4,12,0.64,13.547,M,17.839,M,2.0,4095*5B
$GNGSA,A,3,02,19,06,17,03,12,09,04,,,,,1.17,0.64,0.98,1*02
$GNGSA,A,3,77,71,85,70,87,72,,,,,,,1.17,0.64,0.98,2*00
$GNGSA,A,3,21,13,26,15,08,03,01,,,,,,1.17,0.64,0.98,3*0C
$GNGSA,A,3,14,10,33,07,27,04,28,08,,,,,1.17,0.64,0.98,4*00
$GPGSV,3,1,11,02,16,275,36,03,30,045,45,04,25,090,47,06,54,300,39,1*61
$GPGSV,3,2,11,09,25,126,38,11,20,270,26,12,15,319,23,14,23,186,22,1*60
$GPGSV,3,3,11,17,74,094,42,19,74,346,43,50,47,179,29,1*55
$GPGSV,2,1,07,03,30,045,40,04,25,090,35,06,54,300,31,09,25,126,33,6*63
$GPGSV,2,2,07,11,20,270,29,12,15,319,26,17,74,094,37,6*5C
$GPGSV,1,1,02,01,06,073,,20,09,223,,0*6C
$GLGSV,2,1,06,70,27,038,33,71,55,100,47,72,30,165,28,77,26,286,27,1*73
$GLGSV,2,2,06,85,23,083,42,87,28,310,37,1*7C
$GLGSV,1,1,04,71,55,100,32,72,30,165,09,77,26,286,30,85,23,083,31,3*7B
$GLGSV,1,1,03,76,19,234,,78,06,337,,86,53,032,,0*41
$GAGSV,2,1,07,01,24,308,34,03,25,064,40,08,33,122,40,13,65,348,42,2*7E
$GAGSV,2,2,07,15,34,066,35,21,42,253,27,26,26,282,31,2*4A
$GAGSV,2,1,08,01,24,308,35,03,25,064,45,08,33,122,44,13,65,348,42,7*74
$GAGSV,2,2,08,15,34,066,43,18,27,121,44,21,42,253,27,26,26,282,38,7*76
$GAGSV,1,1,02,07,10,171,,27,22,195,,0*7F
$GBGSV,3,1,10,01,43,152,30,04,35,132,31,07,63,216,24,08,53,263,35,1*78
$GBGSV,3,2,10,10,64,248,33,13,44,256,26,14,23,044,35,27,56,321,40,1*7C
$GBGSV,3,3,10,28,58,079,37,33,46,064,44,1*7A
$GBGSV,2,1,07,01,43,152,34,04,35,132,35,07,63,216,27,08,53,263,33,3*78
$GBGSV,2,2,07,10,64,248,35,13,44,256,22,14,23,044,29,3*44
$GNRMC,044611.00,A,3726.8497270,N,12639.2411278,E,0.004,,210622,,,R,V*03
$GNVTG,,T,,M,0.004,N,0.007,K,D*3B
$GNGNS,044611.00,3726.8497270,N,12639.2411278,E,RRRR,29,0.62,13.543,17.839,2.0,4095,V*08
$GNGGA,044611.00,3726.8497270,N,12639.2411278,E,4,12,0.62,13.543,M,17.839,M,2.0,4095*55
$GNGSA,A,3,02,19,06,17,03,12,09,04,,,,,1.11,0.62,0.92,1*08
$GNGSA,A,3,77,71,85,70,87,72,,,,,,,1.11,0.62,0.92,2*0A
$GNGSA,A,3,21,13,26,15,08,03,01,,,,,,1.11,0.62,0.92,3*06
$GNGSA,A,3,14,10,33,07,27,04,28,08,,,,,1.11,0.62,0.92,4*0A
$GPGSV,3,1,11,02,16,275,36,03,30,045,46,04,25,090,47,06,54,300,40,1*6C
$GPGSV,3,2,11,09,25,126,39,11,20,270,24,12,15,319,21,14,23,186,21,1*62
$GPGSV,3,3,11,17,74,094,42,19,74,346,43,50,47,179,29,1*55
$GPGSV,2,1,07,03,30,045,40,04,25,090,35,06,54,300,32,09,25,126,33,6*60
$GPGSV,2,2,07,11,20,270,30,12,15,319,26,17,74,094,37,6*54
$GPGSV,1,1,02,01,06,073,,20,09,223,,0*6C
$GLGSV,2,1,06,70,27,038,33,71,55,100,46,72,30,165,27,77,26,286,27,1*7D
$GLGSV,2,2,06,85,23,083,42,87,28,310,37,1*7C
$GLGSV,1,1,04,71,55,100,33,72,30,165,11,77,26,286,30,85,23,083,31,3*73
$GLGSV,1,1,03,76,19,234,,78,06,337,,86,53,032,,0*41
$GAGSV,2,1,07,01,24,308,33,03,25,064,40,08,33,122,40,13,65,348,42,2*79
$GAGSV,2,2,07,15,34,066,34,21,42,253,27,26,26,282,30,2*4A
$GAGSV,2,1,08,01,24,308,35,03,25,064,45,08,33,122,44,13,65,348,42,7*74
$GAGSV,2,2,08,15,34,066,43,18,27,121,44,21,42,253,26,26,26,282,37,7*78
$GAGSV,1,1,02,07,10,171,,27,22,195,,0*7F
$GBGSV,3,1,10,01,43,152,29,04,35,132,32,07,63,216,24,08,53,263,35,1*73
$GBGSV,3,2,10,10,64,248,33,13,44,256,26,14,23,044,35,27,56,321,40,1*7C
$GBGSV,3,3,10,28,58,079,33,33,46,064,44,1*7E
$GBGSV,2,1,07,01,43,152,33,04,35,132,35,07,63,216,28,08,53,263,33,3*70
$GBGSV,2,2,07,10,64,248,35,13,44,256,22,14,23,044,27,3*4A
$GBGSV,2,1,06,02,28,236,,03,44,206,,05,08,256,,15,31,188,,0*71
$GBGSV,2,2,06,15,31,188,,30,08,298,,0*7E
$GNRMC,044612.00,A,3726.8497243,N,12639.2411285,E,0.007,,210622,,,R,V*01
$GNVTG,,T,,M,0.007,N,0.013,K,D*3D
$GNGNS,044612.00,3726.8497243,N,12639.2411285,E,RRRR,29,0.66,13.562,17.839,2.0,4095,V*0E
$GNGGA,044612.00,3726.8497243,N,12639.2411285,E,4,12,0.66,13.562,M,17.839,M,2.0,4095*53
$GNGSA,A,3,02,19,06,17,03,12,09,04,,,,,1.18,0.66,0.98,1*0F
$GNGSA,A,3,77,71,85,70,87,72,,,,,,,1.18,0.66,0.98,2*0D
$GNGSA,A,3,21,13,26,15,08,03,01,,,,,,1.18,0.66,0.98,3*01
$GNGSA,A,3,14,10,33,07,27,13,28,08,,,,,1.18,0.66,0.98,4*0B
$GPGSV,3,2,10,09,25,126,38,11,20,270,21,14,23,186,20,17,74,094,42,1*67
$GPGSV,3,3,10,19,74,346,43,50,47,179,29,1*6A
$GPGSV,2,1,07,03,30,045,40,04,25,090,36,06,54,300,31,09,25,126,33,6*60
$GPGSV,2,2,07,11,20,270,29,12,15,319,27,17,74,094,36,6*5C
$GPGSV,1,1,02,01,06,073,,20,09,223,,0*6C
$GLGSV,2,1,06,70,27,038,33,71,55,100,47,72,30,165,27,77,26,286,28,1*73
$GLGSV,2,2,06,85,23,083,42,87,28,310,37,1*7C
$GLGSV,1,1,04,71,55,100,33,72,30,165,11,77,26,286,29,85,23,083,32,3*78
$GLGSV,1,1,03,76,19,234,,78,06,337,,86,53,032,,0*41
$GAGSV,2,1,07,01,24,308,33,03,25,064,41,08,33,122,40,13,65,348,42,2*78
$GAGSV,2,2,07,15,34,066,34,21,42,253,28,26,26,282,31,2*44
$GAGSV,2,1,08,01,24,308,35,03,25,064,45,08,33,122,44,13,65,348,43,7*75
$GAGSV,2,2,08,15,34,066,43,18,27,121,44,21,42,253,26,26,26,282,37,7*78
$GAGSV,1,1,02,07,10,171,,27,22,195,,0*7F
$GBGSV,3,1,10,01,43,152,29,04,35,132,31,07,63,216,25,08,53,263,35,1*71
$GBGSV,3,2,10,10,64,248,34,13,44,256,25,14,23,044,35,27,56,321,40,1*78
$GBGSV,3,3,10,28,58,079,35,33,46,064,44,1*78
