$GNRMC,045220.00,A,3726.8309253,N,12639.2751704,E,0.011,,210622,,,R,V*08
$GNVTG,,T,,M,0.011,N,0.021,K,D*3B
$GNGNS,045220.00,3726.8309253,N,12639.2751704,E,RRRR,28,0.59,14.541,17.840,2.0,4095,V*05
$GNGGA,045220.00,3726.8309253,N,12639.2751704,E,4,12,0.59,14.541,M,17.840,M,2.0,4095*59
$GNGSA,A,3,19,09,06,17,14,12,03,04,,,,,1.14,0.59,0.98,1*08
$GNGSA,A,3,71,72,85,87,,,,,,,,,1.14,0.59,0.98,2*0A
$GNGSA,A,3,15,01,26,03,21,08,13,,,,,,1.14,0.59,0.98,3*01
$GNGSA,A,3,14,03,10,08,28,33,27,13,07,,,,1.14,0.59,0.98,4*08
$GPGSV,3,1,12,02,18,277,17,03,27,044,36,04,26,087,37,06,56,304,45,1*61
$GPGSV,3,2,12,09,27,123,38,11,22,272,31,12,17,318,39,14,21,185,33,1*6B
$GPGSV,3,3,12,17,72,103,47,19,77,352,43,28,,,36,50,47,179,38,1*53
$GPGSV,2,1,08,03,27,044,32,04,26,087,38,06,56,304,41,09,27,123,25,6*67
$GPGSV,2,2,08,11,22,272,26,12,17,318,38,14,21,185,39,17,72,103,41,6*68
$GPGSV,1,1,02,01,04,075,,20,12,225,,0*64
$GLGSV,2,1,06,70,25,035,25,71,56,094,48,72,33,164,39,77,25,282,10,1*7A
$GLGSV,2,2,06,85,21,086,36,87,30,313,43,1*71
$GLGSV,1,1,04,71,56,094,42,72,33,164,38,77,25,282,17,85,21,086,29,3*7F
$GLGSV,1,1,03,76,16,232,,78,07,335,,86,53,038,,0*41
$GAGSV,2,1,07,01,25,306,40,03,25,061,37,08,35,120,36,13,65,353,42,2*78
$GAGSV,2,2,07,15,32,069,38,21,40,250,47,26,28,284,17,2*45
$GAGSV,2,1,07,01,25,306,35,03,25,061,27,08,35,120,32,13,65,353,38,7*77
$GAGSV,2,2,07,15,32,069,36,21,40,250,46,26,28,284,31,7*4B
$GAGSV,1,1,03,07,12,170,,18,24,123,,27,19,194,,0*4B
$GBGSV,3,1,10,01,43,152,38,03,44,206,34,07,62,216,35,08,53,265,36,1*74
$GBGSV,3,2,10,10,63,246,40,13,44,258,38,14,21,043,20,27,57,323,43,1*71
$GBGSV,3,3,10,28,57,081,50,33,44,061,40,1*70
$GBGSV,2,1,08,01,43,152,41,02,28,236,41,03,44,206,37,07,62,216,37,3*71
$GBGSV,2,2,08,08,53,265,40,10,63,246,40,13,44,258,34,14,21,043,43,3*7B
$GBGSV,2,1,05,04,35,132,,05,08,256,,15,31,189,,30,10,299,,0*79
$GBGSV,2,2,05,30,10,299,,0*42
$GNRMC,045221.00,A,3726.8309232,N,12639.2751742,E,0.011,,210622,,,R,V*0C
$GNGNS,045221.00,3726.8309232,N,12639.2751742,E,RRRR,28,0.59,14.541,17.840,2.0,4095,V*01
$GNGGA,045221.00,3726.8309232,N,12639.2751742,E,4,12,0.59,14.541,M,17.840,M,2.0,4095*5D
$GNGSA,A,3,19,09,06,17,14,12,03,04,,,,,1.14,0.59,0.98,1*08
$GNGSA,A,3,71,72,85,87,,,,,,,,,1.14,0.59,0.98,2*0A
$GNGSA,A,3,15,01,26,03,21,08,13,,,,,,1.14,0.59,0.98,3*01
$GNGSA,A,3,14,03,10,08,28,33,27,13,07,,,,1.14,0.59,0.98,4*08
$GPGSV,3,1,12,02,18,277,20,03,27,044,38,04,26,087,37,06,56,304,43,1*6D
$GPGSV,3,2,12,09,27,123,38,11,22,272,31,12,17,318,42,14,21,185,36,1*62
$GPGSV,3,3,12,17,72,103,46,19,77,352,44,28,,,39,50,47,179,38,1*5A
$GPGSV,2,1,08,03,27,044,34,04,26,087,38,06,56,304,40,09,27,123,25,6*60
$GPGSV,2,2,08,11,22,272,26,12,17,318,36,14,21,185,39,17,72,103,40,6*67
$GPGSV,1,1,02,01,04,075,,20,12,225,,0*64
$GLGSV,2,1,06,70,25,035,26,71,56,094,48,72,33,164,42,77,25,282,10,1*75
$GLGSV,2,2,06,85,21,086,36,87,30,313,41,1*73
$GLGSV,1,1,04,71,56,094,40,72,33,164,39,77,25,282,15,85,21,086,$GLGSV,1,1,03,76,16,232,,78,07,335,,86,53,038,,0*41
$GAGSV,2,1,07,01,25,306,39,03,25,061,36,08,35,120,37,13,65,353,42,2*76
$GAGSV,2,2,07,15,32,069,39,21,40,250,47,26,28,284,17,2*44
$GAGSV,2,1,07,01,25,306,38,03,25,061,33,08,35,120,32,13,65,353,34,7*73
$GAGSV,2,2,07,15,32,069,36,21,40,250,46,26,28,284,30,7*4A
$GAGSV,1,1,03,07,12,170,,18,24,123,,27,19,194,,0*4B
$GBGSV,3,1,10,01,43,152,39,03,44,206,36,07,62,216,35,08,53,265,33,1*72
$GBGSV,3,2,10,10,63,246,39,13,44,258,38,14,21,043,21,27,57,323,45,1*78
$GBGSV,3,3,10,28,57,081,51,33,44,061,38,1*7E
$GBGSV,2,1,08,01,43,152,41,02,28,236,41,03,44,206,36,07,62,216,37,3*70
$GBGSV,2,2,08,08,53,265,39,10,63,246,39,13,44,258,35,14,21,043,44,3*7D
$GBGSV,2,1,05,04,35,132,,05,08,256,,15,31,189,,30,10,299,,0*79
$GBGSV,2,2,05,30,10,299,,0*42
$GNRMC,045222.00,A,3726.8309262,N,12639.2751747,E,0.017,,210622,,,R,V*09
$GNVTG,,T,,M,0.017,N,0.031,K,D*3C
$GNGNS,045222.00,3726.8309262,N,12639.2751747,E,RRRR,28,0.59,14.553,17.840,2.0,4095,V*01
$GNGGA,045222.00,3726.8309262,N,12639.2751747,E,4,12,0.59,14.553,M,17.840,M,2.0,4095*5D
$GNGSA,A,3,19,09,06,17,14,12,03,04,,,,,1.14,0.59,0.98,1*08
$GNGSA,A,3,71,72,85,87,,,,,,,,,1.14,0.59,0.98,2*0A
$GNGSA,A,3,15,01,26,03,21,08,13,,,,,,1.14,0.59,0.98,3*01
$GNGSA,A,3,14,03,10,08,28,33,27,13,07,,,,1.14,0.59,0.98,4*08
$GPGSV,3,1,12,02,18,277,25,03,27,044,40,04,26,087,37,06,56,304,36,1*65
$GPGSV,3,2,12,09,27,123,37,11,22,272,32,12,17,318,40,14,21,185,35,1*6F
$GPGSV,3,3,12,17,72,103,46,19,77,352,41,28,,,38,50,47,179,39,1*5F
$GPGSV,2,1,08,03,27,044,35,04,26,087,38,06,56,304,35,09,27,123,27,6*61
$GPGSV,2,2,08,11,22,272,26,12,17,318,37,14,21,185,39,17,72,103,40,6*66
$GPGSV,1,1,02,01,04,075,,20,12,225,,0*64
$GLGSV,2,1,06,70,25,035,26,71,56,094,49,72,33,164,42,77,25,282,06,1*73
$GLGSV,2,2,06,85,21,086,37,87,30,313,39,1*7D
$GLGSV,1,1,04,71,56,094,40,72,33,164,39,77,25,282,11,85,21,086,31,3*73
$GLGSV,1,1,03,76,16,232,,78,07,335,,86,53,038,,0*41
$GAGSV,2,1,07,01,25,306,39,03,25,061,36,08,35,120,35,13,65,353,37,2*76
$GAGSV,2,2,07,15,32,069,38,21,40,250,44,26,28,284,17,2*46
$GAGSV,2,1,07,01,25,306,40,03,25,061,34,08,35,120,34,13,65,353,34,7*7D
$GAGSV,2,2,07,15,32,069,35,21,40,250,44,26,28,284,30,7*4B
$GAGSV,1,1,03,07,12,170,,18,24,123,,27,19,194,,0*4B
$GBGSV,3,1,10,01,43,152,39,03,44,206,37,07,62,216,35,08,53,265,29,1*78
$GBGSV,3,2,10,10,63,246,40,13,44,258,35,14,21,043,21,27,57,323,43,1*7D
$GBGSV,3,3,10,28,57,081,51,33,44,061,41,1*70
$GBGSV,2,1,08,01,43,152,41,02,28,236,39,03,44,206,33,07,62,216,37,3*7A
$GBGSV,2,2,08,08,53,265,38,10,63,246,39,13,44,258,36,14,21,043,45,3*7E
$GBGSV,2,1,05,04,35,132,,05,08,256,,15,31,189,,30,10,299,,0*79
$GBGSV,2,2,05,30,10,299,,0*42
$GNRMC,045223.00,A,3726.8309234,N,12639.2751709,E,0.012,,210622,,,R,V*04
$GNVTG,,T,,M,0.012,N,0.023,K,D*3A
$GNGNS,045223.00,3726.8309234,N,12639.2751709,E,RRRR,28,0.59,14.550,17.840,1.0,4095,V*09
$GNGGA,045223.00,3726.8309234,N,12639.2751709,E,4,12,0.59,14.550,M,17.840,M,1.0,4095*55
$GNGSA,A,3,19,09,06,17,14,12,03,04,,,,,1.14,0.59,0.98,1*08
$GNGSA,A,3,71,72,85,87,,,,,,,,,1.14,0.59,0.98,2*0A
$GNGSA,A,3,15,01,26,03,21,08,13,,,,,,1.14,0.59,0.98,3*01
$GNGSA,A,3,14,03,10,08,28,33,27,13,07,,,,1.14,0.59,0.98,4*08
$GPGSV,3,1,12,02,18,277,25,03,27,044,40,04,26,087,37,06,56,304,43,1*67
$GPGSV,3,2,12,09,27,123,37,11,22,272,33,12,17,318,45,14,21,185,38,1*66
$GPGSV,3,3,12,17,72,103,47,19,77,352,44,28,,,39,50,47,179,38,1*5B
$GPGSV,2,1,08,03,27,044,35,04,26,087,38,06,56,304,36,09,27,123,27,6*62
$GPGSV,2,2,08,11,22,272,25,12,17,318,38,14,21,185,38,17,72,103,40,6*6B
$GPGSV,1,1,02,01,04,075,,20,12,225,,0*64
$GLGSV,2,1,06,70,25,035,27,71,56,094,49,72,33,164,40,77,25,282,09,1*7F
$GLGSV,2,2,06,85,21,086,36,87,30,313,39,1*7C
$GLGSV,1,1,04,71,56,094,41,72,33,164,39,77,25,282,09,85,21,086,30,3*7A
$GLGSV,1,1,03,76,16,232,,78,07,335,,86,53,038,,0*41
$GAGSV,2,1,07,01,25,306,34,03,25,061,37,08,35,120,36,13,65,353,41,2*78
$GAGSV,2,2,07,15,32,069,40,21,40,250,46,26,28,284,18,2*44
$GAGSV,2,1,07,01,25,306,38,03,25,061,32,08,35,120,34,13,65,353,37,7*77
$GAGSV,2,2,07,15,32,069,34,21,40,250,44,26,28,284,30,7*4A
$GAGSV,1,1,03,07,12,170,,18,24,123,,27,19,194,,0*4B
$GBGSV,3,1,10,01,43,152,39,03,44,206,37,07,62,216,35,08,53,265,29,1*78
$GBGSV,3,2,10,10,63,246,39,13,44,258,36,14,21,043,18,27,57,323,44,1*7D
$GBGSV,3,3,10,28,57,081,51,33,44,061,42,1*73
$GBGSV,2,1,08,01,43,152,40,02,28,236,39,03,44,206,33,07,62,216,36,3*7A
$GBGSV,2,2,08,08,53,265,39,10,63,246,39,13,44,258,36,14,21,043,44,3*7E
$GBGSV,2,1,05,04,35,132,,05,08,256,,15,31,189,,30,10,299,,0*79
$GBGSV,2,2,05,30,10,299,,0*42
$GNRMC,045224.00,A,3726.8309216,N,12639.2751724,E,0.008,,210622,,,R,V*07
$GNVTG,,T,,M,0.008,N,0.014,K,D*35
$GNGNS,045224.00,3726.8309216,N,12639.2751724,E,RRRR,28,0.59,14.546,17.840,2.0,4095,V*05
$GNGGA,045224.00,3726.8309216,N,12639.2751724,E,4,12,0.59,14.546,M,17.840,M,2.0,4095*59
$GNGSA,A,3,19,09,06,17,14,12,03,04,,,,,1.14,0.59,0.98,1*08
$GNGSA,A,3,15,01,26,03,21,08,13,,,,,,1.14,0.59,0.98,3*01
$GNGSA,A,3,14,03,10,08,28,33,27,13,07,,,,1.14,0.59,0.98,4*08
$GPGSV,3,1,12,02,18,277,27,03,27,044,40,04,26,087,36,06,56,304,42,1*65
$GPGSV,3,2,12,09,27,123,37,11,22,272,32,12,17,318,42,14,21,185,37,1*6F
$GPGSV,3,3,12,17,72,103,48,19,77,352,43,28,,,39,50,47,179,39,1*52
$GPGSV,2,1,08,03,27,044,35,04,26,087,38,06,56,304,35,09,27,123,28,6*6E
$GPGSV,2,2,08,11,22,272,25,12,17,318,38,14,21,185,38,17,72,103,41,6*6A
$GPGSV,1,1,02,01,04,075,,20,12,225,,0*64
$GLGSV,2,1,06,70,25,035,27,71,56,094,49,72,33,164,40,77,25,282,09,1*7F
$GLGSV,2,2,06,85,21,086,36,87,30,313,40,1*72
$GLGSV,1,1,04,71,56,094,41,72,33,164,40,77,25,282,08,85,21,086,31,3*74
$GLGSV,1,1,03,76,16,232,,78,07,335,,86,53,038,,0*41
$GAGSV,2,1,07,01,25,306,35,03,25,061,37,08,35,120,37,13,65,353,40,2*79
$GNRMC,045225.00,A,3726.8309237,N,12639.2751734,E,0.009,,210622,,,R,V*05
$GNVTG,,T,,M,0.009,N,0.016,K,D*36
$GNGNS,045225.00,3726.8309237,N,12639.2751734,E,RRRR,28,0.59,14.545,17.840,2.0,4095,V*05
$GNGGA,045225.00,3726.8309237,N,12639.2751734,E,4,12,0.59,14.545,M,17.840,M,2.0,4095*59
$GNGSA,A,3,19,09,06,17,14,12,03,04,,,,,1.14,0.59,0.98,1*08
$GNGSA,A,3,71,72,85,87,,,,,,,,,1.14,0.59,0.98,2*0A
$GNGSA,A,3,15,01,26,03,21,08,13,,,,,,1.14,0.59,0.98,3*01
$GNGSA,A,3,14,03,10,08,28,33,27,13,07,,,,1.14,0.59,0.98,4*08
$GPGSV,3,1,12,02,18,277,26,03,27,044,40,04,26,087,36,06,56,304,43,1*65
$GPGSV,3,2,12,09,27,123,37,11,22,272,32,12,17,318,44,14,21,185,38,1*66
$GPGSV,3,3,12,17,72,103,47,19,77,352,44,28,,,40,50,47,179,39,1*54
$GPGSV,2,1,08,03,27,044,35,04,26,087,38,06,56,304,35,09,27,123,28,6*6E
$GPGSV,2,2,08,11,22,272,23,12,17,318,37,14,21,185,38,17,72,103,41,6*63
$GPGSV,1,1,02,01,04,075,,20,12,225,,0*64
$GLGSV,2,1,06,70,25,035,26,71,56,094,50,72,33,164,40,77,25,282,11,1*7F
$GLGSV,2,2,06,85,21,086,36,87,30,313,39,1*7C
$GLGSV,1,1,04,71,56,094,41,72,33,164,39,77,25,282,08,85,21,086,31,3*7A
$GLGSV,1,1,03,76,16,232,,78,07,335,,86,53,038,,0*41
$GAGSV,2,1,07,01,25,306,37,03,25,061,37,08,35,120,36,13,65,353,41,2*7B
$GAGSV,2,2,07,15,32,069,39,21,40,250,46,26,28,284,18,2*4A
$GAGSV,2,1,07,01,25,306,38,03,25,061,30,08,35,120,37,13,65,353,38,7*79
$GAGSV,2,2,07,15,32,069,34,21,40,250,44,26,28,284,30,7*4A
$GAGSV,1,1,03,07,12,170,,18,24,123,,27,19,194,,0*4B
$GBGSV,3,1,10,01,43,152,39,03,44,206,37,07,62,216,36,08,53,265,27,1*75
$GBGSV,3,2,10,10,63,246,40,13,44,258,37,14,21,043,17,27,58,324,44,1*75
$GBGSV,3,3,10,28,56,083,51,33,44,061,41,1*73
$GBGSV,2,1,08,01,43,152,40,02,28,236,39,03,44,206,31,07,62,216,37,3*79
$GBGSV,2,2,08,08,53,265,38,10,63,246,38,13,44,258,32,14,21,043,44,3*7A
$GBGSV,2,1,05,04,35,132,,05,08,256,,15,31,189,,30,10,299,,0*79
$GBGSV,2,2,05,30,10,299,,0*42
$GNRMC,045226.00,A,3726.8309216,N,12639.2751726,E,0.017,,210622,,,R,V*09
$GNVTG,,T,,M,0.017,N,0.031,K,D*3C
$GNGNS,045226.00,3726.8309216,N,12639.2751726,E,RRRR,28,0.59,14.540,17.840,2.0,4095,V*03
$GNGGA,045226.00,3726.8309216,N,12639.2751726,E,4,12,0.59,14.540,M,17.840,M,2.0,4095*5F
$GNGSA,A,3,19,09,06,17,14,12,03,04,,,,,1.14,0.59,0.98,1*08
$GNGSA,A,3,71,72,85,87,,,,,,,,,1.14,0.59,0.98,2*0A
$GNGSA,A,3,15,01,26,03,21,08,13,,,,,,1.14,0.59,0.98,3*01
$GNGSA,A,3,14,03,10,08,28,33,27,13,07,,,,1.14,0.59,0.98,4*08
$GPGSV,3,1,12,02,18,277,26,03,27,044,40,04,26,087,37,06,56,304,43,1*64
$GPGSV,3,2,12,09,27,123,35,11,22,272,31,12,17,318,43,14,21,185,38,1*60
$GPGSV,3,3,12,17,72,103,47,19,77,352,42,28,,,40,50,47,179,38,1*53
$GPGSV,2,1,08,03,27,044,35,04,26,087,37,06,56,304,36,09,27,123,29,6*63
$GPGSV,2,2,08,11,22,272,22,12,17,318,37,14,21,185,38,17,72,103,40,6*63
$GPGSV,1,1,02,01,04,075,,20,12,225,,0*64
$GLGSV,2,1,06,70,25,035,26,71,56,094,48,72,33,164,41,77,25,282,12,1*74
$GLGSV,2,2,06,85,21,086,36,87,30,313,41,1*73
$GLGSV,1,1,04,71,56,094,41,72,33,164,39,77,25,282,11,85,21,086,31,3*72
$GLGSV,1,1,03,76,16,232,,78,07,335,,86,53,038,,0*41
$GAGSV,2,1,07,01,25,306,37,03,25,061,36,08,35,120,36,13,65,353,41,2*7A
$GAGSV,2,2,07,15,32,069,39,21,40,250,47,26,28,284,19,2*4A
$GAGSV,2,1,07,01,25,306,37,03,25,061,33,08,35,120,34,13,65,353,38,7*76
$GAGSV,2,2,07,15,32,069,34,21,40,250,46,26,28,284,29,7*40
$GAGSV,1,1,03,07,12,170,,18,24,123,,27,19,194,,0*4B
$GBGSV,3,1,10,01,43,152,38,03,44,206,35,07,62,216,36,08,53,265,33,1*73
$GBGSV,3,2,10,10,63,246,40,13,44,258,39,14,21,043,18,27,58,324,44,1*74
$GBGSV,3,3,10,28,56,083,51,33,44,061,40,1*72
$GBGSV,2,1,08,01,43,152,40,02,28,236,42,03,44,206,32,07,62,216,36,3*77
$GBGSV,2,2,08,08,53,265,37,10,63,246,39,13,44,258,33,14,21,043,45,3*74
$GBGSV,2,1,05,04,35,132,,05,08,256,,15,31,189,,30,10,299,,0*79
$GBGSV,2,2,05,30,10,299,,0*42
$GNRMC,045227.00,A,3726.8309169,N,12639.2751691,E,0.019,,210622,,,R,V*00
$GNVTG,,T,,M,0.019,N,0.035,K,D*36
$GNGNS,045227.00,3726.8309169,N,12639.2751691,E,RRRR,28,0.59,14.528,17.840,2.0,4095,V*0A
$GNGSA,A,3,19,09,06,17,14,12,03,04,,,,,1.14,0.59,0.98,1*08
$GNGSA,A,3,71,72,85,87,,,,,,,,,1.14,0.59,0.98,2*0A
$GNGSA,A,3,15,01,26,03,21,08,13,,,,,,1.14,0.59,0.98,3*01
$GNGSA,A,3,14,03,10,08,28,33,27,13,07,,,,1.14,0.59,0.98,4*08
$GPGSV,3,1,12,02,18,277,25,03,27,044,39,04,26,087,39,06,56,304,43,1*67
$GPGSV,3,2,12,09,27,123,37,11,22,272,31,12,17,318,46,14,21,185,35,1*6A
$GPGSV,3,3,12,17,72,103,50,19,77,352,44,28,,,40,50,47,179,36,1*5D
$GPGSV,2,1,08,03,27,044,31,04,26,087,37,06,56,304,38,09,27,123,34,6*65
$GPGSV,2,2,08,11,22,272,21,12,17,318,38,14,21,185,39,17,72,103,41,6*6F
$GPGSV,1,1,02,01,04,075,,20,12,225,,0*64
$GLGSV,2,1,06,70,25,035,25,71,56,094,49,72,33,164,39,77,25,282,09,1*73
$GLGSV,2,2,06,85,21,086,35,87,30,313,41,1*70
$GLGSV,1,1,04,71,56,094,42,72,33,164,37,77,25,282,11,85,21,086,32,3*7C
$GLGSV,1,1,03,76,16,232,,78,07,335,,86,53,038,,0*41
$GAGSV,2,1,07,01,25,306,36,03,25,061,36,08,35,120,37,13,65,353,$GAGSV,2,2,07,15,32,069,36,21,40,250,46,26,28,284,17,2*4A
$GAGSV,2,1,07,01,25,306,40,03,25,061,32,08,35,120,34,13,65,353,38,7*77
$GAGSV,2,2,07,15,32,069,33,21,40,250,44,26,28,284,31,7*4C
$GAGSV,1,1,03,07,12,170,,18,24,123,,27,19,194,,0*4B
$GBGSV,3,1,10,01,43,152,40,03,44,206,34,07,62,216,36,08,53,265,32,1*7C
$GBGSV,3,2,10,10,63,246,39,13,44,258,38,14,21,043,20,27,58,324,45,1*71
$GBGSV,3,3,10,28,56,083,50,33,44,061,41,1*72
$GBGSV,2,1,08,01,43,152,40,02,28,236,39,03,44,206,33,07,62,216,37,3*7B
$GBGSV,2,2,08,08,53,265,38,10,63,246,39,13,44,258,37,14,21,043,42,3*78
$GBGSV,2,1,05,04,35,132,,05,08,256,,15,31,189,,30,11,300,,0*79
$GBGSV,2,2,05,30,11,300,,0*42
$GNRMC,045228.00,A,3726.8309176,N,12639.2751684,E,0.003,,210622,,,R,V*0E
$GNVTG,,T,,M,0.003,N,0.005,K,D*3E
$GNGNS,045228.00,3726.8309176,N,12639.2751684,E,RRRR,28,0.59,14.532,17.840,2.0,4095,V*04
$GNGGA,045228.00,3726.8309176,N,12639.2751684,E,4,12,0.59,14.532,M,17.840,M,2.0,4095*58
$GNGSA,A,3,19,09,06,17,14,12,03,04,,,,,1.14,0.59,0.98,1*08
$GNGSA,A,3,71,72,85,87,,,,,,,,,1.14,0.59,0.98,2*0A
$GNGSA,A,3,15,01,26,03,21,08,13,,,,,,1.14,0.59,0.98,3*01
$GNGSA,A,3,14,03,10,08,28,33,27,13,07,,,,1.14,0.59,0.98,4*08
$GPGSV,3,1,12,02,18,277,21,03,27,044,39,04,26,087,37,06,56,304,43,1*6D
$GPGSV,3,2,12,09,27,123,38,11,22,272,31,12,17,318,46,14,21,185,36,1*66
$GPGSV,3,3,12,17,72,103,48,19,77,352,44,28,,,38,50,47,179,37,1*5A
$GPGSV,2,1,08,03,27,044,33,04,26,087,37,06,56,304,38,09,27,123,30,6*63
$GPGSV,2,2,08,11,22,272,22,12,17,318,35,14,21,185,38,17,72,103,41,6*60
$GPGSV,1,1,02,01,04,075,,20,12,225,,0*64
$GLGSV,2,1,06,70,25,035,24,71,56,094,49,72,33,164,39,77,25,282,09,1*72
$GNRMC,045229.00,A,3726.8309142,N,12639.2751696,E,0.011,,210622,,,R,V*08
$GNVTG,,T,,M,0.011,N,0.020,K,D*3A
$GNGNS,045229.00,3726.8309142,N,12639.2751696,E,RRRR,28,0.61,14.525,17.840,2.0,4095,V*0C
$GNGGA,045229.00,3726.8309142,N,12639.2751696,E,4,12,0.61,14.525,M,17.840,M,2.0,4095*50
$GNGSA,A,3,19,09,06,17,14,12,03,04,,,,,1.15,0.61,0.98,1*02
$GNGSA,A,3,71,72,70,85,87,,,,,,,,1.15,0.61,0.98,2*07
$GNGSA,A,3,15,01,26,03,21,08,13,,,,,,1.15,0.61,0.98,3*0B
$GNGSA,A,3,14,10,08,28,33,27,13,07,,,,,1.15,0.61,0.98,4*01
$GPGSV,3,1,12,02,18,277,19,03,27,044,39,04,26,087,37,06,56,304,43,1*66
$GPGSV,3,2,12,09,27,123,39,11,22,272,31,12,17,318,47,14,21,185,36,1*66
$GPGSV,3,3,12,17,72,103,48,19,77,352,43,28,,,39,50,47,179,36,1*5D
$GPGSV,2,1,08,03,27,044,33,04,26,087,37,06,56,304,39,09,27,123,30,6*62
$GPGSV,2,2,08,11,22,272,21,12,17,318,37,14,21,185,38,17,72,103,42,6*62
$GPGSV,1,1,02,01,04,075,,20,12,225,,0*64
$GLGSV,2,1,06,70,25,035,25,71,56,094,49,72,33,164,39,77,25,282,13,1*78
$GLGSV,2,2,06,85,21,086,34,87,30,313,38,1*7F
$GLGSV,1,1,04,71,56,094,42,72,33,164,37,77,25,282,11,85,21,086,31,3*7F
$GLGSV,1,1,03,76,16,232,,78,07,335,,86,53,038,,0*41
$GAGSV,2,1,07,01,25,306,35,03,25,061,37,08,35,120,36,13,65,353,42,2*7A
$GAGSV,2,2,07,15,32,069,36,21,40,250,45,26,28,284,18,2*46
$GAGSV,2,1,07,01,25,306,38,03,25,061,27,08,35,120,37,13,65,353,37,7*70
$GAGSV,2,2,07,15,32,069,32,21,40,250,43,26,28,284,31,7*4A
$GAGSV,1,1,03,07,12,170,,18,24,123,,27,19,194,,0*4B
$GBGSV,3,1,10,01,43,152,40,03,44,206,36,07,62,216,35,08,53,265,31,1*7E
$GBGSV,3,2,10,10,63,246,40,13,44,258,39,14,21,043,21,27,58,324,45,1*7F
$GBGSV,3,3,10,28,56,083,50,33,44,060,41,1*73
$GBGSV,2,1,08,01,43,152,40,02,28,236,38,03,44,206,32,07,62,216,38,3*74
$GBGSV,2,2,08,08,53,265,38,10,63,246,39,13,44,258,37,14,21,043,42,3*78
$GBGSV,2,1,05,04,35,132,,05,08,256,,15,31,189,,30,11,300,,0*79
$GBGSV,2,2,05,30,11,300,,0*42
$GNRMC,045230.00,A,3726.8309175,N,12639.2751665,E,0.008,,210622,,,R,V*00
$GNVTG,,T,,M,0.008,N,0.015,K,D*34
$GNGNS,045230.00,3726.8309175,N,12639.2751665,E,RRRR,28,0.61,14.526,17.840,2.0,4095,V*0F
$GNGGA,045230.00,3726.8309175,N,12639.2751665,E,4,12,0.61,14.526,M,17.840,M,2.0,4095*53
$GNGSA,A,3,19,09,06,17,14,12,03,04,,,,,1.15,0.61,0.98,1*02
$GNGSA,A,3,71,72,70,85,87,,,,,,,,1.15,0.61,0.98,2*07
$GNGSA,A,3,15,01,26,03,21,08,13,,,,,,1.15,0.61,0.98,3*0B
$GNGSA,A,3,14,10,08,28,33,27,13,07,,,,,1.15,0.61,0.98,4*01
$GPGSV,3,1,12,02,18,277,18,03,27,044,39,04,26,087,37,06,56,304,44,1*60
$GPGSV,3,2,12,09,27,123,37,11,22,272,32,12,17,318,46,14,21,185,34,1*68
$GPGSV,3,3,12,17,72,103,48,19,77,352,43,28,,,38,50,47,179,37,1*5D
$GPGSV,2,1,08,03,27,044,32,04,26,087,37,06,56,304,39,09,27,123,29,6*6B
$GPGSV,2,2,08,11,22,272,20,12,17,318,39,14,21,185,39,17,72,103,42,6*6C
$GPGSV,1,1,02,01,04,075,,20,12,225,,0*64
$GLGSV,2,1,06,70,25,035,25,71,56,094,49,72,33,164,41,77,25,282,15,1*71
$GLGSV,2,2,06,85,21,086,34,87,30,313,38,1*7F
$GLGSV,1,1,04,71,56,094,42,72,33,164,37,77,25,282,14,85,21,086,31,3*7A
$GLGSV,1,1,03,76,16,232,,78,07,335,,86,53,038,,0*41
$GAGSV,2,1,07,01,25,306,33,03,25,061,37,08,35,120,35,13,65,353,42,2*7F
$GAGSV,2,2,07,15,32,069,36,21,40,250,46,26,28,284,21,2*4F
$GAGSV,2,1,07,01,25,306,38,03,25,061,27,08,35,120,37,13,65,353,37,7*70
$GAGSV,2,2,07,15,32,069,32,21,40,250,43,26,28,284,31,7*4A
$GAGSV,1,1,03,07,12,170,,18,24,123,,27,19,194,,0*4B
$GBGSV,3,1,10,01,43,152,40,03,44,206,35,07,62,216,36,08,53,265,31,1*7E
$GBGSV,3,2,10,10,63,246,39,13,44,258,39,14,21,043,19,27,58,324,45,1*7A
$GBGSV,3,3,10,28,56,083,50,33,44,060,42,1*70
$GNRMC,045231.00,A,3726.8309156,N,12639.2751667,E,0.012,,210622,,,R,V*09
$GNVTG,,T,,M,0.012,N,0.022,K,D*3B
$GNGNS,045231.00,3726.8309156,N,12639.2751667,E,RRRR,28,0.61,14.521,17.840,2.0,4095,V*0A
$GNGGA,045231.00,3726.8309156,N,12639.2751667,E,4,12,0.61,14.521,M,17.840,M,2.0,4095*56
$GNGSA,A,3,19,09,06,17,14,12,03,04,,,,,1.15,0.61,0.98,1*02
$GNGSA,A,3,71,72,70,85,87,,,,,,,,1.15,0.61,0.98,2*07
$GNGSA,A,3,15,01,26,03,21,08,13,,,,,,1.15,0.61,0.98,3*0B
$GNGSA,A,3,14,10,08,28,33,27,13,07,,,,,1.15,0.61,0.98,4*01
$GPGSV,3,1,12,02,18,277,21,03,27,044,40,04,26,087,37,06,56,304,44,1*64
$GPGSV,3,2,12,09,27,123,37,11,22,272,31,12,17,318,43,14,21,185,35,1*6F
$GPGSV,3,3,12,17,72,103,49,19,77,352,45,28,,,37,50,47,179,37,1*55
$GPGSV,2,1,08,03,27,044,30,04,26,087,37,06,56,304,40,09,27,123,29,6*67
$GPGSV,2,2,08,11,22,272,19,12,17,318,38,14,21,185,39,17,72,103,42,6*67
$GPGSV,1,1,02,01,04,075,,20,12,225,,0*64
$GLGSV,2,1,06,70,25,035,25,71,56,094,48,72,33,164,41,77,25,282,18,1*7D
$GLGSV,2,2,06,85,21,086,35,87,30,313,40,1*71
$GLGSV,1,1,04,71,56,094,43,72,33,164,37,77,25,282,11,85,21,086,32,3*7D
$GLGSV,1,1,03,76,16,232,,78,07,335,,86,53,038,,0*41
$GAGSV,2,1,07,01,25,306,37,03,25,061,36,08,35,120,34,13,65,353,42,2*7B
$GAGSV,2,2,07,15,32,069,37,21,40,250,47,26,28,284,22,2*4C
$GAGSV,2,1,07,01,25,306,39,03,25,061,33,08,35,120,37,13,65,353,36,7*75
$GAGSV,2,2,07,15,32,069,31,21,40,250,44,26,28,284,33,7*4C
$GAGSV,1,1,03,07,12,170,,18,24,123,,27,19,194,,0*4B
$GBGSV,3,1,11,01,43,152,40,03,44,206,34,04,35,132,33,07,62,216,37,1*70
$GBGSV,3,2,11,08,53,265,32,10,63,246,39,13,44,258,36,14,21,043,21,1*7D
$GBGSV,3,3,11,27,58,324,44,28,56,083,49,33,44,060,41,1*47
$GBGSV,2,1,08,01,43,152,41,02,28,236,37,03,44,206,34,07,62,216,38,3*7C
$GBGSV,2,2,08,08,53,265,39,10,63,246,39,13,44,258,37,14,21,043,43,3*78
$GBGSV,1,1,04,05,08,256,,15,31,189,,30,11,300,,37,04,213,,0*79
$GNRMC,045232.00,A,3726.8309150,N,12639.2751675,E,0.009,,210622,,,R,V*05
$GNVTG,,T,,M,0.009,N,0.017,K,D*37
$GNGNS,045232.00,3726.8309150,N,12639.2751675,E,RRRR,28,0.61,14.543,17.840,2.0,4095,V*08
$GNGGA,045232.00,3726.8309150,N,12639.2751675,E,4,12,0.61,14.543,M,17.840,M,2.0,4095*54
$GNGSA,A,3,19,09,06,17,14,12,03,04,,,,,1.15,0.61,0.98,1*02
$GNGSA,A,3,71,72,70,85,87,,,,,,,,1.15,0.61,0.98,2*07
$GNGSA,A,3,15,01,26,03,21,08,13,,,,,,1.15,0.61,0.98,3*0B
$GNGSA,A,3,14,10,08,28,33,27,13,07,,,,,1.15,0.61,0.98,4*01
$GPGSV,3,1,12,02,18,277,23,03,27,044,40,04,26,087,38,06,56,304,44,1*69
$GPGSV,3,2,12,09,27,123,37,11,22,272,33,12,17,318,45,14,21,185,35,1*6B
$GPGSV,3,3,12,17,72,103,48,19,77,352,45,28,,,39,50,47,179,37,1*5A
$GPGSV,2,1,08,03,27,044,31,04,26,087,38,06,56,304,40,09,27,123,27,6*67
$GPGSV,2,2,08,11,22,272,18,12,17,318,39,14,21,185,38,17,72,103,41,6*65
$GPGSV,1,1,02,01,04,075,,20,12,225,,0*64
$GLGSV,2,1,06,70,25,035,25,71,56,094,48,72,33,164,41,77,25,282,08,1*7C
$GLGSV,2,2,06,85,21,086,34,87,30,313,42,1*72
$GLGSV,1,1,04,71,56,094,42,72,33,164,37,77,25,282,14,85,21,086,31,3*7A
$GLGSV,1,1,03,76,16,232,,78,07,335,,86,53,038,,0*41
$GAGSV,2,1,07,01,25,306,39,03,25,061,37,08,35,120,34,13,65,353,42,2*74
$GAGSV,2,2,07,15,32,069,37,21,40,250,47,26,28,284,22,2*4C
$GAGSV,2,1,07,01,25,306,37,03,25,061,28,08,35,120,37,13,65,353,36,7*71
$GAGSV,2,2,07,15,32,069,37,21,40,250,46,26,28,284,32,7*49
$GAGSV,1,1,03,07,12,170,,18,24,123,,27,19,194,,0*4B
$GBGSV,3,1,11,01,43,152,39,03,44,206,34,04,35,132,31,07,62,216,36,1*7D
$GBGSV,3,2,11,08,53,265,34,10,63,246,39,13,44,258,37,14,21,043,22,1*79
$GBGSV,3,3,11,27,58,324,44,28,56,083,51,33,44,060,40,1*4F
$GBGSV,2,1,08,01,43,152,40,02,28,236,39,03,44,206,34,07,62,216,36,3*7D
$GBGSV,2,2,08,08,53,265,39,10,63,246,39,13,44,258,35,14,21,043,44,3*7D
$GBGSV,1,1,04,05,08,256,,15,31,189,,30,11,300,,37,04,213,,0*79
$GNRMC,045233.00,A,3726.8309158,N,12639.2751683,E,0.008,,210622,,,R,V*04
$GNVTG,,T,,M,0.008,N,0.016,K,D*37
$GNGNS,045233.00,3726.8309158,N,12639.2751683,E,RRRR,28,0.61,14.535,17.840,1.0,4095,V*0A
$GNGSA,A,3,19,09,06,17,14,12,03,04,,,,,1.15,0.61,0.98,1*02
$GNGSA,A,3,71,72,70,85,87,,,,,,,,1.15,0.61,0.98,2*07
$GNGSA,A,3,15,01,26,03,21,08,13,,,,,,1.15,0.61,0.98,3*0B
$GNGSA,A,3,14,10,08,28,33,27,13,07,,,,,1.15,0.61,0.98,4*01
$GPGSV,3,1,12,02,18,277,25,03,27,044,40,04,26,087,38,06,56,304,44,1*6F
$GPGSV,3,2,12,09,27,123,37,11,22,272,28,12,17,318,45,14,21,185,35,1*61
$GPGSV,3,3,12,17,72,103,47,19,77,352,44,28,,,38,50,47,179,37,1*55
$GPGSV,2,1,08,03,27,044,31,04,26,087,38,06,56,304,39,09,27,123,26,6*68
$GPGSV,2,2,08,11,22,272,21,12,17,318,39,14,21,185,38,17,72,103,42,6*6C
$GPGSV,1,1,02,01,04,075,,20,12,225,,0*64
$GLGSV,2,1,06,70,25,035,25,71,56,094,47,72,33,164,41,77,25,282,11,1*7B
$GLGSV,2,2,06,85,21,086,34,87,30,313,42,1*72
$GLGSV,1,1,04,71,56,094,42,72,33,164,37,77,25,282,12,85,21,086,32,3*7F
$GLGSV,1,1,03,76,16,232,,78,07,335,,86,53,038,,0*41
$GAGSV,2,1,07,01,25,306,38,03,25,061,37,08,35,120,33,13,65,353,$GAGSV,2,2,07,15,32,069,37,21,40,250,47,26,28,284,22,2*4C
$GAGSV,2,1,07,01,25,306,38,03,25,061,28,08,35,120,35,13,65,353,37,7*7D
$GAGSV,2,2,07,15,32,069,36,21,40,250,46,26,28,284,32,7*48
$GAGSV,1,1,03,07,12,170,,18,24,123,,27,19,194,,0*4B
$GBGSV,3,1,11,01,43,152,38,03,44,206,34,04,35,132,30,07,62,216,36,1*7D
$GBGSV,3,2,11,08,53,265,35,10,63,246,39,13,44,258,38,14,21,043,25,1*70
$GBGSV,3,3,11,27,58,324,43,28,56,083,51,33,44,060,39,1*46
$GBGSV,2,1,08,01,43,152,40,02,28,236,39,03,44,206,35,07,62,216,34,3*7E
$GBGSV,2,2,08,08,53,265,38,10,63,246,40,13,44,258,35,14,21,043,44,3*72
$GBGSV,1,1,04,05,08,256,,15,31,189,,30,11,300,,37,04,213,,0*79
$GNRMC,045234.00,A,3726.8309141,N,12639.2751702,E,0.019,,210622,,,R,V*03
$GNVTG,,T,,M,0.019,N,0.035,K,D*36
$GNGNS,045234.00,3726.8309141,N,12639.2751702,E,RRRR,28,0.59,14.534,17.840,2.0,4095,V*04
$GNGGA,045234.00,3726.8309141,N,12639.2751702,E,4,12,0.59,14.534,M,17.840,M,2.0,4095*58
$GNGSA,A,3,19,09,06,17,14,12,03,04,,,,,1.14,0.59,0.98,1*08
$GNGSA,A,3,71,72,85,87,,,,,,,,,1.14,0.59,0.98,2*0A
$GNGSA,A,3,15,01,26,03,21,08,13,,,,,,1.14,0.59,0.98,3*01
$GPGSV,3,1,11,02,18,277,24,03,27,044,38,04,26,087,38,06,56,304,43,1*65
$GPGSV,3,2,11,09,27,123,36,12,17,318,43,14,21,185,30,17,72,103,48,1*60
$GPGSV,3,3,11,19,77,352,44,28,,,38,50,47,179,35,1*66
$GPGSV,2,1,08,03,27,044,33,04,26,087,38,06,56,304,40,09,27,123,27,6*65
$GPGSV,2,2,08,11,22,272,20,12,17,318,39,14,21,185,36,17,72,103,42,6*63
$GPGSV,1,1,02,01,04,075,,20,12,225,,0*64
$GLGSV,2,1,06,70,25,035,24,71,56,094,48,72,33,164,37,77,25,282,15,1*70
$GLGSV,2,2,06,85,21,086,32,87,30,313,42,1*74
$GLGSV,1,1,04,71,56,094,42,72,33,164,37,77,25,282,08,85,21,086,32,3*74
$GLGSV,1,1,03,76,16,232,,78,07,335,,86,53,038,,0*41
$GAGSV,2,1,07,01,25,306,41,03,25,061,37,08,35,120,33,13,65,353,40,2*7E
$GAGSV,2,2,07,15,32,069,35,21,40,250,48,26,28,284,20,2*43
$GAGSV,2,1,07,01,25,306,39,03,25,061,33,08,35,120,33,13,65,353,38,7*7F
$GAGSV,2,2,07,15,32,069,34,21,40,250,47,26,28,284,31,7*48
$GAGSV,1,1,03,07,12,170,,18,24,123,,27,19,194,,0*4B
$GBGSV,3,1,11,01,43,$GNRMC,045235.00,A,3726.8309146,N,12639.2751730,E,0.013,,210622,,,R,V*0E
$GNVTG,,T,,M,0.013,N,0.024,K,D*3C
$GNGNS,045235.00,3726.8309146,N,12639.2751730,E,RRRR,28,0.59,14.539,17.840,2.0,4095,V*0E
$GNGGA,045235.00,3726.8309146,N,12639.2751730,E,4,12,0.59,14.539,M,17.840,M,2.0,4095*52
$GNGSA,A,3,19,09,06,17,14,12,03,04,,,,,1.14,0.59,0.98,1*08
$GNGSA,A,3,71,72,85,87,,,,,,,,,1.14,0.59,0.98,2*0A
$GNGSA,A,3,15,01,26,03,21,08,13,,,,,,1.14,0.59,0.98,3*01
$GNGSA,A,3,14,01,10,08,28,33,27,13,07,,,,1.14,0.59,0.98,4*0A
$GPGSV,3,1,10,02,18,277,26,03,27,044,40,04,26,087,38,06,56,304,44,1*6E
$GPGSV,3,2,10,09,27,123,38,12,17,318,44,17,72,103,47,19,77,352,44,1*62
$GPGSV,3,3,10,28,,,38,50,47,179,35,1*5B
$GPGSV,2,1,08,03,27,044,33,04,26,087,38,06,56,304,40,09,27,123,27,6*65
$GPGSV,2,2,08,11,22,272,21,12,17,318,39,14,21,185,36,17,72,103,41,6*61
$GPGSV,1,1,02,01,04,075,,20,12,225,,0*64
$GLGSV,2,1,06,70,25,035,23,71,56,094,48,72,33,164,37,77,25,282,15,1*77
$GLGSV,2,2,06,85,21,086,32,87,30,313,42,1*74
$GLGSV,1,1,04,71,56,094,41,72,33,164,36,77,25,282,12,85,21,086,32,3*7D
$GLGSV,1,1,03,76,16,232,,78,07,335,,86,53,038,,0*41
$GAGSV,2,1,07,01,25,306,41,03,25,061,38,08,35,120,36,13,65,353,41,2*75
$GAGSV,2,2,07,15,32,069,36,21,40,250,48,26,28,284,18,2*4B
$GAGSV,2,1,07,01,25,306,39,03,25,061,31,08,35,120,33,13,65,353,38,7*7D
$GAGSV,2,2,07,15,32,069,35,21,40,250,47,26,28,284,31,7*49
$GAGSV,1,1,03,07,12,170,,18,24,123,,27,19,194,,0*4B
$GBGSV,3,1,11,01,43,152,37,03,44,206,32,04,35,132,29,07,62,216,37,1*7D
$GBGSV,3,2,11,08,53,265,37,10,63,246,40,13,44,258,35,14,21,043,24,1*70
$GBGSV,3,3,11,27,58,324,43,28,56,083,50,33,44,060,39,1*47
$GBGSV,2,1,08,01,43,152,41,02,28,236,41,03,44,206,35,07,62,216,34,3*70
$GBGSV,2,2,08,08,53,265,38,10,63,246,39,13,44,258,37,14,21,043,44,3*7E
$GBGSV,1,1,04,05,08,256,,15,31,189,,30,11,300,,37,04,213,,0*79
$GNRMC,045236.00,A,3726.8309186,N,12639.2751724,E,0.012,,210622,,,R,V*05
$GNVTG,,T,,M,0.012,N,0.023,K,D*3A
$GNGNS,045236.00,3726.8309186,N,12639.2751724,E,RRRR,27,0.59,14.550,17.840,2.0,4095,V*04
$GNGGA,045236.00,3726.8309186,N,12639.2751724,E,4,12,0.59,14.550,M,17.840,M,2.0,4095*57
$GNGSA,A,3,19,09,06,17,14,12,03,04,,,,,1.14,0.59,0.98,1*08
$GNGSA,A,3,71,72,85,87,,,,,,,,,1.14,0.59,0.98,2*0A
$GNGSA,A,3,15,01,26,03,21,08,13,,,,,,1.14,0.59,0.98,3*01
$GNGSA,A,3,14,01,10,08,28,33,27,13,07,,,,1.14,0.59,0.98,4*0A
$GPGSV,3,1,11,02,18,277,26,03,27,044,38,04,26,087,39,06,56,304,45,1*60
$GPGSV,3,2,11,09,27,123,35,12,17,318,41,14,21,185,29,17,72,103,45,1*64
$GPGSV,3,3,11,19,77,352,43,28,,,40,50,47,179,36,1*6D
$GPGSV,2,1,08,03,27,044,32,04,26,087,38,06,56,304,40,09,27,123,25,6*66
$GPGSV,2,2,08,11,22,272,19,12,17,318,39,14,21,185,37,17,72,103,41,6*6B
$GPGSV,1,1,02,01,04,075,,20,12,225,,0*64
$GLGSV,2,1,06,70,25,035,23,71,56,094,47,72,33,164,39,77,25,282,14,1*77
$GLGSV,2,2,06,85,21,086,32,87,30,313,41,1*77
$GLGSV,1,1,04,71,56,094,41,72,33,164,37,77,25,282,08,85,21,086,34,3*71
$GLGSV,1,1,03,76,16,232,,78,07,335,,86,53,038,,0*41
$GAGSV,2,1,07,01,25,306,40,03,25,061,34,08,35,120,35,13,65,353,43,2*79
$GAGSV,2,2,07,15,32,069,36,21,40,250,48,26,28,284,18,2*4B
$GAGSV,2,1,07,01,25,306,39,03,25,061,32,08,35,120,33,13,65,353,38,7*7E
$GAGSV,2,2,07,15,32,069,35,21,40,250,47,26,28,284,31,7*49
$GAGSV,1,1,03,07,12,170,,18,24,123,,27,19,194,,0*4B
$GBGSV,3,1,11,01,43,152,34,03,44,206,36,04,35,132,29,07,62,216,34,1*79
$GBGSV,3,2,11,08,53,265,37,10,63,246,41,13,44,258,36,14,21,043,25,1*73
$GBGSV,3,3,11,27,58,324,44,28,56,083,49,33,44,060,38,1*49
$GBGSV,2,1,08,01,43,152,41,02,28,236,42,03,44,206,35,07,62,216,33,3*74
$GBGSV,2,2,08,08,53,265,38,10,63,246,40,13,44,258,33,14,21,043,44,3*74
$GBGSV,1,1,04,05,08,256,,15,31,189,,30,11,300,,37,04,213,,0*79
$GNRMC,045237.00,A,3726.8309174,N,12639.2751715,E,0.013,,210622,,,R,V*0A
$GNVTG,,T,,M,0.013,N,0.024,K,D*3C
$GNGNS,045237.00,3726.8309174,N,12639.2751715,E,RRRR,28,0.59,14.539,17.840,2.0,4095,V*0A
$GNGGA,045237.00,3726.8309174,N,12639.2751715,E,4,12,0.59,14.539,M,17.840,M,2.0,4095*56
$GNGSA,A,3,19,09,06,17,14,12,03,04,,,,,1.14,0.59,0.98,1*08
$GNGSA,A,3,71,72,85,87,,,,,,,,,1.14,0.59,0.98,2*0A
$GNGSA,A,3,15,01,26,03,21,08,13,,,,,,1.14,0.59,0.98,3*01
$GNGSA,A,3,14,01,10,08,28,33,27,13,07,,,,1.14,0.59,0.98,4*0A
$GPGSV,3,1,11,02,18,277,23,03,27,044,40,04,26,087,39,06,56,304,44,1*6B
$GPGSV,3,2,11,09,27,123,32,12,17,318,40,14,21,185,32,17,72,103,46,1*6B
$GPGSV,3,3,11,19,77,352,44,28,,,39,50,47,179,35,1*67
$GPGSV,2,1,08,03,27,044,32,04,26,087,38,06,56,304,41,09,27,123,25,6*67
$GPGSV,2,2,08,11,22,272,18,12,17,318,39,14,21,185,38,17,72,103,41,6*65
$GPGSV,1,1,02,01,04,075,,20,12,225,,0*64
$GLGSV,2,1,06,70,25,035,22,71,56,094,47,72,33,164,39,77,25,282,11,1*73
$GLGSV,2,2,06,85,21,086,31,87,30,313,42,1*77
$GLGSV,1,1,04,71,56,094,41,72,33,164,37,77,25,282,11,85,21,086,34,3*79
$GLGSV,1,1,03,76,16,232,,78,07,335,,86,53,038,,0*41
$GAGSV,2,1,07,01,25,306,40,03,25,061,34,08,35,120,35,13,65,353,42,2*78
$GAGSV,2,2,07,15,32,069,36,21,40,250,48,26,28,284,16,2*45
$GAGSV,2,1,07,01,25,306,38,03,25,061,33,08,35,120,31,13,65,353,38,7*7C
$GAGSV,2,2,07,15,32,069,35,21,40,250,47,26,28,284,31,7*49
$GAGSV,1,1,03,07,12,170,,18,24,123,,27,19,194,,0*4B
$GBGSV,3,1,11,01,43,152,35,03,44,206,33,04,35,132,29,07,62,216,34,1*7D
$GBGSV,3,2,11,08,53,265,37,10,63,246,41,13,44,258,35,14,21,043,22,1*77
$GBGSV,3,3,11,27,58,324,44,28,56,083,50,33,44,060,39,1*40
$GBGSV,2,1,08,01,43,152,42,02,28,236,42,03,44,206,35,07,62,216,34,3*70
$GBGSV,2,2,08,08,53,265,37,10,63,246,40,13,44,258,34,14,21,043,43,3*7B
$GBGSV,1,1,04,05,08,256,,15,31,189,,30,11,300,,37,04,213,,0*79
$GNRMC,045238.00,A,3726.8309160,N,12639.2751714,E,0.016,,210622,,,R,V*04
$GNVTG,,T,,M,0.016,N,0.031,K,D*3D
$GNGNS,045238.00,3726.8309160,N,12639.2751714,E,RRRR,28,0.59,14.543,17.840,2.0,4095,V*0C
$GNGGA,045238.00,3726.8309160,N,12639.2751714,E,4,12,0.59,14.543,M,17.840,M,2.0,4095*50
$GNGSA,A,3,19,09,06,17,14,12,03,04,,,,,1.14,0.59,0.98,1*08
$GNGSA,A,3,71,72,85,87,,,,,,,,,1.14,0.59,0.98,2*0A
$GNGSA,A,3,15,01,26,03,21,08,13,,,,,,1.14,0.59,0.98,3*01
$GNGSA,A,3,14,01,10,08,28,33,27,13,07,,,,1.14,0.59,0.98,4*0A
$GPGSV,3,1,12,02,18,277,22,03,27,044,40,04,26,087,39,06,56,304,44,1*69
$GPGSV,3,2,12,09,27,123,33,11,22,272,27,12,17,318,43,14,21,185,34,1*6D
$GPGSV,3,3,12,17,72,103,45,19,77,352,43,28,,,39,50,47,179,36,1*50
$GPGSV,2,1,08,03,27,044,32,04,26,087,38,06,56,304,39,09,27,123,22,6*6F
$GPGSV,2,2,08,11,22,272,15,12,17,318,39,14,21,185,37,17,72,103,41,6*67
$GPGSV,1,1,02,01,04,075,,20,12,225,,0*64
$GLGSV,2,1,06,70,25,035,24,71,56,094,48,72,33,164,37,77,25,282,10,1*75
$GLGSV,2,2,06,85,21,086,30,87,30,313,41,1*75
$GLGSV,1,1,04,71,56,094,40,72,33,164,36,77,25,282,09,85,21,086,34,3*70
$GLGSV,1,1,03,76,16,232,,78,07,335,,86,53,038,,0*41
$GAGSV,2,1,07,01,25,306,40,03,25,061,35,08,35,120,35,13,65,353,42,2*79
$GAGSV,2,2,07,15,32,069,36,21,40,250,47,26,28,284,14,2*48
$GAGSV,2,1,07,01,25,306,37,03,25,061,33,08,35,120,30,13,65,353,37,7*7D
$GAGSV,2,2,07,15,32,069,34,21,40,250,47,26,28,284,30,7*49
$GAGSV,1,1,03,07,12,170,,18,24,123,,27,19,194,,0*4B
$GBGSV,3,1,11,01,43,152,35,03,44,206,32,04,35,132,29,07,62,216,34,1*7C
$GBGSV,3,2,11,08,53,265,35,10,63,246,40,13,44,258,35,14,21,043,25,1*73
$GBGSV,3,3,11,27,58,324,44,28,56,083,50,33,44,060,40,1*4E
$GNRMC,045239.00,A,3726.8309152,N,12639.2751701,E,0.014,,210622,,,R,V*02
$GNVTG,,T,,M,0.014,N,0.027,K,D*38
$GNGNS,045239.00,3726.8309152,N,12639.2751701,E,RRRR,28,0.59,14.530,17.840,2.0,4095,V*0C
$GNGGA,045239.00,3726.8309152,N,12639.2751701,E,4,12,0.59,14.530,M,17.840,M,2.0,4095*50
$GNGSA,A,3,19,09,06,17,14,12,03,04,,,,,1.14,0.59,0.98,1*08
$GNGSA,A,3,71,72,85,87,,,,,,,,,1.14,0.59,0.98,2*0A
$GNGSA,A,3,15,01,26,03,21,08,13,,,,,,1.14,0.59,0.98,3*01
$GNGSA,A,3,14,01,10,08,28,33,27,13,07,,,,1.14,0.59,0.98,4*0A
$GPGSV,3,1,11,02,18,277,25,03,27,044,41,04,26,087,39,06,56,304,44,1*6C
$GPGSV,3,2,11,09,27,123,33,12,17,318,44,14,21,185,34,17,72,103,45,1*6B
$GPGSV,3,3,11,19,77,352,44,28,,,37,50,47,179,35,1*69
$GPGSV,2,1,08,03,27,044,33,04,26,087,37,06,56,304,38,09,27,123,20,6*62
$GPGSV,2,2,08,11,22,272,13,12,17,318,39,14,21,185,37,17,72,103,40,6*60
$GPGSV,1,1,02,01,04,075,,20,12,225,,0*64
$GLGSV,2,1,06,70,24,035,23,71,56,094,48,72,33,164,37,77,25,282,09,1*7B
$GLGSV,2,2,06,85,21,086,31,87,30,313,42,1*77
$GLGSV,1,1,04,71,56,094,40,72,33,164,36,77,25,282,10,85,21,086,33,3*7F
$GLGSV,1,1,03,76,16,232,,78,07,335,,86,53,038,,0*41
$GAGSV,2,1,07,01,25,306,38,03,25,061,36,08,35,120,36,13,65,353,42,2*76
$GAGSV,2,2,07,15,32,069,36,21,40,250,47,26,28,284,13,2*4F
$GAGSV,2,1,07,01,25,306,37,03,25,061,32,08,35,120,30,13,65,353,37,7*7C
$GAGSV,2,2,07,15,32,069,31,21,40,250,46,26,28,284,30,7*4D
$GAGSV,1,1,03,07,12,170,,18,24,123,,27,19,194,,0*4B
$GBGSV,3,1,11,01,43,152,35,03,44,206,31,04,35,132,31,07,62,216,35,1*77
$GBGSV,3,2,11,08,53,265,36,10,63,246,40,13,44,258,36,14,21,043,26,1*70
$GBGSV,3,3,11,27,58,324,43,28,56,083,50,33,44,060,40,1*49
$GBGSV,2,1,08,01,43,152,41,02,28,236,41,03,44,206,35,07,62,216,35,3*71
$GBGSV,2,2,08,08,53,265,38,10,63,246,40,13,44,258,36,14,21,043,43,3*76
$GBGSV,1,1,04,05,08,256,,15,31,189,,30,11,300,,37,04,213,,0*79
$GNRMC,045240.00,A,3726.8309121,N,12639.2751720,E,0.014,,210622,,,R,V*0B
$GNVTG,,T,,M,0.014,N,0.026,K,D*39
$GNGNS,045240.00,3726.8309121,N,12639.2751720,E,RRRR,28,0.59,14.531,17.840,2.0,4095,V*04
$GNGGA,045240.00,3726.8309121,N,12639.2751720,E,4,12,0.59,14.531,M,17.840,M,2.0,4095*58
$GNGSA,A,3,19,09,06,17,14,12,03,04,,,,,1.14,0.59,0.98,1*08
$GNGSA,A,3,71,72,85,87,,,,,,,,,1.14,0.59,0.98,2*0A
$GNGSA,A,3,15,01,26,03,21,08,13,,,,,,1.14,0.59,0.98,3*01
$GNGSA,A,3,14,01,10,08,28,33,27,13,07,,,,1.14,0.59,0.98,4*0A
$GPGSV,3,1,11,02,18,277,26,03,27,044,39,04,26,087,39,06,56,304,44,1*60
$GPGSV,3,2,11,09,27,123,36,12,17,318,45,14,21,185,34,17,72,103,45,1*6F
$GPGSV,3,3,11,19,77,352,44,28,,,37,50,47,179,34,1*68
$GPGSV,2,1,08,03,27,044,33,04,26,087,38,06,56,304,38,09,27,123,22,6*6F
$GPGSV,2,2,08,11,22,272,10,12,17,318,39,14,21,185,38,17,72,103,40,6*6C
$GPGSV,1,1,02,01,04,075,,20,12,225,,0*64
$GLGSV,2,1,06,70,24,035,22,71,57,092,48,72,33,164,38,77,25,282,12,1*78
$GLGSV,2,2,06,85,21,086,31,87,30,313,40,1*75
$GNRMC,045241.00,A,3726.8309161,N,12639.2751717,E,0.007,,210622,,,R,V*08
$GNVTG,,T,,M,0.007,N,0.013,K,D*3D
$GNGNS,045241.00,3726.8309161,N,12639.2751717,E,RRRR,28,0.59,14.532,17.840,2.0,4095,V*06
$GNGGA,045241.00,3726.8309161,N,12639.2751717,E,4,12,0.59,14.532,M,17.840,M,2.0,4095*5A
$GNGSA,A,3,19,09,06,17,14,12,03,04,,,,,1.14,0.59,0.98,1*08
$GNGSA,A,3,71,72,85,87,,,,,,,,,1.14,0.59,0.98,2*0A
$GNGSA,A,3,15,01,26,03,21,08,13,,,,,,1.14,0.59,0.98,3*01
$GNGSA,A,3,14,01,10,08,28,33,27,13,07,,,,1.14,0.59,0.98,4*0A
$GPGSV,3,1,11,02,18,277,27,03,27,044,37,04,26,087,38,06,56,304,44,1*6E
$GPGSV,3,2,11,09,27,123,33,12,17,318,40,14,21,185,34,17,72,103,45,1*6F
$GPGSV,3,3,11,19,77,352,43,28,,,37,50,47,179,36,1*6D
$GPGSV,2,1,08,03,27,044,32,04,26,087,37,06,56,304,39,09,27,123,21,6*63
$GPGSV,2,2,08,11,22,272,14,12,17,318,38,14,21,185,37,17,72,103,40,6*66
$GPGSV,1,1,02,01,04,075,,20,12,225,,0*64
$GLGSV,2,1,06,70,24,035,22,71,57,092,48,72,35,164,37,77,25,282,13,1*70
$GLGSV,2,2,06,85,21,086,32,87,30,313,41,1*77
$GLGSV,1,1,04,71,57,092,40,72,35,164,37,77,25,282,09,85,21,086,34,3*70
$GLGSV,1,1,03,76,16,232,,78,07,335,,86,53,038,,0*41
$GAGSV,2,1,06,01,25,306,40,03,25,061,35,08,35,120,36,13,65,353,42,2*7B
$GAGSV,2,2,06,15,32,069,36,21,40,250,48,2*73
$GAGSV,2,1,07,01,25,306,38,03,25,061,32,08,35,120,31,13,65,353,36,7*73
$GAGSV,2,2,07,15,32,069,32,21,40,250,46,26,28,284,32,7*4C
$GAGSV,1,1,03,07,12,170,,18,24,123,,27,19,194,,0*4B
$GBGSV,3,1,11,01,43,152,35,03,44,206,32,04,35,132,31,07,62,216,34,1*75
$GBGSV,3,2,11,08,53,265,36,10,63,246,40,13,44,258,36,14,21,043,27,1*71
$GBGSV,3,3,11,27,58,324,44,28,56,083,50,33,44,060,42,1*4C
$GBGSV,2,1,08,01,43,152,41,02,28,236,41,03,44,206,35,07,62,216,36,3*72
$GBGSV,2,2,08,08,53,265,38,10,63,246,40,13,44,258,36,14,21,043,42,3*77
$GBGSV,1,1,04,05,08,256,,15,31,189,,30,11,300,,37,04,213,,0*79
$GNRMC,045242.00,A,3726.8309160,N,12639.2751692,E,0.004,,210622,,,R,V*05
$GNVTG,,T,,M,0.004,N,0.008,K,D*34
$GNGNS,045242.00,3726.8309160,N,12639.2751692,E,RRRR,28,0.59,14.536,17.840,2.0,4095,V*0C
$GNGGA,045242.00,3726.8309160,N,12639.2751692,E,4,12,0.59,14.536,M,17.840,M,2.0,4095*50
$GNGSA,A,3,19,09,06,17,14,12,03,04,,,,,1.14,0.59,0.98,1*08
$GPGSV,3,1,11,02,18,277,28,03,27,044,39,04,26,087,40,06,56,304,44,1*60
$GPGSV,3,2,11,09,27,123,34,12,17,318,43,14,21,185,30,17,72,103,47,1*6D
$GPGSV,3,3,11,19,77,352,43,28,,,37,50,47,179,36,1*6D
$GPGSV,2,1,08,03,27,044,32,04,26,087,37,06,56,304,38,09,27,123,20,6*63
$GPGSV,2,2,08,11,22,272,18,12,17,318,38,14,21,185,37,17,72,103,40,6*6A
$GPGSV,1,1,02,01,04,075,,20,12,225,,0*64
$GLGSV,2,1,06,70,24,035,23,71,57,092,48,72,35,164,36,77,25,282,13,1*70
$GLGSV,2,2,06,85,21,086,27,87,30,313,42,1*70
$GLGSV,1,1,04,71,57,092,40,72,35,164,37,77,25,282,08,85,21,086,32,3*77
$GLGSV,1,1,03,76,16,232,,78,07,335,,86,53,038,,0*41
$GAGSV,2,1,06,01,25,306,38,03,25,061,34,08,35,120,36,13,65,353,42,2*75
$GAGSV,2,2,06,15,32,069,36,21,40,250,47,2*7C
$GAGSV,2,1,07,01,25,306,38,03,25,061,32,08,35,120,32,13,65,353,36,7*70
$GAGSV,2,2,07,15,32,069,32,21,40,250,46,26,28,284,33,7*4D
$GAGSV,1,1,03,07,12,170,,18,24,123,,27,19,194,,0*4B
$GBGSV,3,1,11,01,43,152,38,03,44,206,32,04,35,132,30,07,62,216,34,1*79
$GBGSV,3,2,11,08,53,265,35,10,63,246,39,13,44,258,37,14,21,043,27,1*7D
$GBGSV,3,3,11,27,58,324,43,28,56,083,50,33,44,060,42,1*4B
$GBGSV,2,1,08,01,43,152,40,02,28,236,39,03,44,206,35,07,62,216,36,3*7C
$GBGSV,2,2,08,08,53,265,38,10,63,246,40,13,44,258,36,14,21,043,44,3*71
$GBGSV,1,1,04,05,08,256,,15,31,189,,30,11,300,,37,04,213,,0*79
$GNRMC,045243.00,A,3726.8309182,N,12639.2751700,E,0.009,,210622,,,R,V*0F
$GNVTG,,T,,M,0.009,N,0.016,K,D*36
$GNGNS,045243.00,3726.8309182,N,12639.2751700,E,RRRR,28,0.59,14.545,17.840,2.0,4095,V*0F
$GNGGA,045243.00,3726.8309182,N,12639.2751700,E,4,12,0.59,14.545,M,17.840,M,2.0,4095*53
$GNGSA,A,3,19,09,06,17,14,12,03,04,,,,,1.14,0.59,0.98,1*08
$GNGSA,A,3,71,72,85,87,,,,,,,,,1.14,0.59,0.98,2*0A
$GNGSA,A,3,15,01,26,03,21,08,13,,,,,,1.14,0.59,0.98,3*01
$GNGSA,A,3,14,01,10,08,28,33,27,13,07,,,,1.14,0.59,0.98,4*0A
$GPGSV,3,1,11,02,18,277,27,03,27,044,40,04,26,087,39,06,56,304,45,1*6E
$GPGSV,3,2,11,09,27,123,34,12,17,318,42,14,21,185,30,17,72,103,46,1*6D
$GPGSV,3,3,11,19,77,352,44,28,,,34,50,47,179,36,1*69
$GPGSV,2,1,08,03,27,044,32,04,26,087,37,06,56,304,38,09,27,123,22,6*61
$GPGSV,2,2,08,11,22,272,19,12,17,318,38,14,21,185,37,17,72,103,40,6*6B
$GPGSV,1,1,02,01,04,075,,20,12,225,,0*64
$GLGSV,2,1,06,70,24,035,22,71,57,092,48,72,35,164,37,77,25,282,13,1*70
$GLGSV,2,2,06,85,21,086,27,87,30,313,41,1*73
$GLGSV,1,1,04,71,57,092,41,72,35,164,37,77,25,282,09,85,21,086,32,3*77
$GLGSV,1,1,03,76,16,232,,78,07,335,,86,53,038,,0*41
$GAGSV,2,1,06,01,25,306,38,03,25,061,35,08,35,120,36,13,65,353,42,2*74
$GAGSV,2,2,06,15,32,069,37,21,40,250,48,2*72
$GAGSV,2,1,07,01,25,306,39,03,25,061,27,08,35,120,34,13,65,353,36,7*73
$GAGSV,2,2,07,15,32,069,32,21,40,250,47,26,28,284,33,7*4C
$GAGSV,1,1,03,07,12,170,,18,24,123,,27,19,194,,0*4B
$GBGSV,3,1,11,01,43,152,37,03,44,206,32,04,35,132,31,07,62,216,36,1*75
$GBGSV,3,2,11,08,53,265,35,10,63,246,39,13,44,258,37,14,21,043,26,1*7C
$GBGSV,3,3,11,27,58,324,43,28,56,083,50,33,44,060,42,1*4B
$GBGSV,2,1,08,01,43,152,41,02,28,236,39,03,44,206,35,07,62,216,35,3*7E
$GBGSV,2,2,08,08,53,265,38,10,63,246,40,13,44,258,37,14,21,043,43,3*77
$GBGSV,1,1,04,05,08,256,,15,31,189,,30,11,300,,37,04,213,,0*79
$GNRMC,045244.00,A,3726.8309187,N,12639.2751717,E,0.011,,210622,,,R,V*02
$GNVTG,,T,,M,0.011,N,0.020,K,D*3A
$GNGNS,045244.00,3726.8309187,N,12639.2751717,E,RRRR,28,0.59,14.548,17.840,2.0,4095,V*06
$GNGGA,045244.00,3726.8309187,N,12639.2751717,E,4,12,0.59,14.548,M,17.840,M,2.0,4095*5A
$GNGSA,A,3,19,09,06,17,14,12,03,04,,,,,1.14,0.59,0.98,1*08
$GNGSA,A,3,71,72,85,87,,,,,,,,,1.14,0.59,0.98,2*0A
$GNGSA,A,3,15,01,26,03,21,08,13,,,,,,1.14,0.59,0.98,3*01
$GNGSA,A,3,14,01,10,08,28,33,27,13,07,,,,1.14,0.59,0.98,4*0A
$GPGSV,3,1,11,02,18,277,27,03,27,044,38,04,26,087,39,06,56,304,44,1*60
$GPGSV,3,2,11,09,27,123,33,12,17,318,43,14,21,185,34,17,72,103,45,1*6C
$GPGSV,3,3,11,19,77,352,43,28,,,37,50,47,179,36,1*6D
$GPGSV,2,1,08,03,27,044,32,04,26,087,38,06,56,304,38,09,27,123,23,6*6F
$GPGSV,2,2,08,11,22,272,22,12,17,318,39,14,21,185,37,17,72,103,40,6*62
$GPGSV,1,1,02,01,04,075,,20,12,225,,0*64
$GLGSV,2,1,06,70,24,035,22,71,57,092,48,72,35,164,39,77,25,282,13,1*7E
$GLGSV,2,2,06,85,21,086,27,87,30,313,42,1*70
$GLGSV,1,1,04,71,57,092,40,72,35,164,37,77,25,282,08,85,21,086,34,3*71
$GLGSV,1,1,03,76,16,232,,78,07,335,,86,53,038,,0*41
$GAGSV,2,1,06,01,25,306,38,03,25,061,34,08,35,120,36,13,65,353,42,2*75
$GAGSV,2,2,06,15,32,069,37,21,40,250,48,2*72
$GAGSV,2,1,07,01,25,306,40,03,25,061,32,08,35,120,34,13,65,353,36,7*79
$GAGSV,2,2,07,15,32,069,34,21,40,250,47,26,28,284,34,7*4D
$GAGSV,1,1,03,07,12,170,,18,24,123,,27,19,194,,0*4B
$GBGSV,3,1,11,01,43,152,35,03,44,206,33,04,35,132,31,07,62,216,34,1*74
$GBGSV,3,2,11,08,53,265,35,10,63,246,40,13,44,258,37,14,21,043,28,1*7C
$GBGSV,3,3,11,27,58,324,44,28,56,083,50,33,44,060,42,1*4C
$GBGSV,2,1,08,01,43,152,41,02,28,236,40,03,44,206,35,07,62,216,35,3*70
$GBGSV,2,2,08,08,53,265,38,10,63,246,41,13,44,258,37,14,21,043,43,3*76
$GNRMC,045245.00,A,3726.8309180,N,12639.2751685,E,0.015,,210622,,,R,V*0A
$GNVTG,,T,,M,0.015,N,0.027,K,D*39
$GNGNS,045245.00,3726.8309180,N,12639.2751685,E,RRRR,28,0.59,14.545,17.840,2.0,4095,V*07
$GNGGA,045245.00,3726.8309180,N,12639.2751685,E,4,12,0.59,14.545,M,17.840,M,2.0,4095*5B
$GNGSA,A,3,19,09,06,17,14,12,03,04,,,,,1.14,0.59,0.98,1*08
$GNGSA,A,3,71,72,85,87,,,,,,,,,1.14,0.59,0.98,2*0A
$GNGSA,A,3,15,01,26,03,21,08,13,,,,,,1.14,0.59,0.98,3*01
$GNGSA,A,3,14,01,10,08,28,33,27,13,07,,,,1.14,0.59,0.98,4*0A
$GPGSV,3,1,11,02,18,277,26,03,27,044,38,04,26,087,39,06,56,304,44,1*61
$GPGSV,3,2,11,09,27,123,33,12,17,318,43,14,21,185,33,17,72,103,44,1*6A
$GPGSV,3,3,11,19,77,352,43,28,,,38,50,47,179,35,1*61
$GPGSV,2,1,08,03,27,044,32,04,26,087,37,06,56,304,38,09,27,123,25,6*66
$GPGSV,2,2,08,11,22,272,24,12,17,318,39,14,21,185,38,17,72,103,40,6*6B
$GPGSV,1,1,02,01,04,075,,20,12,225,,0*64
$GLGSV,2,1,06,70,24,035,22,71,57,092,48,72,35,164,38,77,25,282,14,1*78
$GLGSV,2,2,06,85,21,086,26,87,30,313,42,1*71
$GLGSV,1,1,04,71,57,092,40,72,35,164,37,77,25,282,08,85,21,086,33,3*76
$GLGSV,1,1,03,76,15,231,,78,07,335,,86,53,038,,0*41
$GAGSV,2,1,06,01,25,306,38,03,25,061,34,08,35,120,37,13,65,353,42,2*74
$GAGSV,2,2,06,15,32,069,38,21,40,250,47,2*72
$GAGSV,2,1,07,01,25,306,38,03,25,061,32,08,35,120,33,13,65,353,36,7*71
$GAGSV,2,2,07,15,32,069,34,21,40,250,46,26,28,284,33,7*4B
$GAGSV,1,1,03,07,12,170,,18,24,123,,27,19,194,,0*4B
$GBGSV,3,1,11,01,43,152,37,03,44,206,33,04,35,132,31,07,62,216,34,1*76
$GBGSV,3,2,11,08,53,265,34,10,63,246,40,13,44,258,38,14,21,043,29,1*73
$GBGSV,3,3,11,27,58,324,44,28,56,083,50,33,44,060,42,1*4C
$GBGSV,2,1,08,01,43,152,40,02,28,236,40,03,44,206,34,07,62,216,35,3*70
$GBGSV,2,2,08,08,53,265,38,10,63,246,40,13,44,258,37,14,21,043,43,3*77
$GBGSV,1,1,04,05,08,256,,15,31,189,,30,11,300,,37,04,213,,0*79
$GNRMC,045246.00,A,3726.8309184,N,12639.2751727,E,0.023,,210622,,,R,V*01
$GNVTG,,T,,M,0.023,N,0.042,K,D*3F
$GNGNS,045246.00,3726.8309184,N,12639.2751727,E,RRRR,28,0.59,14.547,17.840,2.0,4095,V*0B
$GNGGA,045246.00,3726.8309184,N,12639.2751727,E,4,12,0.59,14.547,M,17.840,M,2.0,4095*57
$GNGSA,A,3,19,09,06,17,14,12,03,04,,,,,1.14,0.59,0.98,1*08
$GNGSA,A,3,71,72,85,87,,,,,,,,,1.14,0.59,0.98,2*0A
$GNGSA,A,3,15,01,26,03,21,08,13,,,,,,1.14,0.59,0.98,3*01
$GNGSA,A,3,14,01,10,08,28,33,27,13,07,,,,1.14,0.59,0.98,4*0A
$GPGSV,3,1,12,02,18,277,26,03,27,044,38,04,26,087,39,06,56,304,45,1*63
$GPGSV,3,2,12,09,27,123,36,11,22,272,30,12,17,318,44,14,21,185,32,1*6F
$GPGSV,3,3,12,17,72,103,45,19,77,352,44,28,,,37,50,47,179,35,1*5A
$GPGSV,2,1,08,03,27,044,33,04,26,087,37,06,56,304,38,09,27,123,26,6*64
$GPGSV,2,2,08,11,22,272,22,12,17,318,38,14,21,185,38,17,72,103,40,6*6C
$GPGSV,1,1,02,01,04,075,,20,12,225,,0*64
$GLGSV,2,1,06,70,24,035,22,71,57,092,48,72,35,164,38,77,24,281,12,1*7C
$GLGSV,2,2,06,85,21,086,24,87,30,313,42,1*73
$GLGSV,1,1,04,71,57,092,41,72,35,164,37,77,24,281,09,85,21,086,33,3*74
$GLGSV,1,1,03,76,15,231,,78,07,335,,86,53,038,,0*41
$GAGSV,2,1,06,01,25,306,39,03,25,061,34,08,35,120,37,13,65,353,42,2*75
$GAGSV,2,2,06,15,32,069,38,21,40,250,47,2*72
$GAGSV,2,1,07,01,25,306,39,03,25,061,31,08,35,120,33,13,65,353,36,7*73
$GAGSV,2,2,07,15,32,069,34,21,40,250,46,26,28,284,33,7*4B
$GAGSV,1,1,03,07,12,170,,18,24,123,,27,19,194,,0*4B
$GBGSV,3,1,11,01,43,152,37,03,44,206,34,04,35,132,31,07,62,216,34,1*71
$GBGSV,3,2,11,08,53,265,33,10,63,246,39,13,44,258,39,14,21,043,28,1*7A
$GBGSV,3,3,11,27,58,324,43,28,56,083,50,33,44,060,42,1*4B
$GBGSV,2,1,08,01,43,152,40,02,28,236,40,03,44,206,34,07,62,216,35,3*70
$GBGSV,2,2,08,08,53,265,38,10,63,246,40,13,44,258,37,14,21,043,43,3*77
$GNRMC,045247.00,A,3726.8309186,N,12639.2751721,E,0.018,,210622,,,R,V*0C
$GNVTG,,T,,M,0.018,N,0.033,K,D*31
$GNGNS,045247.00,3726.8309186,N,12639.2751721,E,RRRR,28,0.59,14.559,17.840,2.0,4095,V*01
$GNGGA,045247.00,3726.8309186,N,12639.2751721,E,4,12,0.59,14.559,M,17.840,M,2.0,4095*5D
$GNGSA,A,3,19,09,06,17,14,12,03,04,,,,,1.14,0.59,0.98,1*08
$GNGSA,A,3,71,72,85,87,,,,,,,,,1.14,0.59,0.98,2*0A
$GNGSA,A,3,15,01,26,03,21,08,13,,,,,,1.14,0.59,0.98,3*01
$GNGSA,A,3,14,01,10,08,28,33,27,13,07,,,,1.14,0.59,0.98,4*0A
$GPGSV,3,1,12,02,18,277,28,03,27,044,38,04,26,087,39,06,56,304,45,1*6D
$GPGSV,3,2,12,09,27,123,35,11,22,272,30,12,17,318,44,14,21,185,36,1*68
$GPGSV,3,3,12,17,72,103,45,19,77,352,44,28,,,37,50,47,179,35,1*5A
$GPGSV,2,1,08,03,27,044,33,04,26,087,37,06,56,304,37,09,27,123,27,6*6A
$GPGSV,2,2,08,11,22,272,21,12,17,318,38,14,21,185,38,17,72,103,40,6*6F
$GPGSV,1,1,02,01,04,075,,20,12,225,,0*64
$GLGSV,2,1,06,70,24,035,23,71,57,092,48,72,35,164,39,77,24,281,13,1*7D
$GLGSV,2,2,06,85,21,086,21,87,30,313,41,1*75
$GLGSV,1,1,04,71,57,092,41,72,35,164,37,77,24,281,18,85,21,086,33,3*74
$GLGSV,1,1,03,76,15,231,,78,08,334,,86,53,038,,0*4F
$GAGSV,2,1,06,01,25,306,39,03,25,061,34,08,35,120,36,13,65,353,42,2*74
$GAGSV,2,2,06,15,32,069,38,21,40,250,47,2*72
$GAGSV,2,1,07,01,25,306,39,03,25,061,31,08,35,120,32,13,65,353,36,7*72
$GAGSV,2,2,07,15,32,069,34,21,40,250,47,26,28,284,32,7*4B
$GAGSV,1,1,03,07,12,170,,18,24,123,,27,19,194,,0*4B
$GBGSV,3,1,11,01,43,152,37,03,44,206,34,04,35,132,30,07,62,216,34,1*70
$GBGSV,3,2,11,08,53,265,33,10,63,246,39,13,44,258,38,14,21,043,28,1*7B
$GBGSV,3,3,11,27,58,324,44,28,56,083,50,33,44,060,42,1*4C
$GBGSV,2,1,08,01,43,152,41,02,28,236,40,03,44,206,33,07,62,216,35,3*76
$GBGSV,2,2,08,08,53,265,38,10,63,246,40,13,44,258,37,14,21,043,43,3*77
$GNRMC,045248.00,A,3726.8309151,N,12639.2751717,E,0.009,,210622,,,R,V*0C
$GNVTG,,T,,M,0.009,N,0.017,K,D*37
$GNGNS,045248.00,3726.8309151,N,12639.2751717,E,RRRR,28,0.59,14.552,17.840,2.0,4095,V*0A
$GNGGA,045248.00,3726.8309151,N,12639.2751717,E,4,12,0.59,14.552,M,17.840,M,2.0,4095*56
$GNGSA,A,3,19,09,06,17,14,12,03,04,,,,,1.14,0.59,0.98,1*08
$GNGSA,A,3,71,72,85,87,,,,,,,,,1.14,0.59,0.98,2*0A
$GNGSA,A,3,15,01,26,03,21,08,13,,,,,,1.14,0.59,0.98,3*01
$GNGSA,A,3,14,01,10,08,28,33,27,13,07,,,,1.14,0.59,0.98,4*0A
$GPGSV,3,1,12,02,18,277,29,03,27,044,36,04,26,087,39,06,56,304,45,1*62
$GPGSV,3,2,12,09,27,123,35,11,22,272,29,12,17,318,44,14,21,185,36,1*60
$GPGSV,3,3,12,17,72,103,44,19,77,352,43,28,,,36,50,47,179,35,1*5D
$GPGSV,2,1,08,03,27,044,33,04,26,087,37,06,56,304,37,09,27,123,28,6*65
$GPGSV,2,2,08,11,22,272,20,12,17,318,38,14,21,185,38,17,72,103,40,6*6E
$GPGSV,1,1,02,01,04,075,,20,12,225,,0*64
$GLGSV,2,1,06,70,24,035,23,71,57,092,48,72,35,164,40,77,24,281,09,1*78
$GLGSV,2,2,06,85,21,086,20,87,30,313,43,1*76
$GLGSV,1,1,04,71,57,092,40,72,35,164,37,77,24,281,13,85,21,086,34,3*79
$GLGSV,1,1,03,76,15,231,,78,08,334,,86,53,038,,0*4F
$GAGSV,2,1,06,01,25,306,38,03,25,061,34,08,35,120,35,13,65,353,42,2*76
$GAGSV,2,2,06,15,32,069,37,21,40,250,47,2*7D
$GAGSV,2,1,07,01,25,306,38,03,25,061,31,08,35,120,33,13,65,353,33,7*77
$GAGSV,2,2,07,15,32,069,32,21,40,250,46,26,28,284,32,7*4C
$GAGSV,1,1,03,07,12,170,,18,24,123,,27,19,194,,0*4B
$GBGSV,3,1,11,01,43,152,36,03,44,206,34,04,35,132,30,07,62,216,34,1*71
$GBGSV,3,2,11,08,53,265,34,10,63,246,40,13,44,258,38,14,21,043,27,1*7D
$GBGSV,3,3,11,27,58,324,44,28,56,083,50,33,44,060,42,1*4C
$GBGSV,2,2,08,08,53,265,38,10,63,246,40,13,44,258,37,14,21,043,43,3*77
$GBGSV,1,1,04,05,08,256,,15,31,189,,30,11,300,,37,04,213,,0*79
$GNRMC,045249.00,A,3726.8309126,N,12639.2751714,E,0.013,,210622,,,R,V*05
$GNVTG,,T,,M,0.013,N,0.024,K,D*3C
$GNGNS,045249.00,3726.8309126,N,12639.2751714,E,RRRR,28,0.59,14.551,17.840,2.0,4095,V*0B
$GNGGA,045249.00,3726.8309126,N,12639.2751714,E,4,12,0.59,14.551,M,17.840,M,2.0,4095*57
$GNGSA,A,3,19,09,06,17,14,12,03,04,,,,,1.14,0.59,0.98,1*08
$GNGSA,A,3,71,72,85,87,,,,,,,,,1.14,0.59,0.98,2*0A
$GNGSA,A,3,15,01,26,03,21,08,13,,,,,,1.14,0.59,0.98,3*01
$GNGSA,A,3,14,01,10,08,28,33,27,13,07,,,,1.14,0.59,0.98,4*0A
$GPGSV,3,1,11,02,18,277,29,03,27,044,38,04,26,087,39,06,56,304,45,1*6F
$GPGSV,3,2,11,09,27,123,35,12,17,318,44,14,21,185,33,17,72,103,45,1*6A
$GPGSV,3,3,11,19,77,352,44,28,,,38,50,47,179,35,1*66
$GPGSV,2,1,08,03,27,044,33,04,26,087,37,06,56,304,38,09,27,123,29,6*6B
$GPGSV,2,2,08,11,22,272,19,12,17,318,38,14,21,185,38,17,72,103,40,6*64
$GPGSV,1,1,02,01,04,075,,20,12,225,,0*64
$GLGSV,2,1,06,70,24,035,23,71,57,092,48,72,35,164,40,77,24,281,11,1*71
$GLGSV,2,2,06,85,21,086,18,87,30,313,43,1*7D
$GLGSV,1,1,04,71,57,092,40,72,35,164,37,77,24,281,12,85,21,086,33,3*7F
$GLGSV,1,1,03,76,15,231,,78,08,334,,86,53,038,,0*4F
$GAGSV,2,1,06,01,25,306,38,03,25,061,34,08,35,120,35,13,65,353,43,2*77
$GAGSV,2,2,06,15,32,069,37,21,40,250,47,2*7D
$GAGSV,2,1,07,01,25,306,40,03,25,061,30,08,35,120,32,13,65,353,34,7*7F
$GAGSV,2,2,07,15,32,069,32,21,40,250,46,26,28,284,32,7*4C
$GAGSV,1,1,03,07,12,170,,18,24,123,,27,19,194,,0*4B
$GBGSV,3,1,12,01,43,152,36,02,28,236,31,03,44,206,33,04,35,132,32,1*7B
$GBGSV,3,2,12,07,62,216,34,08,53,265,32,10,63,246,39,13,44,258,38,1*73
$GBGSV,3,3,12,14,21,043,27,27,58,324,45,28,56,083,50,33,44,060,42,1*7A
$GNRMC,045250.00,A,3726.8309124,N,12639.2751686,E,0.016,,210622,,,R,V*00
$GNVTG,,T,,M,0.016,N,0.029,K,D*34
$GNGNS,045250.00,3726.8309124,N,12639.2751686,E,RRRR,28,0.59,14.546,17.840,2.0,4095,V*0D
$GNGGA,045250.00,3726.8309124,N,12639.2751686,E,4,12,0.59,14.546,M,17.840,M,2.0,4095*51
$GNGSA,A,3,19,09,06,17,14,12,03,04,,,,,1.14,0.59,0.98,1*08
$GNGSA,A,3,71,72,85,87,,,,,,,,,1.14,0.59,0.98,2*0A
$GNGSA,A,3,15,01,26,03,21,08,13,,,,,,1.14,0.59,0.98,3*01
$GNGSA,A,3,14,01,10,08,28,33,27,13,07,,,,1.14,0.59,0.98,4*0A
$GPGSV,3,1,11,02,18,277,29,03,27,044,38,04,26,087,39,06,56,304,44,1*6E
$GPGSV,3,2,11,09,27,123,33,12,17,318,44,14,21,185,34,17,72,103,44,1*6A
$GPGSV,3,3,11,19,77,352,43,28,,,38,50,47,179,35,1*61
$GPGSV,2,1,08,03,27,044,33,04,26,087,36,06,56,304,37,09,27,123,29,6*65
$GPGSV,2,2,08,11,22,272,18,12,17,318,38,14,21,185,38,17,72,103,39,6*6B
$GPGSV,1,1,02,01,04,075,,20,12,225,,0*64
$GLGSV,2,1,06,70,24,035,23,71,57,092,48,72,35,164,38,77,24,281,13,1*7C
$GLGSV,2,2,06,85,21,086,18,87,30,313,42,1*7C
$GLGSV,1,1,04,71,57,092,40,72,35,164,37,77,24,281,10,85,21,086,33,3*7D
$GLGSV,1,1,03,76,15,231,,78,08,334,,86,53,038,,0*4F
$GAGSV,2,1,07,01,25,306,38,03,25,061,35,08,35,120,36,13,65,353,43,2*74
$GAGSV,2,2,07,15,32,069,37,21,40,250,47,26,28,284,16,2*4B
$GAGSV,2,1,07,01,25,306,39,03,25,061,29,08,35,120,32,13,65,353,35,7*78
$GAGSV,2,2,07,15,32,069,33,21,40,250,46,26,28,284,32,7*4D
$GAGSV,1,1,03,07,12,170,,18,24,123,,27,19,194,,0*4B
$GBGSV,3,1,12,01,43,152,36,02,28,236,29,03,44,206,33,04,35,132,33,1*73
$GBGSV,3,2,12,07,62,216,33,08,53,265,33,10,63,246,39,13,44,258,37,1*7A
$GBGSV,3,3,12,14,21,043,27,27,58,324,44,28,56,083,50,33,44,060,42,1*7B
$GBGSV,2,1,08,01,43,152,42,02,28,236,39,03,44,206,35,07,62,216,36,3*7E
$GBGSV,2,2,08,08,53,265,38,10,63,246,40,13,44,258,37,14,21,043,44,3*70
$GBGSV,1,1,04,05,08,256,,15,31,189,,30,11,300,,37,04,213,,0*79
$GNRMC,045251.00,A,3726.8309102,N,12639.2751707,E,0.011,,210622,,,R,V*0A
$GNVTG,,T,,M,0.011,N,0.020,K,D*3A
$GNGNS,045251.00,3726.8309102,N,12639.2751707,E,RRRR,28,0.59,14.547,17.840,2.0,4095,V*01
$GNGGA,045251.00,3726.8309102,N,12639.2751707,E,4,12,0.59,14.547,M,17.840,M,2.0,4095*5D
$GNGSA,A,3,19,09,06,17,14,12,03,04,,,,,1.14,0.59,0.98,1*08
$GNGSA,A,3,71,72,85,87,,,,,,,,,1.14,0.59,0.98,2*0A
$GNGSA,A,3,15,01,26,03,21,08,13,,,,,,1.14,0.59,0.98,3*01
$GNGSA,A,3,14,01,10,08,28,33,27,13,07,,,,1.14,0.59,0.98,4*0A
$GPGSV,3,1,12,02,18,277,30,03,27,044,38,04,26,087,39,06,56,304,44,1*65
$GPGSV,3,2,12,09,27,123,36,11,22,272,27,12,17,318,44,14,21,185,34,1*6F
$GPGSV,3,3,12,17,72,103,44,19,77,352,42,28,,,37,50,47,179,36,1*5E
$GPGSV,2,1,08,03,27,044,34,04,26,087,35,06,56,304,36,09,27,123,28,6*61
$GPGSV,2,2,08,11,22,272,17,12,17,318,37,14,21,185,38,17,72,103,39,6*6B
$GPGSV,1,1,02,01,04,075,,20,12,225,,0*64
$GLGSV,2,1,06,70,24,035,24,71,57,092,48,72,35,164,40,77,24,281,14,1*73
$GLGSV,2,2,06,85,21,086,21,87,30,313,43,1*77
$GLGSV,1,1,04,71,57,092,40,72,35,164,37,77,24,281,12,85,21,086,32,3*7E
$GLGSV,1,1,03,76,15,231,,78,08,334,,86,53,038,,0*4F
$GAGSV,2,1,07,01,25,306,38,03,25,061,35,08,35,120,36,13,65,353,41,2*76
$GAGSV,2,2,07,15,32,069,38,21,40,250,47,26,28,284,17,2*45
$GAGSV,2,1,07,01,25,306,39,03,25,061,30,08,35,120,33,13,65,353,34,7*70
$GAGSV,2,2,07,15,32,069,36,21,40,250,45,26,28,284,33,7*4A
$GAGSV,1,1,03,07,12,170,,18,24,123,,27,19,194,,0*4B
$GBGSV,3,1,12,01,43,152,35,02,28,236,29,03,44,206,34,04,35,132,33,1*77
$GBGSV,3,2,12,07,62,216,34,08,53,265,32,10,63,246,40,13,44,258,38,1*7D
$GBGSV,3,3,12,14,21,043,26,27,58,324,45,28,56,083,50,33,44,060,41,1*78
$GBGSV,2,1,08,01,43,152,41,02,28,236,39,03,44,206,33,07,62,216,36,3*7B
$GNRMC,045252.00,A,3726.8309122,N,12639.2751707,E,0.011,,210622,,,R,V*0B
$GNVTG,,T,,M,0.011,N,0.020,K,D*3A
$GNGNS,045252.00,3726.8309122,N,12639.2751707,E,RRRR,28,0.59,14.554,17.840,2.0,4095,V*02
$GNGGA,045252.00,3726.8309122,N,12639.2751707,E,4,12,0.59,14.554,M,17.840,M,2.0,4095*5E
$GNGSA,A,3,19,09,06,17,14,12,03,04,,,,,1.14,0.59,0.98,1*08
$GNGSA,A,3,71,72,85,87,,,,,,,,,1.14,0.59,0.98,2*0A
$GNGSA,A,3,15,01,26,03,21,08,13,,,,,,1.14,0.59,0.98,3*01
$GNGSA,A,3,14,01,10,08,28,33,27,13,07,,,,1.14,0.59,0.98,4*0A
$GPGSV,3,1,12,02,18,277,29,03,27,044,37,04,26,087,39,06,56,304,44,1*62
$GPGSV,3,2,12,09,27,123,36,11,22,272,26,12,17,318,44,14,21,185,33,1*69
$GPGSV,3,3,12,17,72,103,44,19,77,352,41,28,,,34,50,47,179,36,1*5E
$GPGSV,2,1,08,03,27,044,34,04,26,087,35,06,56,304,35,09,27,123,28,6*62
$GPGSV,2,2,08,11,22,272,17,12,17,318,36,14,21,185,37,17,72,103,39,6*65
$GPGSV,1,1,02,01,04,075,,20,12,225,,0*64
$GLGSV,2,1,06,70,24,035,23,71,57,092,48,72,35,164,40,77,24,281,10,1*70
$GLGSV,2,2,06,85,21,086,26,87,30,313,42,1*71
$GLGSV,1,1,04,71,57,092,40,72,35,164,38,77,24,281,16,85,21,086,32,3*75
$GLGSV,1,1,03,76,15,231,,78,08,334,,86,53,038,,0*4F
$GAGSV,2,1,07,01,25,306,37,03,25,061,36,08,35,120,35,13,65,353,40,2*78
$GAGSV,2,2,07,15,32,069,37,21,40,250,46,26,28,284,17,2*4B
$GAGSV,2,1,07,01,25,306,38,03,25,061,30,08,35,120,36,13,65,353,35,7*75
$GAGSV,2,2,07,15,32,069,35,21,40,250,45,26,28,284,32,7*48
$GAGSV,1,1,03,07,12,170,,18,24,123,,27,19,194,,0*4B
$GBGSV,3,1,12,01,43,152,36,02,28,236,29,03,44,206,35,04,35,132,33,1*75
$GBGSV,3,2,12,07,62,216,35,08,53,265,30,10,63,246,40,13,44,258,39,1*7F
$GBGSV,3,3,12,14,21,043,26,27,58,324,44,28,56,083,50,33,44,060,41,1*79
$GBGSV,2,1,08,01,43,152,40,02,28,236,38,03,44,206,32,07,62,216,35,3*79
$GBGSV,2,2,08,08,53,265,39,10,63,246,39,13,44,258,37,14,21,043,43,3*78
$GBGSV,1,1,04,05,08,256,,15,31,189,,30,11,300,,37,04,213,,0*79
$GNRMC,045253.00,A,3726.8309105,N,12639.2751704,E,0.010,,210622,,,R,V*0D
$GNVTG,,T,,M,0.010,N,0.018,K,D*30
$GNGNS,045253.00,3726.8309105,N,12639.2751704,E,RRRR,28,0.59,14.553,17.840,1.0,4095,V*01
$GNGGA,045253.00,3726.8309105,N,12639.2751704,E,4,12,0.59,14.553,M,17.840,M,1.0,4095*5D
$GNGSA,A,3,19,09,06,17,14,12,03,04,,,,,1.14,0.59,0.98,1*08
$GNGSA,A,3,71,72,85,87,,,,,,,,,1.14,0.59,0.98,2*0A
$GNGSA,A,3,15,01,26,03,21,08,13,,,,,,1.14,0.59,0.98,3*01
$GNGSA,A,3,14,01,10,08,28,33,27,13,07,,,,1.14,0.59,0.98,4*0A
$GPGSV,3,1,11,02,18,277,29,03,27,044,39,04,26,087,37,06,56,304,44,1*61
$GPGSV,3,2,11,09,27,123,37,12,17,318,45,14,21,185,33,17,72,103,45,1*69
$GPGSV,3,3,11,19,77,352,41,28,,,39,50,47,179,36,1*61
$GPGSV,2,1,08,03,27,044,34,04,26,087,34,06,56,304,35,09,27,123,28,6*63
$GPGSV,2,2,08,11,22,272,16,12,17,318,36,14,21,185,38,17,72,103,39,6*6B
$GPGSV,1,1,02,01,04,075,,20,12,225,,0*64
$GLGSV,2,1,06,70,24,035,24,71,57,092,48,72,35,164,40,77,24,281,10,1*77
$GLGSV,2,2,06,85,21,086,25,87,30,313,42,1*72
$GLGSV,1,1,04,71,57,092,40,72,35,164,37,77,24,281,19,85,21,086,32,3*75
$GLGSV,1,1,03,76,15,231,,78,08,334,,86,53,038,,0*4F
$GAGSV,2,1,07,01,25,306,37,03,25,061,36,08,35,120,35,13,65,353,41,2*79
$GAGSV,2,2,07,15,32,069,38,21,40,250,46,26,28,284,15,2*46
$GAGSV,2,1,07,01,25,306,38,03,25,061,29,08,35,120,32,13,65,353,36,7*7A
$GAGSV,2,2,07,15,32,069,35,21,40,250,45,26,28,284,33,7*49
$GAGSV,1,1,03,07,12,170,,18,24,123,,27,19,194,,0*4B
$GBGSV,3,1,12,01,43,152,37,02,28,236,29,03,44,206,35,04,35,132,35,1*72
$GBGSV,3,2,12,07,62,216,35,08,53,265,30,10,63,246,39,13,44,258,39,1*71
$GBGSV,3,3,12,14,21,043,28,27,58,324,45,28,56,083,50,33,44,060,42,1*75
$GBGSV,2,1,08,01,43,152,40,02,28,236,38,03,44,206,31,07,62,216,35,3*7A
$GBGSV,2,2,08,08,53,265,39,10,63,246,39,13,44,258,36,14,21,043,43,3*79
$GBGSV,1,1,04,05,08,256,,15,31,189,,30,11,300,,37,04,213,,0*79
$GNRMC,045254.00,A,3726.8309123,N,12639.2751696,E,0.014,,210622,,,R,V*00
$GNVTG,,T,,M,0.014,N,0.026,K,D*39
$GNGNS,045254.00,3726.8309123,N,12639.2751696,E,RRRR,28,0.59,14.551,17.840,2.0,4095,V*09
$GNGGA,045254.00,3726.8309123,N,12639.2751696,E,4,12,0.59,14.551,M,17.840,M,2.0,4095*55
$GNGSA,A,3,19,09,06,17,14,12,03,04,,,,,1.14,0.59,0.98,1*08
$GNGSA,A,3,71,72,85,87,,,,,,,,,1.14,0.59,0.98,2*0A
$GNGSA,A,3,15,01,26,03,21,08,13,,,,,,1.14,0.59,0.98,3*01
$GNGSA,A,3,14,01,10,08,28,33,27,13,07,,,,1.14,0.59,0.98,4*0A
$GPGSV,3,1,11,02,18,277,30,03,27,044,38,04,26,087,37,06,56,304,44,1*68
$GPGSV,3,2,11,09,27,123,36,12,17,318,44,14,21,185,34,17,72,103,45,1*6E
$GPGSV,3,3,11,19,77,352,42,28,,,38,50,47,179,36,1*63
$GLGSV,2,1,06,70,24,035,22,71,57,092,48,72,35,164,39,77,24,281,11,1*7E
$GLGSV,2,2,06,85,21,087,27,87,30,313,42,1*71
$GLGSV,1,1,04,71,57,092,40,72,35,164,37,77,24,281,12,85,21,087,32,3*7F
$GLGSV,1,1,03,76,15,231,,78,08,334,,86,53,038,,0*4F
$GAGSV,2,1,07,01,25,306,37,03,25,061,35,08,35,120,34,13,65,353,41,2*7B
$GAGSV,2,2,07,15,32,069,39,21,40,250,46,26,28,284,13,2*41
$GAGSV,2,1,07,01,25,306,38,03,25,061,32,08,35,120,33,13,65,353,35,7*72
$GAGSV,2,2,07,15,32,069,35,21,40,250,45,26,28,284,33,7*49
$GAGSV,1,1,03,07,12,170,,18,24,123,,27,19,194,,0*4B
