$GNRMC,034809.00,A,3726.9912596,N,12639.0701031,E,0.004,,210622,,,R,V*02
$GNVTG,,T,,M,0.004,N,0.008,K,D*34
$GNGNS,034809.00,3726.9912596,N,12639.0701031,E,RRRR,28,0.70,16.250,17.831,2.0,4095,V*03
$GNGGA,034809.00,3726.9912596,N,12639.0701031,E,4,12,0.70,16.250,M,17.831,M,2.0,4095*5F
$GNGSA,A,3,14,06,19,03,17,01,,,,,,,1.43,0.70,1.25,1*09
$GNGSA,A,3,85,75,71,76,77,,,,,,,,1.43,0.70,1.25,2*0D
$GNGSA,A,3,15,21,03,27,08,13,01,,,,,,1.43,0.70,1.25,3*0E
$GNGSA,A,3,08,27,37,07,10,02,28,13,33,03,,,1.43,0.70,1.25,4*05
$GPGSV,3,1,11,01,24,056,41,03,52,062,44,04,12,113,26,06,38,267,43,1*6E
$GPGSV,3,2,11,09,07,144,36,14,50,195,42,17,70,355,46,19,50,318,45,1*62
$GPGSV,3,3,11,28,,,45,41,27,238,33,50,47,179,40,1*6B
$GPGSV,2,1,07,01,24,056,37,03,52,062,35,04,12,113,26,06,38,267,36,6*6A
$GPGSV,2,2,07,09,07,144,34,14,50,195,36,17,70,355,38,6*5D
$GPGSV,1,1,03,02,00,256,,11,03,251,,21,04,068,,0*59
$GLGSV,2,1,08,69,04,019,11,70,39,071,27,71,32,135,44,75,16,204,37,1*79
$GLGSV,2,2,08,76,40,261,37,77,23,318,24,85,38,051,44,87,11,284,21,1*79
$GLGSV,2,1,05,71,32,135,39,75,16,204,38,76,40,261,39,77,23,318,32,3*7E
$GLGSV,2,2,05,85,38,051,34,3*4A
$GLGSV,1,1,02,72,02,172,,86,51,340,,0*75
$GAGSV,2,1,08,01,12,323,40,03,21,086,38,08,15,137,41,13,60,301,44,2*76
$GAGSV,2,2,08,15,47,046,44,18,56,096,46,21,48,285,45,27,44,201,40,2*7F
$GAGSV,2,1,08,01,12,323,42,03,21,086,38,08,15,137,42,13,60,301,45,7*73
$GAGSV,2,2,08,15,47,046,43,18,56,096,46,21,48,285,42,27,44,201,43,7*79
$GAGSV,1,1,04,05,05,038,,26,14,263,,30,03,165,,34,03,069,,0*74
$GBGSV,3,1,12,01,43,152,41,02,27,236,34,03,44,206,41,04,35,132,39,1*7F
$GBGSV,3,2,12,07,76,229,42,08,50,237,39,10,70,274,43,13,40,236,42,1*7B
$GBGSV,3,3,12,27,38,299,45,28,67,026,46,33,47,100,45,37,24,230,42,1*73
$GBGSV,2,1,06,02,27,236,40,03,44,206,39,07,76,229,41,08,50,237,40,3*7D
$GBGSV,2,2,06,10,70,274,41,13,40,236,36,3*74
$GBGSV,1,1,01,23,02,187,,0*4B
$GNRMC,034810.00,A,3726.9912595,N,12639.0701041,E,0.002,,210622,,,R,V*08
$GNVTG,,T,,M,0.002,N,0.004,K,D*3E
$GNGNS,034810.00,3726.9912595,N,12639.0701041,E,RRRR,28,0.70,16.250,17.831,2.0,4095,V*0F
$GNGGA,034810.00,3726.9912595,N,12639.0701041,E,4,12,0.70,16.250,M,17.831,M,2.0,4095*53
$GNGSA,A,3,14,06,19,03,17,01,,,,,,,1.43,0.70,1.25,1*09
$GNGSA,A,3,85,75,71,76,77,,,,,,,,1.43,0.70,1.25,2*0D
$GNGSA,A,3,15,21,03,27,08,13,01,,,,,,1.43,0.70,1.25,3*0E
$GNGSA,A,3,08,27,37,07,10,02,28,13,33,03,,,1.43,0.70,1.25,4*05
$GPGSV,3,1,11,01,24,056,41,03,52,062,44,04,12,113,27,06,38,267,43,1*6F
$GPGSV,3,2,11,09,07,144,37,14,50,195,42,17,70,355,46,19,50,318,45,1*63
$GPGSV,3,3,11,28,,,45,41,27,238,32,50,47,179,40,1*6A
$GPGSV,2,1,07,01,24,056,37,03,52,062,34,04,12,113,25,06,38,267,36,6*68
$GPGSV,2,2,07,09,07,144,34,14,50,195,36,17,70,355,37,6*52
$GLGSV,2,1,08,69,04,019,11,70,39,071,28,71,32,135,44,75,16,204,37,1*76
$GLGSV,2,2,08,76,40,261,37,77,23,318,23,85,38,051,44,87,11,284,21,1*7E
$GLGSV,2,1,06,69,04,019,06,71,32,135,39,75,16,204,38,76,40,261,39,3*72
$GLGSV,2,2,06,77,23,318,32,85,38,051,34,3*73
$GLGSV,1,1,02,72,02,172,,86,51,340,,0*75
$GAGSV,2,1,08,01,12,323,40,03,21,086,38,08,15,137,41,13,60,301,44,2*76
$GAGSV,2,2,08,15,47,046,45,18,56,096,47,21,48,285,46,27,44,201,41,2*7D
$GAGSV,2,1,08,01,12,323,42,03,21,086,38,08,15,137,42,13,60,301,44,7*72
$GAGSV,2,2,08,15,47,046,43,18,56,096,46,21,48,285,42,27,44,201,43,7*79
$GAGSV,1,1,04,05,05,038,,26,14,263,,30,03,165,,34,03,069,,0*74
$GBGSV,3,1,12,01,43,152,41,02,27,236,34,03,44,206,41,04,35,132,39,1*7F
$GBGSV,3,2,12,07,75,228,42,08,50,237,39,10,70,274,43,13,40,236,42,1*79
$GBGSV,3,3,12,27,38,299,45,28,67,026,46,33,47,100,45,37,24,230,42,1*73
$GBGSV,2,1,06,02,27,236,40,03,44,206,39,07,75,228,41,08,50,237,40,3*7F
$GBGSV,2,2,06,10,70,274,40,$GBGSV,1,1,01,23,02,187,,0*4B
$GNRMC,034811.00,A,3726.9912603,N,12639.0701038,E,0.008,,210622,,,R,V*01
$GNVTG,,T,,M,0.008,N,0.015,K,D*34
$GNGNS,034811.00,3726.9912603,N,12639.0701038,E,RRRR,28,0.70,16.255,17.831,2.0,4095,V*09
$GNGGA,034811.00,3726.9912603,N,12639.0701038,E,4,12,0.70,16.255,M,17.831,M,2.0,4095*55
$GNGSA,A,3,14,06,19,03,17,01,,,,,,,1.43,0.70,1.25,1*09
$GNGSA,A,3,85,75,71,76,77,,,,,,,,1.43,0.70,1.25,2*0D
$GNGSA,A,3,15,21,03,27,08,13,01,,,,,,1.43,0.70,1.25,3*0E
$GNGSA,A,3,08,27,37,07,10,02,28,13,33,03,,,1.43,0.70,1.25,4*05
$GPGSV,3,1,11,01,24,056,41,03,52,062,44,04,12,113,27,06,38,267,43,1*6F
$GPGSV,3,2,11,09,07,144,37,14,50,195,42,17,70,355,46,19,50,318,45,1*63
$GPGSV,3,3,11,28,,,45,41,27,238,31,50,47,179,40,1*69
$GPGSV,2,1,07,01,24,056,37,03,52,062,34,04,12,113,25,06,38,267,36,6*68
$GPGSV,2,2,07,09,07,144,34,14,50,195,36,17,70,355,37,6*52
$GPGSV,1,1,03,02,00,256,,11,03,251,,21,04,068,,0*59
$GLGSV,2,1,08,69,04,019,10,70,39,071,28,71,32,135,44,75,16,204,36,1*76
$GLGSV,2,2,08,76,40,261,37,77,23,318,23,85,38,051,44,87,11,284,21,1*7E
$GLGSV,2,1,06,69,04,019,08,71,32,135,39,75,16,204,39,76,40,261,38,3*7C
$GLGSV,2,2,06,77,23,318,32,85,38,051,34,3*73
$GLGSV,1,1,02,72,02,172,,86,51,340,,0*75
$GAGSV,2,1,08,01,12,323,40,03,21,086,38,08,15,137,41,13,60,301,44,2*76
$GAGSV,2,2,08,15,47,046,45,18,56,096,47,21,48,285,46,27,44,201,41,2*7D
$GAGSV,2,1,08,01,12,323,42,03,21,086,38,08,15,137,42,13,60,301,44,7*72
$GAGSV,2,2,08,15,47,046,43,18,56,096,47,21,48,285,42,27,44,201,43,7*78
$GAGSV,1,1,04,05,05,038,,26,14,263,,30,03,165,,34,03,069,,0*74
$GBGSV,3,1,12,01,43,152,42,02,27,236,34,03,44,206,41,04,35,132,39,1*7C
$GBGSV,3,2,12,07,75,228,42,08,50,238,39,10,70,274,43,13,40,236,42,1*76
$GBGSV,3,3,12,27,38,299,45,28,67,026,46,33,47,100,45,37,24,230,42,1*73
$GBGSV,2,1,06,02,27,236,40,03,44,206,39,07,75,228,41,08,50,238,40,3*70
$GBGSV,2,2,06,10,70,274,40,13,40,236,36,3*75
$GBGSV,1,1,01,23,02,187,,0*4B
$GNRMC,034812.00,A,3726.9912604,N,12639.0701050,E,0.009,,210622,,,R,V*0A
$GNVTG,,T,,M,0.009,N,0.016,K,D*36
$GNGNS,034812.00,3726.9912604,N,12639.0701050,E,RRRR,28,0.70,16.252,17.831,2.0,4095,V*04
$GNGGA,034812.00,3726.9912604,N,12639.0701050,E,4,12,0.70,16.252,M,17.831,M,2.0,4095*58
$GNGSA,A,3,14,06,19,03,17,01,,,,,,,1.43,0.70,1.25,1*09
$GNGSA,A,3,85,75,71,76,77,,,,,,,,1.43,0.70,1.25,2*0D
$GNGSA,A,3,15,21,03,27,08,13,01,,,,,,1.43,0.70,1.25,3*0E
$GNGSA,A,3,08,27,37,07,10,02,28,13,33,03,,,1.43,0.70,1.25,4*05
$GPGSV,3,1,11,01,24,056,42,03,52,062,44,04,12,113,27,06,38,267,43,1*6C
$GPGSV,3,2,11,09,07,144,37,14,50,195,43,17,70,355,46,19,50,318,45,1*62
$GPGSV,3,3,11,28,,,45,41,27,238,30,50,47,179,40,1*68
$GPGSV,2,1,07,01,24,056,37,03,52,062,35,04,12,113,24,06,38,267,36,6*68
$GPGSV,2,2,07,09,07,144,33,14,50,195,36,17,70,355,37,6*55
$GPGSV,1,1,03,02,00,256,,11,03,251,,21,04,068,,0*59
$GLGSV,2,1,08,69,04,019,12,70,39,071,28,71,32,135,44,75,16,204,36,1*74
$GLGSV,2,2,08,76,40,261,37,77,23,318,22,85,38,051,44,87,11,284,20,1*7E
$GLGSV,2,1,06,69,04,019,08,71,32,135,38,75,16,204,38,76,40,261,38,3*7C
$GLGSV,2,2,06,77,23,318,31,85,38,051,33,3*77
$GLGSV,1,1,02,72,02,172,,86,51,340,,0*75
$GAGSV,2,1,08,01,12,323,40,03,21,086,38,08,15,137,41,13,60,301,44,2*76
$GAGSV,2,2,08,15,47,046,45,18,56,096,47,21,48,285,46,27,44,201,41,2*7D
$GAGSV,2,1,08,01,12,323,42,03,21,086,38,08,15,137,42,13,60,301,44,7*72
$GAGSV,2,2,08,15,47,046,43,18,56,096,47,21,48,285,42,27,44,201,43,7*78
$GAGSV,1,1,04,05,05,038,,26,14,263,,30,03,165,,34,03,069,,0*74
$GBGSV,3,1,12,01,43,152,41,02,27,236,34,03,44,206,41,04,35,132,39,1*7F
$GBGSV,3,2,12,07,75,228,42,08,50,238,39,10,70,274,43,13,40,236,42,1*76
$GBGSV,3,3,12,27,38,299,45,28,67,026,46,33,47,100,45,37,24,230,42,1*73
$GBGSV,2,1,06,02,27,236,40,03,44,206,39,07,75,228,41,08,50,238,40,3*70
$GBGSV,2,2,06,10,70,274,40,13,40,236,36,3*75
$GNRMC,034813.00,A,3726.9912613,N,12639.0701021,E,0.016,,210622,,,R,V*05
$GNVTG,,T,,M,0.016,N,0.030,K,D*3C
$GNGNS,034813.00,3726.9912613,N,12639.0701021,E,RRRR,28,0.70,16.254,17.831,1.0,4095,V*00
$GNGGA,034813.00,3726.9912613,N,12639.0701021,E,4,12,0.70,16.254,M,17.831,M,1.0,4095*5C
$GNGSA,A,3,14,06,19,03,17,01,,,,,,,1.43,0.70,1.25,1*09
$GNGSA,A,3,85,75,71,76,77,,,,,,,,1.43,0.70,1.25,2*0D
$GNGSA,A,3,15,21,03,27,08,13,01,,,,,,1.43,0.70,1.25,3*0E
$GNGSA,A,3,08,27,37,07,10,02,28,13,33,03,,,1.43,0.70,1.25,4*05
$GPGSV,3,1,11,01,24,056,42,03,52,062,44,04,12,113,26,06,38,267,43,1*6D
$GPGSV,3,2,11,09,07,144,37,14,50,195,43,17,71,356,46,19,50,318,45,1*60
$GPGSV,3,3,11,28,,,45,41,27,238,29,50,47,179,40,1*60
$GPGSV,2,2,07,09,07,144,33,14,50,195,36,17,71,356,37,6*57
$GPGSV,1,1,03,02,00,256,,11,03,251,,21,04,068,,0*59
$GLGSV,2,1,08,69,04,019,12,70,39,071,28,71,32,135,44,75,16,204,35,1*77
$GLGSV,2,2,08,76,40,261,37,77,23,318,22,85,38,051,44,87,11,284,20,1*7E
$GLGSV,2,1,06,69,04,019,11,71,32,135,37,75,16,204,38,76,40,261,38,3*7B
$GLGSV,2,2,06,77,23,318,31,85,38,051,33,3*77
$GLGSV,1,1,02,72,02,172,,86,51,340,,0*75
$GAGSV,2,1,08,01,12,323,40,03,21,086,38,08,15,137,41,13,60,301,44,2*76
$GAGSV,2,2,08,15,47,046,45,18,56,096,47,21,48,285,46,27,44,201,41,2*7D
$GAGSV,2,1,08,01,12,323,41,03,21,086,38,08,15,137,42,13,60,301,44,7*71
$GAGSV,2,2,08,15,47,046,43,18,56,096,46,21,48,285,42,27,44,201,43,7*79
$GAGSV,1,1,04,05,05,038,,26,14,263,,30,03,165,,34,03,069,,0*74
$GBGSV,3,1,12,01,43,152,41,02,27,236,34,03,44,206,41,04,35,132,39,1*7F
$GBGSV,3,2,12,07,75,228,42,08,50,238,39,10,70,273,43,13,40,236,42,1*71
$GBGSV,3,3,12,27,38,299,45,28,67,026,46,$GBGSV,2,1,06,02,27,236,40,03,44,206,39,07,75,228,41,08,50,238,40,3*70
$GBGSV,2,2,06,10,70,273,40,13,40,236,36,3*72
$GBGSV,1,1,01,23,02,187,,0*4B
$GNRMC,034814.00,A,3726.9912605,N,12639.0701029,E,0.010,,210622,,,R,V*0B
$GNVTG,,T,,M,0.010,N,0.018,K,D*30
$GNGNS,034814.00,3726.9912605,N,12639.0701029,E,RRRR,28,0.70,16.258,17.831,2.0,4095,V*07
$GNGGA,034814.00,3726.9912605,N,12639.0701029,E,4,12,0.70,16.258,M,17.831,M,2.0,4095*5B
$GNGSA,A,3,14,06,19,03,17,01,,,,,,,1.43,0.70,1.25,1*09
$GNGSA,A,3,85,75,71,76,77,,,,,,,,1.43,0.70,1.25,2*0D
$GNGSA,A,3,15,21,03,27,08,13,01,,,,,,1.43,0.70,1.25,3*0E
$GNGSA,A,3,08,27,37,07,10,02,28,13,33,03,,,1.43,0.70,1.25,4*05
$GPGSV,3,1,11,01,24,056,42,03,52,062,44,04,12,113,24,06,38,267,43,1*6F
$GPGSV,3,2,11,09,07,144,37,14,50,195,43,17,71,356,46,19,50,318,45,1*60
$GPGSV,3,3,11,28,,,45,41,27,238,27,50,47,179,40,1*6E
$GPGSV,2,1,07,01,24,056,36,03,52,062,35,04,12,113,21,06,38,267,36,6*6C
$GPGSV,2,2,07,09,07,144,33,14,50,195,36,17,71,356,37,6*57
$GPGSV,1,1,03,02,00,256,,11,03,251,,21,04,068,,0*59
$GLGSV,2,1,08,69,04,019,17,70,39,071,28,71,32,135,44,75,16,204,34,1*73
$GLGSV,2,2,08,76,40,261,37,77,23,318,22,85,38,051,44,87,11,284,18,1*75
$GLGSV,2,1,06,69,04,019,08,71,32,135,37,75,16,204,38,76,40,261,38,3*73
$GLGSV,2,2,06,77,23,318,31,85,38,051,33,3*77
$GLGSV,1,1,02,72,02,172,,86,51,340,,0*75
$GAGSV,2,1,08,01,12,323,40,03,21,086,38,08,15,137,41,13,60,301,44,2*76
$GNRMC,034815.00,A,3726.9912584,N,12639.0701034,E,0.006,,210622,,,R,V*0B
$GNVTG,,T,,M,0.006,N,0.012,K,D*3D
$GNGNS,034815.00,3726.9912584,N,12639.0701034,E,RRRR,28,0.70,16.250,17.831,2.0,4095,V*08
$GNGGA,034815.00,3726.9912584,N,12639.0701034,E,4,12,0.70,16.250,M,17.831,M,2.0,4095*54
$GNGSA,A,3,14,06,19,03,17,01,,,,,,,1.43,0.70,1.24,1*08
$GNGSA,A,3,85,75,71,76,77,,,,,,,,1.43,0.70,1.24,2*0C
$GNGSA,A,3,15,21,03,27,08,13,01,,,,,,1.43,0.70,1.24,3*0F
$GNGSA,A,3,08,27,37,07,10,02,28,13,33,03,,,1.43,0.70,1.24,4*04
$GPGSV,3,1,10,01,24,056,42,03,52,062,44,04,12,113,22,06,38,267,43,1*68
$GPGSV,3,2,10,09,07,144,37,14,50,195,43,17,71,356,46,19,50,318,45,1*61
$GPGSV,3,3,10,28,,,45,50,47,179,40,1*53
$GPGSV,2,1,07,01,24,056,36,03,52,062,35,04,12,113,20,06,38,267,35,6*6E
$GPGSV,2,2,07,09,07,144,32,14,50,195,36,17,71,356,37,6*56
$GPGSV,1,1,03,02,00,256,,11,03,251,,21,04,068,,0*59
$GLGSV,2,1,08,69,04,019,11,70,39,071,28,71,32,135,44,75,16,204,34,1*75
$GLGSV,2,2,08,76,40,261,36,77,23,318,22,85,38,051,44,87,11,284,18,1*74
$GLGSV,2,1,06,69,04,019,12,71,32,135,37,75,16,204,38,76,40,261,38,3*78
$GLGSV,2,2,06,77,23,318,32,85,38,051,33,3*74
$GLGSV,1,1,02,72,02,172,,86,51,340,,0*75
$GAGSV,2,1,08,01,12,323,40,03,21,086,38,08,15,137,41,13,60,301,44,2*76
$GAGSV,2,2,08,15,47,046,45,18,56,096,47,21,48,285,46,27,44,201,41,2*7D
$GAGSV,2,1,08,01,12,323,41,03,21,086,38,08,15,137,42,13,60,301,44,7*71
$GAGSV,2,2,08,15,47,046,43,18,56,096,46,21,48,285,42,27,44,201,43,7*79
$GAGSV,1,1,04,05,05,038,,26,14,263,,30,03,165,,34,03,069,,0*74
$GBGSV,3,1,12,01,43,152,41,02,27,236,34,03,44,206,41,04,35,132,39,1*7F
$GBGSV,3,2,12,07,75,228,42,08,50,238,39,10,70,273,43,13,40,236,42,1*71
$GBGSV,3,3,12,27,38,299,45,28,67,026,46,33,47,100,45,37,24,230,41,1*70
$GBGSV,2,1,06,02,27,236,40,03,44,206,39,07,75,228,41,08,50,238,40,3*70
$GBGSV,2,2,06,10,70,273,40,13,40,236,36,3*72
$GBGSV,1,1,01,23,02,187,,0*4B
$GNRMC,034816.00,A,3726.9912621,N,12639.0701038,E,0.006,,210622,,,R,V*08
$GNVTG,,T,,M,0.006,N,0.012,K,D*3D
$GNGGA,034816.00,3726.9912621,N,12639.0701038,E,4,12,0.70,16.239,M,17.831,M,2.0,4095*58
$GNGSA,A,3,14,06,19,03,17,01,,,,,,,1.43,0.70,1.24,1*08
$GNGSA,A,3,85,75,71,76,77,,,,,,,,1.43,0.70,1.24,2*0C
$GNGSA,A,3,15,21,03,27,08,13,01,,,,,,1.43,0.70,1.24,3*0F
$GNGSA,A,3,08,27,37,07,10,02,28,13,33,03,,,1.43,0.70,1.24,4*04
$GPGSV,3,1,10,01,24,056,42,03,52,062,44,04,12,113,22,06,38,267,43,1*68
$GPGSV,3,2,10,09,07,144,37,14,50,195,43,17,71,356,45,19,50,318,45,1*62
$GPGSV,3,3,10,28,,,45,50,47,179,40,1*53
$GPGSV,2,1,07,01,24,056,37,03,52,062,35,04,12,113,19,06,38,267,35,6*65
$GPGSV,2,2,07,09,07,144,32,14,50,195,36,17,71,356,36,6*57
$GPGSV,1,1,03,02,00,256,,11,03,251,,21,04,068,,0*59
$GLGSV,2,1,08,69,04,019,11,70,39,071,28,71,32,135,44,75,16,204,34,1*75
$GLGSV,2,2,08,76,40,261,36,77,23,318,23,85,38,051,44,87,11,284,17,1*7A
$GLGSV,2,1,06,69,04,019,09,71,32,135,37,75,16,204,38,76,40,261,38,3*72
$GLGSV,2,2,06,77,23,318,32,8$GLGSV,1,1,02,72,02,172,,86,51,340,,0*75
$GAGSV,2,1,08,01,12,323,39,03,21,086,37,08,15,137,41,13,60,301,44,2*77
$GAGSV,2,2,08,15,47,046,45,18,56,096,47,21,48,285,46,27,44,201,41,2*7D
$GAGSV,2,1,08,01,12,323,41,03,21,086,38,08,15,137,42,13,60,301,44,7*71
$GAGSV,2,2,08,15,47,046,43,18,56,096,46,21,48,285,42,27,44,201,43,7*79
$GAGSV,1,1,04,05,05,038,,26,14,263,,30,03,165,,34,03,069,,0*74
$GBGSV,3,1,12,01,43,152,41,02,27,236,34,03,44,206,41,04,35,132,39,1*7F
$GBGSV,3,2,12,07,75,228,42,08,50,238,39,10,70,273,43,13,40,236,42,1*71
$GBGSV,3,3,12,27,38,299,45,28,67,026,46,33,47,100,45,37,24,230,41,1*70
$GBGSV,2,1,06,02,27,236,40,03,44,206,39,07,75,228,41,08,50,238,40,3*70
$GBGSV,2,2,06,10,70,273,40,13,40,236,36,3*72
$GNRMC,034817.00,A,3726.9912635,N,12639.0701047,E,0.003,,210622,,,R,V*01
$GNVTG,,T,,M,0.003,N,0.006,K,D*3D
$GNGNS,034817.00,3726.9912635,N,12639.0701047,E,RRRR,28,0.70,16.237,17.831,2.0,4095,V*06
$GNGGA,034817.00,3726.9912635,N,12639.0701047,E,4,12,0.70,16.237,M,17.831,M,2.0,4095*5A
$GNGSA,A,3,14,06,19,03,17,01,,,,,,,1.43,0.70,1.24,1*08
$GNGSA,A,3,85,75,71,76,77,,,,,,,,1.43,0.70,1.24,2*0C
$GNGSA,A,3,15,21,03,27,08,13,01,,,,,,1.43,0.70,1.24,3*0F
$GNGSA,A,3,08,27,37,07,10,02,28,13,33,03,,,1.43,0.70,1.24,4*04
$GPGSV,3,1,10,01,24,056,42,03,52,062,44,04,12,113,22,06,38,267,43,1*68
$GPGSV,3,2,10,09,07,144,37,14,50,195,43,17,71,356,45,19,50,318,45,1*62
$GPGSV,3,3,10,28,,,45,50,47,179,40,1*53
$GPGSV,2,1,07,01,24,056,37,03,52,062,35,04,12,113,20,06,38,267,35,6*6F
$GPGSV,2,2,07,09,07,144,32,14,50,195,36,17,71,356,37,6*56
$GPGSV,1,1,03,02,00,256,,11,03,251,,21,04,068,,0*59
$GLGSV,2,1,08,69,04,019,09,70,39,071,28,71,32,135,44,75,16,204,34,1*7C
$GLGSV,2,2,08,76,40,261,37,77,23,318,23,85,38,051,44,87,11,284,16,1*7A
$GLGSV,2,1,06,69,04,019,09,71,32,135,38,75,16,204,39,76,40,261,38,3*7C
$GLGSV,2,2,06,77,23,318,32,85,38,051,34,3*73
$GLGSV,1,1,02,72,02,172,,86,51,340,,0*75
$GAGSV,2,1,08,01,12,323,40,03,21,086,38,08,15,137,41,13,60,301,44,2*76
$GAGSV,2,2,08,15,47,046,45,18,56,096,47,21,48,285,46,27,44,201,41,2*7D
$GAGSV,2,1,08,01,12,323,41,03,21,086,38,08,15,137,42,13,60,301,44,7*71
$GAGSV,2,2,08,15,47,046,43,18,56,096,46,21,48,285,42,27,44,201,43,7*79
$GAGSV,1,1,04,05,05,038,,26,14,263,,30,03,165,,34,03,069,,0*74
$GBGSV,3,1,12,01,43,152,41,02,27,236,34,03,44,206,41,04,35,132,39,1*7F
$GBGSV,3,2,12,07,75,228,42,08,50,238,39,10,70,273,43,13,40,236,42,1*71
$GBGSV,3,3,12,27,38,299,45,28,67,026,46,33,47,100,45,37,24,230,41,1*70
$GBGSV,2,1,06,02,27,236,40,03,44,206,39,07,75,228,41,08,50,238,40,3*70
$GBGSV,2,2,06,10,70,273,41,13,40,236,37,3*72
$GBGSV,1,1,01,23,02,187,,0*4B
$GNRMC,034818.00,A,3726.9912630,N,12639.0701007,E,0.009,,210622,,,R,V*05
$GNVTG,,T,,M,0.009,N,0.016,K,D*36
$GNGNS,034818.00,3726.9912630,N,12639.0701007,E,RRRR,28,0.70,16.250,17.831,2.0,4095,V*09
$GNGSA,A,3,14,06,19,03,17,01,,,,,,,1.43,0.70,1.24,1*08
$GNGSA,A,3,85,75,71,76,77,,,,,,,,1.43,0.70,1.24,2*0C
$GNGSA,A,3,15,21,03,27,08,13,01,,,,,,1.43,0.70,1.24,3*0F
$GNGSA,A,3,08,27,37,07,10,02,28,13,33,03,,,1.43,0.70,1.24,4*04
$GPGSV,3,1,11,01,24,056,42,03,52,062,44,04,12,113,21,06,38,267,43,1*6A
$GPGSV,3,2,11,09,07,144,37,14,50,195,43,17,71,356,45,19,50,318,45,1*63
$GPGSV,3,3,11,28,,,45,31,,,21,50,47,179,40,1*53
$GPGSV,2,1,07,01,24,056,37,03,52,062,35,04,12,113,21,06,38,267,36,6*6D
$GPGSV,2,2,07,09,07,144,33,14,50,195,36,17,71,356,37,6*57
$GPGSV,1,1,03,02,00,256,,11,03,251,,21,04,068,,0*59
$GLGSV,2,1,08,69,04,019,12,70,39,071,28,71,32,135,44,75,16,204,33,1*71
$GLGSV,2,2,08,76,40,261,36,77,23,318,23,85,38,051,44,87,11,284,15,1*78
$GLGSV,2,1,06,69,04,019,09,71,32,135,38,75,16,204,39,76,40,261,38,3*7C
$GLGSV,2,2,06,77,23,318,32,85,38,051,34,3*73
$GLGSV,1,1,02,72,02,172,,86,51,340,,0*75
$GAGSV,2,1,08,01,12,323,39,03,21,086,37,08,15,137,40,13,60,301,44,2*76
$GAGSV,2,2,08,15,47,046,45,18,56,096,47,21,48,285,45,27,44,201,40,2*7F
$GAGSV,2,2,08,15,47,046,43,18,56,096,46,21,48,285,42,27,44,201,43,7*79
$GAGSV,1,1,04,05,05,038,,26,14,263,,30,03,165,,34,03,069,,0*74
$GBGSV,3,1,12,01,43,152,41,02,27,236,34,03,44,206,41,04,35,132,39,1*7F
$GBGSV,3,2,12,07,75,228,42,08,50,238,39,10,70,273,43,13,40,236,42,1*71
$GBGSV,3,3,12,27,38,299,45,28,67,026,46,33,47,100,45,37,24,230,41,1*70
$GBGSV,2,1,06,02,27,236,40,03,44,206,39,07,75,228,41,08,50,238,40,3*70
$GBGSV,2,2,06,10,70,273,41,13,40,236,37,3*72
$GBGSV,1,1,01,23,02,187,,0*4B
$GNRMC,034819.00,A,3726.9912619,N,12639.0701009,E,0.003,,210622,,,R,V*0B
$GNVTG,,T,,M,0.003,N,0.005,K,D*3E
$GNGNS,034819.00,3726.9912619,N,12639.0701009,E,RRRR,28,0.70,16.248,17.831,2.0,4095,V*04
$GNGGA,034819.00,3726.9912619,N,12639.0701009,E,4,12,0.70,16.248,M,17.831,M,2.0,4095*58
$GNGSA,A,3,14,06,19,03,17,01,,,,,,,1.43,0.70,1.24,1*08
$GNGSA,A,3,85,75,71,76,77,,,,,,,,1.43,0.70,1.24,2*0C
$GNGSA,A,3,15,21,03,27,08,13,01,,,,,,1.43,0.70,1.24,3*0F
$GNGSA,A,3,08,27,37,07,10,02,28,13,33,03,,,1.43,0.70,1.24,4*04
$GPGSV,3,1,10,01,24,056,42,03,52,062,44,04,12,113,21,06,38,267,43,1*6B
$GPGSV,3,2,10,09,07,144,37,14,50,195,43,17,71,356,45,19,50,318,45,1*62
$GPGSV,3,3,10,28,,,45,50,47,179,40,1*53
$GPGSV,2,1,07,01,24,056,37,03,52,062,36,04,12,113,21,06,38,267,36,6*6E
$GPGSV,2,2,07,09,07,144,33,14,50,195,37,17,71,356,37,6*56
$GPGSV,1,1,03,02,00,256,,11,03,251,,21,04,068,,0*59
$GLGSV,2,1,08,69,04,019,14,70,39,071,28,71,32,135,44,75,16,204,34,1*70
$GLGSV,2,2,08,76,40,261,36,77,23,318,23,85,38,051,44,87,11,284,14,1*79
$GLGSV,2,1,06,69,04,019,08,71,32,135,38,75,16,204,39,76,40,261,38,3*7D
$GLGSV,2,2,06,77,23,318,32,85,38,051,34,3*73
$GLGSV,1,1,02,72,02,172,,86,51,340,,0*75
$GAGSV,2,1,08,01,12,323,39,03,21,086,37,08,15,137,41,13,60,301,44,2*77
$GAGSV,2,2,08,15,47,046,45,18,56,096,47,21,48,285,46,27,44,201,41,2*7D
$GAGSV,2,1,08,01,12,323,41,03,21,086,38,08,15,137,42,13,60,301,44,7*71
$GAGSV,2,2,08,15,47,046,43,18,56,096,46,21,48,285,42,27,44,201,43,7*79
$GAGSV,1,1,04,05,05,038,,26,14,263,,30,03,165,,34,03,069,,0*74
$GBGSV,3,1,12,01,43,152,41,02,27,236,35,03,44,206,41,04,35,132,39,1*7E
$GBGSV,3,2,12,07,75,228,42,08,50,238,39,10,70,273,43,13,40,236,42,1*71
$GBGSV,3,3,12,27,38,299,45,28,67,026,46,33,47,100,45,37,24,230,41,1*70
$GNRMC,034820.00,A,3726.9912609,N,12639.0701024,E,0.005,,210622,,,R,V*09
$GNVTG,,T,,M,0.005,N,0.010,K,D*3C
$GNGNS,034820.00,3726.9912609,N,12639.0701024,E,RRRR,28,0.70,16.245,17.831,2.0,4095,V*0D
$GNGGA,034820.00,3726.9912609,N,12639.0701024,E,4,12,0.70,16.245,M,17.831,M,2.0,4095*51
$GNGSA,A,3,14,06,19,03,17,01,,,,,,,1.43,0.70,1.24,1*08
$GNGSA,A,3,85,75,71,76,77,,,,,,,,1.43,0.70,1.24,2*0C
$GNGSA,A,3,15,21,03,27,08,13,01,,,,,,1.43,0.70,1.24,3*0F
$GNGSA,A,3,08,27,37,07,10,02,28,13,33,03,,,1.43,0.70,1.24,4*04
$GPGSV,3,1,11,01,24,056,42,03,52,062,44,04,12,113,22,06,38,267,43,1*69
$GPGSV,3,2,11,09,07,144,36,14,50,195,43,17,71,356,46,19,50,318,45,1*61
$GPGSV,3,3,11,28,,,45,31,,,24,50,47,179,40,1*56
$GPGSV,2,1,07,01,24,056,37,03,52,062,36,04,12,113,21,06,38,267,36,6*6E
$GPGSV,2,2,07,09,07,144,34,14,50,195,36,17,71,356,38,6*5F
$GPGSV,1,1,03,02,00,256,,11,03,251,,21,04,068,,0*59
$GLGSV,2,1,08,69,04,019,13,70,39,071,28,71,32,135,44,75,16,204,34,1*77
$GLGSV,2,2,08,76,40,261,36,77,23,318,23,85,38,051,44,87,11,284,13,1*7E
$GLGSV,2,1,06,69,04,019,09,71,32,135,39,75,16,204,41,76,40,261,40,3*7D
$GLGSV,2,2,06,77,23,318,32,85,38,051,34,3*73
$GLGSV,1,1,02,72,02,172,,86,51,340,,0*75
$GAGSV,2,1,08,01,12,323,40,03,21,086,38,08,15,137,41,13,60,301,44,2*76
$GAGSV,2,2,08,15,47,046,45,18,56,096,47,21,48,285,46,27,44,201,41,2*7D
$GAGSV,2,1,08,01,12,323,41,03,21,086,38,08,15,137,42,13,60,301,44,7*71
$GAGSV,2,2,08,15,47,046,43,18,56,096,46,21,48,285,42,27,44,201,43,7*79
$GAGSV,1,1,04,05,05,038,,26,14,263,,30,03,165,,34,03,069,,0*74
$GBGSV,3,1,12,01,43,152,41,02,27,236,35,03,44,206,41,04,35,132,39,1*7E
$GBGSV,3,2,12,07,75,228,42,08,50,238,39,10,70,273,43,13,40,236,42,1*71
$GBGSV,3,3,12,27,38,299,45,28,67,026,46,33,47,100,45,37,24,230,41,1*70
$GBGSV,2,1,06,02,27,236,40,03,44,206,39,07,75,228,42,08,50,238,40,3*73
$GBGSV,2,2,06,10,70,273,41,13,40,236,37,3*72
$GBGSV,1,1,01,23,02,186,,0*4A
$GNRMC,034821.00,A,3726.9912611,N,12639.0701041,E,0.007,,210622,,,R,V*00
$GNVTG,,T,,M,0.007,N,0.014,K,D*3A
$GNGNS,034821.00,3726.9912611,N,12639.0701041,E,RRRR,28,0.70,16.249,17.831,2.0,4095,V*0A
$GNGGA,034821.00,3726.9912611,N,12639.0701041,E,4,12,0.70,16.249,M,17.831,M,2.0,4095*56
$GNGSA,A,3,14,06,19,03,17,01,,,,,,,1.43,0.70,1.24,1*08
$GNGSA,A,3,85,75,71,76,77,,,,,,,,1.43,0.70,1.24,2*0C
$GNGSA,A,3,15,21,03,27,08,13,01,,,,,,1.43,0.70,1.24,3*0F
$GNGSA,A,3,08,27,37,07,10,02,28,13,33,03,,,1.43,0.70,1.24,4*04
$GPGSV,3,1,10,01,24,056,42,03,52,062,44,04,12,113,20,06,38,267,43,1*6A
$GPGSV,3,2,10,09,07,144,36,14,50,195,43,17,71,356,46,19,50,318,45,1*60
$GPGSV,3,3,10,28,,,45,50,47,179,40,1*53
$GPGSV,2,1,07,01,24,056,37,03,52,062,35,04,12,113,20,06,38,267,36,6*6C
$GPGSV,2,2,07,09,07,144,34,14,50,195,36,17,71,356,38,6*5F
$GPGSV,1,1,03,02,00,256,,11,03,251,,21,04,068,,0*59
$GLGSV,2,1,08,69,04,019,12,70,39,071,28,71,32,135,44,75,16,204,34,1*76
$GLGSV,2,2,08,76,40,261,36,77,23,318,23,85,38,051,44,87,11,284,12,1*7F
$GLGSV,2,1,06,69,04,019,06,71,32,135,38,75,16,204,39,76,40,261,39,3*72
$GLGSV,2,2,06,77,23,318,32,85,38,051,33,3*74
$GLGSV,1,1,02,72,02,172,,86,51,340,,0*75
$GAGSV,2,1,08,01,12,323,39,03,21,086,37,08,15,137,41,13,60,301,44,2*77
$GAGSV,2,2,08,15,47,046,45,18,56,096,47,21,48,285,45,27,44,201,40,2*7F
$GAGSV,2,1,08,01,12,323,41,03,21,086,38,08,15,137,42,13,60,301,44,7*71
$GAGSV,2,2,08,15,47,046,43,18,56,096,46,21,48,285,42,27,44,201,43,7*79
$GAGSV,1,1,04,05,05,038,,26,14,263,,30,03,165,,34,03,069,,0*74
$GBGSV,3,1,12,01,43,152,41,02,27,236,35,03,44,206,41,04,35,132,39,1*7E
$GBGSV,3,2,12,07,75,228,42,08,50,238,39,10,70,273,43,13,40,236,42,1*71
$GBGSV,3,3,12,27,38,299,45,28,67,026,46,33,47,100,45,37,24,230,41,1*70
$GBGSV,2,1,06,02,27,236,40,03,44,206,39,07,75,228,41,08,50,238,40,3*70
$GBGSV,2,2,06,10,70,273,41,13,40,236,36,3*73
$GBGSV,1,1,01,23,02,186,,0*4A
$GNRMC,034822.00,A,3726.9912620,N,12639.0701055,E,0.004,,210622,,,R,V*07
$GNVTG,,T,,M,0.004,N,0.007,K,D*3B
$GNGNS,034822.00,3726.9912620,N,12639.0701055,E,RRRR,28,0.70,16.253,17.831,2.0,4095,V*05
$GNGGA,034822.00,3726.9912620,N,12639.0701055,E,4,12,0.70,16.253,M,17.831,M,2.0,4095*59
$GNGSA,A,3,14,06,19,03,17,01,,,,,,,1.43,0.70,1.24,1*08
$GNGSA,A,3,85,75,71,76,77,,,,,,,,1.43,0.70,1.24,2*0C
$GNGSA,A,3,15,21,03,27,08,13,01,,,,,,1.43,0.70,1.24,3*0F
$GNGSA,A,3,08,27,37,07,10,02,28,13,33,03,,,1.43,0.70,1.24,4*04
$GPGSV,3,1,10,01,24,056,42,03,52,062,44,04,12,113,18,06,38,267,43,1*61
$GPGSV,3,2,10,09,07,144,37,14,50,195,43,17,71,356,46,19,50,318,45,1*61
$GPGSV,3,3,10,28,,,45,50,47,179,40,1*53
$GPGSV,2,1,07,01,24,056,37,03,52,062,35,04,12,113,18,06,38,267,36,6*67
$GPGSV,2,2,07,09,07,144,34,14,50,195,36,17,71,356,38,6*5F
$GPGSV,1,1,03,02,00,256,,11,03,251,,21,04,068,,0*59
$GLGSV,2,1,08,69,04,019,16,70,39,071,28,71,32,135,44,75,16,204,35,1*73
$GLGSV,2,2,08,76,40,261,37,77,23,318,23,85,38,051,44,87,11,284,13,1*7F
$GLGSV,2,1,06,69,04,019,10,71,32,135,38,75,16,204,39,76,40,261,39,3*75
$GLGSV,2,2,06,77,23,318,32,85,38,051,33,3*74
$GLGSV,1,1,02,72,02,172,,86,51,340,,0*75
$GAGSV,2,1,08,01,12,323,39,03,21,086,37,08,15,137,41,13,60,301,44,2*77
$GAGSV,2,2,08,15,47,046,45,18,56,096,47,21,48,285,45,27,44,201,40,2*7F
$GAGSV,2,1,08,01,12,323,41,03,21,086,38,08,15,137,42,13,60,301,44,7*71
$GAGSV,2,2,08,15,47,046,43,18,56,096,46,21,48,285,42,27,44,201,43,7*79
$GAGSV,1,1,04,05,05,038,,26,14,263,,30,03,165,,34,03,069,,0*74
$GBGSV,3,1,12,01,43,152,41,02,27,236,35,03,44,206,41,04,35,132,39,1*7E
$GBGSV,3,2,12,07,75,228,42,08,50,238,39,10,70,273,43,13,40,236,42,1*71
$GBGSV,3,3,12,27,38,299,45,28,67,026,46,33,47,100,45,37,24,230,41,1*70
$GBGSV,2,1,06,02,27,236,40,03,44,206,39,07,75,228,42,08,50,238,40,3*73
$GBGSV,2,2,06,10,70,273,41,13,40,236,36,3*73
$GBGSV,1,1,01,23,02,186,,0*4A
$GNRMC,034823.00,A,3726.9912612,N,12639.0701034,E,0.005,,210622,,,R,V*01
$GNVTG,,T,,M,0.005,N,0.010,K,D*3C
$GNGNS,034823.00,3726.9912612,N,12639.0701034,E,RRRR,28,0.70,16.251,17.831,1.0,4095,V*03
$GNGGA,034823.00,3726.9912612,N,12639.0701034,E,4,12,0.70,16.251,M,17.831,M,1.0,4095*5F
$GNGSA,A,3,14,06,19,03,17,01,,,,,,,1.43,0.70,1.24,1*08
$GNGSA,A,3,85,75,71,76,77,,,,,,,,1.43,0.70,1.24,2*0C
$GNGSA,A,3,15,21,03,27,08,13,01,,,,,,1.43,0.70,1.24,3*0F
$GNGSA,A,3,08,27,37,07,10,02,28,13,33,03,,,1.43,0.70,1.24,4*04
$GPGSV,3,1,10,01,24,056,42,03,52,062,44,04,12,113,12,06,38,267,43,1*6B
$GPGSV,3,2,10,09,07,144,37,14,50,195,43,17,71,356,46,19,50,318,45,1*61
$GPGSV,3,3,10,28,,,45,50,47,179,40,1*53
$GPGSV,2,1,07,01,24,056,37,03,52,062,35,04,12,113,17,06,38,267,36,6*68
$GPGSV,2,2,07,09,07,144,34,14,50,195,36,17,71,356,38,6*5F
$GPGSV,1,1,03,02,00,256,,11,03,251,,21,04,068,,0*59
$GLGSV,2,1,08,69,04,019,13,70,39,071,29,71,32,135,44,75,16,204,35,1*77
$GLGSV,2,2,08,76,40,261,36,77,23,318,23,85,38,051,44,87,11,284,14,1*79
$GLGSV,2,1,06,69,04,019,09,71,32,135,39,75,16,204,40,76,40,261,40,3*7C
$GLGSV,2,2,06,77,23,318,32,85,38,051,33,3*74
$GLGSV,1,1,02,72,02,172,,86,51,340,,0*75
$GAGSV,2,1,08,01,12,323,39,03,21,086,37,08,15,137,41,13,60,301,44,2*77
$GAGSV,2,2,08,15,47,046,45,18,56,096,47,21,48,285,46,27,44,201,40,2*7C
$GAGSV,2,1,08,01,12,323,41,03,21,086,38,08,15,137,42,13,60,301,44,7*71
$GAGSV,2,2,08,15,47,046,43,18,56,096,46,21,48,285,42,27,44,201,43,7*79
$GAGSV,1,1,04,05,05,038,,26,14,263,,30,03,165,,34,03,069,,0*74
$GBGSV,3,1,12,01,43,152,41,02,27,236,35,03,44,206,41,04,35,132,39,1*7E
$GBGSV,3,2,12,07,75,228,42,08,50,238,39,10,70,273,43,13,40,236,42,1*71
$GBGSV,3,3,12,27,38,299,45,28,67,026,46,33,47,100,45,37,24,230,41,1*70
$GBGSV,2,1,06,02,27,236,40,03,44,206,39,07,75,228,42,08,50,238,40,3*73
$GBGSV,2,2,06,10,70,273,41,13,40,236,36,3*73
$GNRMC,034824.00,A,3726.9912607,N,12639.0701014,E,0.007,,210622,,,R,V*02
$GNVTG,,T,,M,0.007,N,0.012,K,D*3C
$GNGNS,034824.00,3726.9912607,N,12639.0701014,E,RRRR,28,0.70,16.252,17.831,2.0,4095,V*02
$GNGGA,034824.00,3726.9912607,N,12639.0701014,E,4,12,0.70,16.252,M,17.831,M,2.0,4095*5E
$GNGSA,A,3,14,06,19,03,17,01,,,,,,,1.43,0.70,1.24,1*08
$GNGSA,A,3,85,75,71,76,77,,,,,,,,1.43,0.70,1.24,2*0C
$GNGSA,A,3,15,21,03,27,08,13,01,,,,,,1.43,0.70,1.24,3*0F
$GNGSA,A,3,08,27,37,07,10,02,28,13,33,03,,,1.43,0.70,1.24,4*04
$GPGSV,3,1,10,01,24,056,42,03,52,062,44,04,12,113,08,06,38,267,43,1*60
$GPGSV,3,2,10,09,07,144,37,14,50,195,42,17,71,356,46,19,50,318,45,1*60
$GPGSV,3,3,10,28,,,45,50,47,179,40,1*53
$GLGSV,2,2,08,76,40,261,36,77,23,318,23,85,38,051,44,87,11,284,15,1*78
$GLGSV,2,1,06,69,04,019,11,71,32,135,39,75,16,204,40,76,40,261,40,3*75
$GLGSV,2,2,06,77,23,318,33,85,38,051,33,3*75
$GLGSV,1,1,02,72,02,172,,86,51,340,,0*75
$GAGSV,2,1,08,01,12,323,39,03,21,085,37,08,15,137,41,13,60,301,44,2*74
$GAGSV,2,2,08,15,47,046,45,18,56,096,47,21,48,285,46,27,44,201,40,2*7C
$GAGSV,2,1,08,01,12,323,41,03,21,085,38,08,15,137,42,13,60,301,44,7*72
$GAGSV,2,2,08,15,47,046,42,18,56,096,46,21,48,285,42,27,44,201,43,7*78
$GAGSV,1,1,04,05,05,038,,26,14,263,,30,03,165,,34,03,069,,0*74
$GBGSV,3,1,12,01,43,152,41,02,27,236,34,03,44,206,41,04,35,132,39,1*7F
$GBGSV,3,2,12,07,75,228,42,08,50,238,39,10,70,273,43,13,40,236,42,1*71
$GBGSV,3,3,12,27,38,300,45,28,67,026,46,33,47,100,45,37,24,230,41,1*71
$GBGSV,2,1,06,02,27,236,40,03,44,206,39,07,75,228,41,08,50,238,40,3*70
$GBGSV,2,2,06,10,70,273,41,13,40,236,36,3*73
$GBGSV,1,1,01,23,02,186,,0*4A
$GNRMC,034825.00,A,3726.9912616,N,12639.0700987,E,0.009,,210622,,,R,V*0F
$GNVTG,,T,,M,0.009,N,0.017,K,D*37
$GNGNS,034825.00,3726.9912616,N,12639.0700987,E,RRRR,28,0.70,16.252,17.831,2.0,4095,V*01
$GNGGA,034825.00,3726.9912616,N,12639.0700987,E,4,12,0.70,16.252,M,17.831,M,2.0,4095*5D
$GNGSA,A,3,14,06,19,03,17,01,,,,,,,1.43,0.70,1.24,1*08
$GNGSA,A,3,85,75,71,76,77,,,,,,,,1.43,0.70,1.24,2*0C
$GNGSA,A,3,15,21,03,27,08,13,01,,,,,,1.43,0.70,1.24,3*0F
$GNGSA,A,3,08,27,37,07,10,02,28,13,33,03,,,1.43,0.70,1.24,4*04
$GPGSV,3,1,09,01,24,056,42,03,52,062,44,06,38,267,43,09,07,144,37,1*6F
$GPGSV,3,2,09,14,50,195,42,17,71,356,46,19,50,318,45,28,,,45,1*58
$GPGSV,3,3,09,50,47,179,40,1*50
$GPGSV,2,1,07,01,24,056,37,03,52,062,35,04,12,113,15,06,38,267,35,6*69
$GPGSV,2,2,07,09,07,144,34,14,50,195,36,17,71,356,38,6*5F
$GPGSV,1,1,03,02,00,256,,11,03,251,,21,04,068,,0*59
$GLGSV,2,1,08,69,04,019,11,70,39,071,29,71,32,135,44,75,16,204,36,1*76
$GLGSV,2,2,08,76,40,261,36,77,23,318,23,85,38,051,44,87,11,284,16,1*7B
$GLGSV,2,1,06,69,04,019,07,71,32,135,39,75,16,204,39,76,40,261,40,3*7C
$GLGSV,2,2,06,77,23,318,32,85,38,051,33,3*74
$GLGSV,1,1,02,72,02,172,,86,51,340,,0*75
$GAGSV,2,1,08,01,12,323,39,03,21,085,37,08,15,137,41,13,60,301,44,2*74
$GAGSV,2,2,08,15,47,046,45,18,56,096,47,21,48,284,45,27,44,201,40,2*7E
$GAGSV,2,1,08,01,12,323,41,03,21,085,38,08,15,137,42,13,60,301,44,7*72
$GAGSV,2,2,08,15,47,046,42,18,56,096,46,21,48,284,42,27,44,201,43,7*79
$GAGSV,1,1,04,05,05,038,,26,14,263,,30,03,165,,34,03,069,,0*74
$GBGSV,3,1,12,01,43,152,41,02,27,236,34,03,44,206,41,04,35,132,39,1*7F
$GBGSV,3,2,12,07,75,228,42,08,50,238,39,10,70,273,43,13,40,236,42,1*71
$GBGSV,3,3,12,27,38,300,45,28,67,028,46,33,47,100,45,37,24,230,41,1*7F
$GBGSV,2,1,06,02,27,236,40,03,44,206,39,07,75,228,41,08,50,238,40,3*70
$GBGSV,2,2,06,10,70,273,41,13,40,236,36,3*73
$GBGSV,1,1,01,23,02,186,,0*4A
$GNRMC,034826.00,A,3726.9912634,N,12639.0700975,E,0.010,,210622,,,R,V*09
$GNVTG,,T,,M,0.010,N,0.018,K,D*30
$GNGNS,034826.00,3726.9912634,N,12639.0700975,E,RRRR,28,0.70,16.258,17.831,2.0,4095,V*05
$GNGGA,034826.00,3726.9912634,N,12639.0700975,E,4,12,0.70,16.258,M,17.831,M,2.0,4095*59
$GNGSA,A,3,14,06,19,03,17,01,,,,,,,1.43,0.70,1.24,1*08
$GNGSA,A,3,85,75,71,76,77,,,,,,,,1.43,0.70,1.24,2*0C
$GNGSA,A,3,15,21,03,27,08,13,01,,,,,,1.43,0.70,1.24,3*0F
$GNGSA,A,3,08,27,37,07,10,02,28,13,33,03,,,1.43,0.70,1.24,4*04
$GPGSV,3,1,09,01,24,056,42,03,52,062,44,06,38,267,43,09,07,144,38,1*60
$GPGSV,3,2,09,14,50,195,42,17,71,356,46,19,50,318,45,28,,,45,1*58
$GPGSV,3,3,09,50,47,179,40,1*50
$GPGSV,2,1,07,01,24,056,37,03,52,062,35,04,12,113,14,06,38,267,34,6*69
$GPGSV,2,2,07,09,07,144,33,14,50,195,36,17,71,356,37,6*57
$GPGSV,1,1,03,02,00,256,,11,03,251,,21,04,068,,0*59
$GLGSV,2,1,08,69,04,019,13,70,39,071,29,71,32,135,44,75,16,204,36,1*74
$GLGSV,2,2,08,76,40,261,36,77,23,318,23,85,38,051,44,87,11,284,18,1*75
$GLGSV,2,1,06,69,04,019,08,71,32,135,38,75,16,204,38,76,40,261,39,3*7D
$GLGSV,2,2,06,77,23,318,32,85,38,051,32,3*75
$GLGSV,1,1,02,72,02,172,,86,51,340,,0*75
$GAGSV,2,1,08,01,12,323,39,03,21,085,37,08,15,137,41,13,60,301,44,2*74
$GAGSV,2,2,08,15,47,046,45,18,56,096,47,21,48,284,46,27,44,201,40,2*7D
$GAGSV,2,1,08,01,12,323,41,03,21,085,38,08,15,137,42,13,60,301,44,7*72
$GAGSV,2,2,08,15,47,046,43,18,56,096,46,21,48,284,42,27,44,201,43,7*78
$GAGSV,1,1,04,05,05,038,,26,14,263,,30,03,165,,34,03,069,,0*74
$GBGSV,3,1,12,01,43,152,41,02,27,236,34,03,44,206,41,04,35,132,39,1*7F
$GBGSV,3,2,12,07,75,228,42,08,50,238,39,10,70,273,43,13,40,236,42,1*71
$GNRMC,034827.00,A,3726.9912636,N,12639.0701021,E,0.011,,210622,,,R,V*02
$GNVTG,,T,,M,0.011,N,0.020,K,D*3A
$GNGNS,034827.00,3726.9912636,N,12639.0701021,E,RRRR,28,0.70,16.253,17.831,2.0,4095,V*04
$GNGGA,034827.00,3726.9912636,N,12639.0701021,E,4,12,0.70,16.253,M,17.831,M,2.0,4095*58
$GNGSA,A,3,14,06,19,03,17,01,,,,,,,1.43,0.70,1.24,1*08
$GNGSA,A,3,85,75,71,76,77,,,,,,,,1.43,0.70,1.24,2*0C
$GNGSA,A,3,15,21,03,27,08,13,01,,,,,,1.43,0.70,1.24,3*0F
$GNGSA,A,3,08,27,37,07,10,02,28,13,33,03,,,1.43,0.70,1.24,4*04
$GPGSV,3,1,09,01,24,056,42,03,52,062,44,06,38,267,43,09,07,144,38,1*60
$GPGSV,3,2,09,14,50,195,42,17,71,356,46,19,50,318,45,28,,,44,1*59
$GPGSV,3,3,09,50,47,179,40,1*50
$GPGSV,2,1,07,01,24,056,36,03,52,062,34,04,12,113,12,06,38,267,34,6*6F
$GPGSV,2,2,07,09,07,144,32,14,50,195,35,17,71,356,37,6*55
$GPGSV,1,1,03,02,00,256,,11,03,251,,21,04,068,,0*59
$GLGSV,2,1,08,69,04,019,08,70,39,071,28,71,32,135,44,75,16,204,36,1*7F
$GLGSV,2,2,08,76,40,261,36,77,23,318,23,85,38,051,44,87,11,284,18,1*75
$GLGSV,2,1,06,69,04,019,06,71,32,135,37,75,16,204,37,76,40,261,39,3*73
$GLGSV,2,2,06,77,23,318,31,85,38,051,32,3*76
$GLGSV,1,1,02,72,02,172,,86,51,340,,0*75
$GAGSV,2,1,08,01,12,323,39,03,21,085,37,08,15,137,41,13,60,301,44,2*74
$GAGSV,2,2,08,15,47,046,45,18,56,096,47,21,48,284,46,27,44,201,40,2*7D
$GAGSV,2,1,08,01,12,323,40,03,21,085,38,08,15,137,42,13,60,301,44,7*73
$GAGSV,2,2,08,15,47,046,42,18,56,096,46,21,48,284,42,27,44,201,43,7*79
$GAGSV,1,1,04,05,05,038,,26,14,263,,30,03,165,,34,03,069,,0*74
$GBGSV,3,1,12,01,43,152,42,02,27,236,34,03,44,206,41,04,35,132,39,1*7C
$GBGSV,3,2,12,07,75,228,42,08,50,238,39,10,70,273,43,13,40,236,42,1*71
$GBGSV,3,3,12,27,38,300,45,28,67,028,46,33,47,100,45,37,24,230,41,1*7F
$GBGSV,2,1,06,02,27,236,40,03,44,206,39,07,75,228,41,08,50,238,40,3*70
$GBGSV,2,2,06,10,70,273,41,13,40,236,36,3*73
$GBGSV,1,1,01,23,02,186,,0*4A
$GNRMC,034828.00,A,3726.9912614,N,12639.0701028,E,0.001,,210622,,,R,V*05
$GNVTG,,T,,M,0.001,N,0.002,K,D*3B
$GNGNS,034828.00,3726.9912614,N,12639.0701028,E,RRRR,28,0.70,16.249,17.831,2.0,4095,V*09
$GNGGA,034828.00,3726.9912614,N,12639.0701028,E,4,12,0.70,16.249,M,17.831,M,2.0,4095*55
$GNGSA,A,3,14,06,19,03,17,01,,,,,,,1.43,0.70,1.24,1*08
$GNGSA,A,3,85,75,71,76,77,,,,,,,,1.43,0.70,1.24,2*0C
$GNGSA,A,3,15,21,03,27,08,13,01,,,,,,1.43,0.70,1.24,3*0F
$GNGSA,A,3,08,27,37,07,10,02,28,13,33,03,,,1.43,0.70,1.24,4*04
$GPGSV,3,1,09,01,24,056,42,03,52,062,44,06,38,267,43,09,07,144,38,1*60
$GPGSV,3,2,09,14,50,195,43,17,71,356,46,19,50,318,45,28,,,44,1*58
$GPGSV,3,3,09,50,47,179,40,1*50
$GPGSV,2,1,07,01,24,056,37,03,52,062,34,04,12,113,12,06,38,267,34,6*6E
$GPGSV,2,2,07,09,07,144,33,14,50,195,36,17,71,356,37,6*57
$GPGSV,1,1,03,02,00,256,,11,03,251,,21,04,068,,0*59
$GLGSV,2,1,08,69,04,019,13,70,39,071,28,71,32,135,44,75,16,204,36,1*75
$GLGSV,2,2,08,76,40,261,36,77,23,318,23,85,38,051,44,87,11,284,19,1*74
$GLGSV,2,1,06,69,04,019,07,71,32,135,37,75,16,204,36,76,40,261,39,3*73
$GLGSV,2,2,06,77,23,318,31,85,38,051,31,3*75
$GLGSV,1,1,02,72,02,172,,86,51,340,,0*75
$GAGSV,2,1,08,01,12,323,39,03,21,085,37,08,15,137,41,13,60,301,44,2*74
$GAGSV,2,2,08,15,47,046,45,18,56,096,47,21,48,284,45,27,44,201,40,2*7E
$GAGSV,2,1,08,01,12,323,40,03,21,085,38,08,15,137,42,13,60,301,44,7*73
$GAGSV,2,2,08,15,47,046,42,18,56,096,46,21,48,284,42,27,44,201,43,7*79
$GAGSV,1,1,04,05,05,038,,26,14,263,,30,03,165,,34,03,069,,0*74
$GBGSV,3,1,12,01,43,152,42,02,27,236,35,03,44,206,41,04,35,132,39,1*7D
$GBGSV,3,2,12,07,75,228,42,08,50,238,39,10,70,273,43,13,40,236,42,1*71
$GBGSV,3,3,12,27,38,300,45,28,67,028,46,33,47,099,45,37,24,230,42,1*7D
$GBGSV,2,1,06,02,27,236,40,03,44,206,39,07,75,228,41,08,50,238,40,3*70
$GBGSV,2,2,06,10,70,273,40,13,40,236,35,3*71
$GBGSV,1,1,01,23,02,186,,0*4A
$GNRMC,034829.00,A,3726.9912616,N,12639.0701031,E,0.002,,210622,,,R,V*0D
$GNVTG,,T,,M,0.002,N,0.003,K,D*39
$GNGNS,034829.00,3726.9912616,N,12639.0701031,E,RRRR,28,0.70,16.252,17.831,2.0,4095,V*08
$GNGGA,034829.00,3726.9912616,N,12639.0701031,E,4,12,0.70,16.252,M,17.831,M,2.0,4095*54
$GNGSA,A,3,14,06,19,03,17,01,,,,,,,1.43,0.70,1.24,1*08
$GNGSA,A,3,85,75,71,76,77,,,,,,,,1.43,0.70,1.24,2*0C
$GNGSA,A,3,15,21,03,27,08,13,01,,,,,,1.43,0.70,1.24,3*0F
$GNGSA,A,3,08,27,37,07,10,02,28,13,33,03,,,1.43,0.70,1.24,4*04
$GPGSV,3,1,09,01,24,056,42,03,52,062,44,06,38,267,43,09,07,144,38,1*60
$GPGSV,3,2,09,14,50,195,43,17,71,356,46,19,50,318,45,28,,,45,1*59
$GPGSV,3,3,09,50,47,179,40,1*50
$GPGSV,2,1,07,01,24,056,37,03,52,062,35,04,12,113,13,06,38,267,35,6*6F
$GPGSV,2,2,07,09,07,144,33,14,50,195,36,17,71,356,37,6*57
$GPGSV,1,1,03,02,00,256,,11,03,251,,21,04,068,,0*59
$GLGSV,2,1,08,69,04,019,15,70,39,071,28,71,32,135,44,75,16,204,36,1*73
$GLGSV,2,2,08,76,40,261,36,77,23,318,23,85,38,051,44,87,11,284,20,1*7E
$GLGSV,2,1,06,69,04,019,13,71,32,135,37,75,16,204,37,76,40,261,39,3*77
$GLGSV,2,2,06,77,23,318,32,85,38,051,31,3*76
$GLGSV,1,1,02,72,02,172,,86,51,340,,0*75
$GAGSV,2,1,08,01,12,323,39,03,21,085,37,08,15,137,41,13,60,301,44,2*74
$GAGSV,2,2,08,15,47,046,45,18,56,096,47,21,48,284,46,27,44,201,40,2*7D
$GAGSV,2,1,08,01,12,323,40,03,21,085,38,08,15,137,42,13,60,301,44,7*73
$GAGSV,2,2,08,15,47,046,42,18,56,096,46,21,48,284,42,27,44,201,43,7*79
$GAGSV,1,1,04,05,05,038,,26,14,263,,30,03,165,,34,03,069,,0*74
$GBGSV,3,1,12,01,43,152,42,02,27,236,34,03,44,206,41,04,35,132,39,1*7C
$GBGSV,3,2,12,07,75,228,42,08,50,238,39,10,70,273,43,13,40,236,42,1*71
$GBGSV,3,3,12,27,38,300,45,28,67,028,46,33,47,099,46,37,23,230,41,1*7A
$GNRMC,034830.00,A,3726.9912609,N,12639.0701014,E,0.006,,210622,,,R,V*08
$GNVTG,,T,,M,0.006,N,0.011,K,D*3E
$GNGNS,034830.00,3726.9912609,N,12639.0701014,E,RRRR,28,0.70,16.252,17.831,2.0,4095,V*09
$GNGGA,034830.00,3726.9912609,N,12639.0701014,E,4,12,0.70,16.252,M,17.831,M,2.0,4095*55
$GNGSA,A,3,14,06,19,03,17,01,,,,,,,1.43,0.70,1.24,1*08
$GNGSA,A,3,85,75,71,76,77,,,,,,,,1.43,0.70,1.24,2*0C
$GNGSA,A,3,15,21,03,27,08,13,01,,,,,,1.43,0.70,1.24,3*0F
$GNGSA,A,3,08,27,37,07,10,02,28,13,33,03,,,1.43,0.70,1.24,4*04
$GPGSV,3,1,09,01,24,056,42,03,52,062,44,06,38,267,43,09,07,144,37,1*6F
$GPGSV,3,2,09,14,50,195,43,17,71,356,46,19,50,318,45,28,,,45,1*59
$GPGSV,3,3,09,50,47,179,40,1*50
$GPGSV,2,1,07,01,24,056,37,03,52,062,35,04,12,113,15,06,38,267,35,6*69
$GPGSV,2,2,07,09,07,144,33,14,50,195,36,17,71,356,38,6*58
$GPGSV,1,1,03,02,00,256,,11,03,251,,21,04,068,,0*59
$GLGSV,2,1,08,69,04,019,14,70,39,071,29,71,32,135,44,75,16,204,35,1*70
$GLGSV,2,2,08,76,40,261,36,77,23,318,23,85,38,051,44,87,11,284,19,1*74
$GLGSV,2,1,06,69,04,019,12,71,32,135,38,75,16,204,37,76,40,261,39,3*79
$GLGSV,2,2,06,77,23,318,32,85,38,051,31,3*76
$GLGSV,1,1,02,72,02,172,,86,51,340,,0*75
$GAGSV,2,1,08,01,12,323,39,03,21,085,37,08,15,137,41,13,60,301,44,2*74
$GAGSV,2,2,08,15,47,046,45,18,56,096,47,21,48,284,46,27,44,201,40,2*7D
$GAGSV,2,1,08,01,12,323,40,03,21,085,38,08,15,137,42,13,60,301,45,7*72
$GAGSV,2,2,08,15,47,046,42,18,56,096,46,21,48,284,42,27,44,201,43,7*79
$GAGSV,1,1,04,05,05,038,,26,14,263,,30,03,165,,34,03,069,,0*74
$GBGSV,3,1,12,01,43,152,42,02,27,236,34,03,44,206,41,04,35,132,39,1*7C
$GBGSV,3,2,12,07,75,228,42,08,50,238,39,10,70,273,43,13,40,236,42,1*71
$GBGSV,3,3,12,27,38,300,46,28,67,028,45,33,47,099,46,37,23,230,42,1*79
$GBGSV,2,1,06,02,27,236,40,03,44,206,39,07,75,228,42,08,50,238,40,3*73
$GBGSV,2,2,06,10,70,273,41,13,40,236,36,3*73
$GBGSV,1,1,01,23,02,186,,0*4A
$GNRMC,034831.00,A,3726.9912614,N,12639.0701010,E,0.002,,210622,,,R,V*05
$GNVTG,,T,,M,0.002,N,0.004,K,D*3E
$GNGNS,034831.00,3726.9912614,N,12639.0701010,E,RRRR,28,0.70,16.243,17.831,2.0,4095,V*00
$GNGGA,034831.00,3726.9912614,N,12639.0701010,E,4,12,0.70,16.243,M,17.831,M,2.0,4095*5C
$GNGSA,A,3,14,06,19,03,17,01,,,,,,,1.43,0.70,1.24,1*08
$GNGSA,A,3,85,75,71,76,77,,,,,,,,1.43,0.70,1.24,2*0C
$GNGSA,A,3,15,21,03,27,08,13,01,,,,,,1.43,0.70,1.24,3*0F
$GNGSA,A,3,08,27,37,07,10,02,28,13,33,03,,,1.43,0.70,1.24,4*04
$GPGSV,3,1,09,01,24,056,41,03,52,062,44,06,38,267,43,09,07,144,37,1*6C
$GPGSV,3,2,09,14,50,195,43,17,71,356,46,19,50,318,44,28,,,45,1*58
$GPGSV,3,3,09,50,47,179,40,1*50
$GPGSV,2,1,07,01,24,056,37,03,52,062,35,04,12,113,16,06,38,267,35,6*6A
$GPGSV,2,2,07,09,07,144,32,14,50,195,36,17,71,356,38,6*59
$GPGSV,1,1,03,02,00,256,,11,03,251,,21,04,068,,0*59
$GLGSV,2,1,08,69,04,019,14,70,39,071,29,71,32,135,44,75,16,204,35,1*70
$GLGSV,2,2,08,76,40,261,36,77,23,318,23,85,38,051,44,87,11,284,18,1*75
$GLGSV,2,1,06,69,04,019,12,71,32,135,39,75,16,204,38,76,40,261,40,3*79
$GLGSV,2,2,06,77,23,318,34,85,38,051,32,3*73
$GLGSV,1,1,02,72,02,172,,86,51,340,,0*75
$GAGSV,2,1,08,01,12,323,39,03,21,085,37,08,15,137,41,13,60,301,44,2*74
$GAGSV,2,2,08,15,47,046,45,18,56,096,47,21,48,284,46,27,44,201,40,2*7D
$GAGSV,2,1,08,01,12,323,40,03,21,085,38,08,15,137,42,13,60,301,45,7*72
$GAGSV,2,2,08,15,47,046,43,18,56,096,46,21,48,284,42,27,44,201,43,7*78
$GAGSV,1,1,04,05,05,038,,26,14,263,,30,03,165,,34,03,069,,0*74
$GBGSV,3,1,12,01,43,152,42,02,27,236,34,03,44,206,41,04,35,132,38,1*7D
$GBGSV,3,2,12,07,75,228,42,08,50,238,39,10,70,273,44,13,40,236,42,1*76
$GBGSV,3,3,12,27,38,300,46,28,67,028,45,33,47,099,46,37,23,230,42,1*79
$GBGSV,2,1,06,02,27,236,40,03,44,206,39,07,75,228,42,08,50,238,40,3*73
$GBGSV,2,2,06,10,70,273,41,13,40,236,36,3*73
$GBGSV,1,1,01,23,02,186,,0*4A
$GNRMC,034832.00,A,3726.9912611,N,12639.0700997,E,0.008,,210622,,,R,V*0E
$GNVTG,,T,,M,0.008,N,0.015,K,D*34
$GNGNS,034832.00,3726.9912611,N,12639.0700997,E,RRRR,28,0.70,16.246,17.831,2.0,4095,V*04
$GNGGA,034832.00,3726.9912611,N,12639.0700997,E,4,12,0.70,16.246,M,17.831,M,2.0,4095*58
$GNGSA,A,3,14,06,19,03,17,01,,,,,,,1.43,0.70,1.24,1*08
$GNGSA,A,3,85,75,71,76,77,,,,,,,,1.43,0.70,1.24,2*0C
$GNGSA,A,3,15,21,03,27,08,13,01,,,,,,1.43,0.70,1.24,3*0F
$GNGSA,A,3,08,27,37,07,10,02,28,13,33,03,,,1.43,0.70,1.24,4*04
$GPGSV,3,1,09,01,24,056,41,03,52,062,44,06,38,267,43,09,07,144,37,1*6C
$GPGSV,3,2,09,14,50,195,43,17,71,356,46,19,50,318,44,28,,,45,1*58
$GPGSV,3,3,09,50,47,179,40,1*50
$GPGSV,2,1,07,01,24,056,38,03,52,062,35,04,12,113,16,06,38,267,36,6*66
$GPGSV,2,2,07,09,07,144,33,14,50,195,37,17,71,356,38,6*59
$GPGSV,1,1,03,02,00,256,,11,03,251,,21,04,068,,0*59
$GLGSV,2,1,08,69,04,019,14,70,39,071,29,71,32,135,44,75,16,204,35,1*70
$GLGSV,2,2,08,76,40,261,36,77,23,318,23,85,38,051,44,87,11,284,16,1*7B
$GLGSV,2,1,06,69,04,019,05,71,32,135,39,75,16,204,38,76,40,261,39,3*71
$GLGSV,2,2,06,77,23,318,33,85,38,051,33,3*75
$GLGSV,1,1,02,72,02,172,,86,51,340,,0*75
$GAGSV,2,1,08,01,12,323,40,03,21,085,37,08,15,137,41,13,60,301,44,2*7A
$GAGSV,2,2,08,15,47,046,45,18,56,096,47,21,48,284,46,27,44,201,40,2*7D
$GAGSV,2,1,08,01,12,323,40,03,21,085,38,08,15,137,43,13,60,301,45,7*73
$GAGSV,2,2,08,15,47,046,42,18,56,096,46,21,48,284,42,27,44,201,43,7*79
$GAGSV,1,1,04,05,05,038,,26,14,263,,30,03,165,,34,03,069,,0*74
$GBGSV,3,1,12,01,43,152,42,02,27,236,34,03,44,206,41,04,35,132,38,1*7D
$GBGSV,3,2,12,07,75,228,42,08,50,238,39,10,70,273,43,13,40,236,42,1*71
$GBGSV,3,3,12,27,38,300,46,28,67,028,45,33,47,099,46,37,23,230,42,1*79
$GBGSV,2,1,06,02,27,236,40,03,44,206,39,07,75,228,42,08,50,238,40,3*73
$GNRMC,034833.00,A,3726.9912620,N,12639.0701003,E,0.004,,210622,,,R,V*04
$GNVTG,,T,,M,0.004,N,0.007,K,D*3B
$GNGNS,034833.00,3726.9912620,N,12639.0701003,E,RRRR,28,0.70,16.246,17.831,1.0,4095,V*01
$GNGGA,034833.00,3726.9912620,N,12639.0701003,E,4,12,0.70,16.246,M,17.831,M,1.0,4095*5D
$GNGSA,A,3,14,06,19,03,17,01,,,,,,,1.43,0.70,1.24,1*08
$GNGSA,A,3,85,75,71,76,77,,,,,,,,1.43,0.70,1.24,2*0C
$GNGSA,A,3,15,21,03,27,08,13,01,,,,,,1.43,0.70,1.24,3*0F
$GNGSA,A,3,08,27,37,07,10,02,28,13,33,03,,,1.43,0.70,1.24,4*04
$GPGSV,3,1,09,01,24,056,42,03,52,062,44,06,38,267,43,09,07,144,37,1*6F
$GPGSV,3,2,09,14,50,195,43,17,71,356,46,19,50,318,44,28,,,45,1*58
$GPGSV,3,3,09,50,47,179,40,1*50
$GPGSV,2,1,07,01,24,056,38,03,52,062,36,04,12,113,15,06,38,267,36,6*66
$GPGSV,2,2,07,09,07,144,33,14,50,195,37,17,71,356,38,6*59
$GPGSV,1,1,03,02,00,256,,11,03,251,,21,04,068,,0*59
$GLGSV,2,1,08,69,04,019,11,70,39,071,29,71,32,135,44,75,16,204,35,1*75
$GLGSV,2,2,08,76,40,261,37,77,23,318,23,85,38,051,44,87,11,284,15,1*79
$GLGSV,2,1,06,69,04,019,07,71,32,135,38,75,16,204,37,76,40,261,39,3*7D
$GLGSV,2,2,06,77,23,318,34,85,38,051,33,3*72
$GLGSV,1,1,02,72,02,172,,86,51,340,,0*75
$GAGSV,2,1,08,01,12,323,40,03,21,085,37,08,15,137,41,13,60,301,44,2*7A
$GAGSV,2,2,08,15,47,046,45,18,56,096,47,21,48,284,46,27,44,201,40,2*7D
$GAGSV,2,1,08,01,12,323,40,03,21,085,38,08,15,137,43,13,60,301,45,7*73
$GAGSV,2,2,08,15,47,046,43,18,56,096,46,21,48,284,42,27,44,201,43,7*78
$GAGSV,1,1,04,05,05,038,,26,14,263,,30,03,165,,34,03,069,,0*74
$GBGSV,3,1,12,01,43,152,42,02,27,236,34,03,44,206,41,04,35,132,39,1*7C
$GBGSV,3,2,12,07,75,228,42,08,50,238,39,10,70,273,44,13,40,236,42,1*76
$GBGSV,3,3,12,27,38,300,46,28,67,028,46,33,47,099,46,37,23,230,42,1*7A
$GBGSV,2,1,06,02,27,236,40,03,44,206,39,07,75,228,42,08,50,238,40,3*73
$GBGSV,2,2,06,10,70,273,41,13,40,236,36,3*73
$GBGSV,1,1,01,23,02,186,,0*4A
$GNRMC,034834.00,A,3726.9912623,N,12639.0700997,E,0.006,,210622,,,R,V*07
$GNVTG,,T,,M,0.006,N,0.011,K,D*3E
$GNGNS,034834.00,3726.9912623,N,12639.0700997,E,RRRR,28,0.70,16.244,17.831,2.0,4095,V*01
$GNGGA,034834.00,3726.9912623,N,12639.0700997,E,4,12,0.70,16.244,M,17.831,M,2.0,4095*5D
$GNGSA,A,3,14,06,19,03,17,01,,,,,,,1.43,0.70,1.24,1*08
$GNGSA,A,3,85,75,71,76,77,,,,,,,,1.43,0.70,1.24,2*0C
$GNGSA,A,3,15,21,03,27,08,13,01,,,,,,1.43,0.70,1.24,3*0F
$GNGSA,A,3,08,27,37,07,10,02,28,13,33,03,,,1.43,0.70,1.24,4*04
$GPGSV,3,1,09,01,24,056,42,03,52,062,44,06,38,267,44,09,07,144,37,1*68
$GPGSV,3,2,09,14,50,195,43,17,71,356,46,19,50,318,44,28,,,45,1*58
$GPGSV,3,3,09,50,47,179,40,1*50
$GPGSV,2,1,07,01,24,056,38,03,52,062,36,04,12,113,13,06,38,267,36,6*60
$GPGSV,2,2,07,09,07,144,33,14,50,195,37,17,71,356,38,6*59
$GPGSV,1,1,03,02,00,256,,11,03,251,,21,04,068,,0*59
$GLGSV,2,1,08,69,04,019,11,70,39,071,29,71,32,135,43,75,16,204,34,1*73
$GLGSV,2,2,08,76,40,261,36,77,23,318,23,85,38,051,44,87,11,284,18,1*75
$GLGSV,2,1,06,69,04,019,10,71,32,135,38,75,16,204,37,76,40,261,38,3*7A
$GLGSV,2,2,06,77,23,318,33,85,38,051,33,3*75
$GLGSV,1,1,02,72,02,172,,86,51,340,,0*75
$GAGSV,2,1,08,01,12,323,40,03,21,085,37,08,15,137,41,13,60,301,44,2*7A
$GAGSV,2,2,08,15,47,046,45,18,56,096,47,21,48,284,46,27,44,201,40,2*7D
$GAGSV,2,1,08,01,12,323,40,03,21,085,38,08,15,137,43,13,60,301,45,7*73
$GAGSV,2,2,08,15,47,046,43,18,56,096,46,21,48,284,42,27,44,201,43,7*78
$GAGSV,1,1,04,05,05,038,,26,14,263,,30,03,165,,34,03,069,,0*74
$GBGSV,3,1,12,01,43,152,42,02,27,236,34,03,44,206,41,04,35,132,39,1*7C
$GBGSV,3,2,12,07,75,228,42,08,50,238,39,10,70,273,43,13,40,236,42,1*71
$GNRMC,034835.00,A,3726.9912616,N,12639.0701003,E,0.004,,210622,,,R,V*07
$GNVTG,,T,,M,0.004,N,0.007,K,D*3B
$GNGNS,034835.00,3726.9912616,N,12639.0701003,E,RRRR,28,0.70,16.245,17.831,2.0,4095,V*02
$GNGGA,034835.00,3726.9912616,N,12639.0701003,E,4,12,0.70,16.245,M,17.831,M,2.0,4095*5E
$GNGSA,A,3,14,06,19,03,17,01,,,,,,,1.43,0.70,1.24,1*08
$GNGSA,A,3,85,75,71,76,77,,,,,,,,1.43,0.70,1.24,2*0C
$GNGSA,A,3,15,21,03,27,08,13,01,,,,,,1.43,0.70,1.24,3*0F
$GNGSA,A,3,08,27,37,07,10,02,28,13,33,03,,,1.43,0.70,1.24,4*04
$GPGSV,3,1,09,01,24,056,42,03,52,062,44,06,38,267,44,09,07,144,37,1*68
$GPGSV,3,2,09,14,50,195,43,17,71,356,46,19,50,318,44,28,,,45,1*58
$GPGSV,3,3,09,50,47,179,40,1*50
$GPGSV,2,1,07,01,24,056,38,03,52,062,36,04,12,113,12,06,38,267,36,6*61
$GPGSV,2,2,07,09,07,144,32,14,50,195,37,17,71,356,38,6*58
$GPGSV,1,1,03,02,00,256,,11,03,251,,21,04,068,,0*59
$GLGSV,2,1,08,69,04,019,10,70,39,071,30,71,32,135,44,75,16,204,34,1*7D
$GLGSV,2,2,08,76,40,261,36,77,23,318,22,85,38,051,44,87,11,284,22,1*7D
$GLGSV,2,1,06,69,04,019,11,71,32,135,38,75,16,204,36,76,40,261,38,3*7A
$GLGSV,2,2,06,77,23,318,33,85,38,051,33,3*75
$GLGSV,1,1,02,72,02,172,,86,51,340,,0*75
$GAGSV,2,1,08,01,12,323,40,03,21,085,37,08,15,137,41,13,60,301,44,2*7A
$GAGSV,2,2,08,15,47,046,45,18,56,096,47,21,48,284,46,27,44,201,40,2*7D
$GAGSV,2,1,08,01,12,323,40,03,21,085,38,08,15,137,43,13,60,301,45,7*73
$GAGSV,2,2,08,15,47,046,43,18,56,096,46,21,48,284,42,27,44,201,43,7*78
$GAGSV,1,1,04,05,05,038,,26,14,263,,30,03,165,,34,03,069,,0*74
$GBGSV,3,1,12,01,43,152,42,02,27,236,34,03,44,206,41,04,35,132,39,1*7C
$GBGSV,3,2,12,07,75,228,42,08,50,238,39,10,70,273,43,13,40,236,42,1*71
$GBGSV,3,3,12,27,38,300,46,28,67,028,46,33,47,099,46,37,23,230,42,1*7A
$GBGSV,2,1,06,02,27,236,40,03,44,206,38,07,75,228,42,08,50,238,40,3*72
$GBGSV,2,2,06,10,70,273,41,13,40,236,36,3*73
$GBGSV,1,1,01,23,02,186,,0*4A
$GNRMC,034836.00,A,3726.9912611,N,12639.0700998,E,0.009,,210622,,,R,V*04
$GNVTG,,T,,M,0.009,N,0.016,K,D*36
$GNGNS,034836.00,3726.9912611,N,12639.0700998,E,RRRR,28,0.70,16.248,17.831,2.0,4095,V*01
$GNGGA,034836.00,3726.9912611,N,12639.0700998,E,4,12,0.70,16.248,M,17.831,M,2.0,4095*5D
$GNGSA,A,3,14,06,19,03,17,01,,,,,,,1.43,0.70,1.24,1*08
$GNGSA,A,3,85,75,71,76,77,,,,,,,,1.43,0.70,1.24,2*0C
$GNGSA,A,3,15,21,03,27,08,13,01,,,,,,1.43,0.70,1.24,3*0F
$GNGSA,A,3,08,27,37,07,10,02,28,13,33,03,,,1.43,0.70,1.24,4*04
$GPGSV,3,1,09,01,24,056,41,03,52,062,44,06,38,267,44,09,07,144,37,1*6B
$GPGSV,3,2,09,14,50,195,43,17,71,356,46,19,50,318,44,28,,,45,1*58
$GPGSV,3,3,09,50,47,179,40,1*50
$GPGSV,2,1,07,01,24,056,38,03,52,062,36,04,12,113,11,06,38,267,36,6*62
$GPGSV,2,2,07,09,07,144,32,14,50,195,37,17,71,356,38,6*58
$GPGSV,1,1,03,02,00,256,,11,03,251,,21,04,068,,0*59
$GNRMC,034837.00,A,3726.9912619,N,12639.0701012,E,0.011,,210622,,,R,V*0E
$GNVTG,,T,,M,0.011,N,0.021,K,D*3B
$GNGNS,034837.00,3726.9912619,N,12639.0701012,E,RRRR,28,0.70,16.236,17.831,2.0,4095,V*0B
$GNGGA,034837.00,3726.9912619,N,12639.0701012,E,4,12,0.70,16.236,M,17.831,M,2.0,4095*57
$GNGSA,A,3,14,06,19,03,17,01,,,,,,,1.43,0.70,1.24,1*08
$GNGSA,A,3,85,75,71,76,77,,,,,,,,1.43,0.70,1.24,2*0C
$GNGSA,A,3,15,21,03,27,08,13,01,,,,,,1.43,0.70,1.24,3*0F
$GNGSA,A,3,08,27,37,07,10,02,28,13,33,03,,,1.43,0.70,1.24,4*04
$GPGSV,3,1,09,01,24,056,41,03,52,062,44,06,38,267,44,09,07,144,37,1*6B
$GPGSV,3,2,09,14,50,195,43,17,71,356,46,19,50,318,44,28,,,45,1*58
$GPGSV,3,3,09,50,47,179,40,1*50
$GPGSV,2,1,07,01,24,056,38,03,52,062,36,04,12,113,12,06,38,267,36,6*61
$GPGSV,2,2,07,09,07,144,32,14,50,195,37,17,71,356,38,6*58
$GPGSV,1,1,03,02,00,256,,11,03,251,,21,04,068,,0*59
$GLGSV,2,1,08,69,04,019,10,70,39,071,29,71,32,135,44,75,16,204,33,1*72
$GLGSV,2,2,08,76,40,261,36,77,23,318,22,85,38,051,44,87,11,284,23,1*7C
$GLGSV,2,1,06,69,04,019,08,71,32,135,38,75,16,204,37,76,40,261,38,3*73
$GLGSV,2,2,06,77,23,318,33,85,38,051,33,3*75
$GLGSV,1,1,02,72,02,172,,86,51,340,,0*75
$GAGSV,2,1,08,01,12,323,40,03,21,085,37,08,15,137,41,13,60,301,44,2*7A
$GAGSV,2,2,08,15,47,046,45,18,56,096,47,21,48,284,46,27,44,201,41,2*7C
$GAGSV,2,1,08,01,12,323,41,03,21,085,39,08,15,137,43,13,60,301,45,7*73
$GAGSV,2,2,08,15,47,046,43,18,56,096,46,21,48,284,42,27,44,201,43,7*78
$GAGSV,1,1,04,05,05,038,,26,14,263,,30,03,165,,34,03,069,,0*74
$GBGSV,3,1,12,01,43,152,41,02,27,236,34,03,44,206,41,04,35,132,38,1*7E
$GBGSV,3,2,12,07,75,228,42,08,50,238,39,10,70,273,43,13,40,236,42,1*71
$GBGSV,3,3,12,27,38,300,46,28,67,028,46,33,47,099,46,37,23,230,42,1*7A
$GBGSV,2,1,06,02,27,236,40,03,44,206,39,07,75,228,42,08,50,238,40,3*73
$GBGSV,2,2,06,10,70,273,41,13,40,236,36,3*73
$GBGSV,1,1,01,23,02,186,,0*4A
$GNRMC,034838.00,A,3726.9912607,N,12639.0701011,E,0.007,,210622,,,R,V*0A
$GNVTG,,T,,M,0.007,N,0.013,K,D*3D
$GNGNS,034838.00,3726.9912607,N,12639.0701011,E,RRRR,28,0.71,16.237,17.831,2.0,4095,V*08
$GNGGA,034838.00,3726.9912607,N,12639.0701011,E,4,12,0.71,16.237,M,17.831,M,2.0,4095*54
$GNGSA,A,3,14,06,19,03,17,01,,,,,,,1.43,0.71,1.24,1*09
$GNGSA,A,3,85,75,71,76,77,,,,,,,,1.43,0.71,1.24,2*0D
$GNGSA,A,3,15,21,03,27,08,13,01,,,,,,1.43,0.71,1.24,3*0E
$GNGSA,A,3,08,27,37,07,10,02,28,13,33,03,,,1.43,0.71,1.24,4*05
$GPGSV,3,1,09,01,24,056,41,03,52,062,44,06,38,267,44,09,07,144,36,1*6A
$GPGSV,3,2,09,14,50,195,43,17,71,356,46,19,50,318,44,28,,,45,1*58
$GPGSV,3,3,09,50,47,179,40,1*50
$GPGSV,2,1,07,01,24,056,38,03,52,062,36,04,12,113,12,06,38,267,36,6*61
$GPGSV,2,2,07,09,07,144,31,14,50,195,37,17,71,356,37,6*54
$GPGSV,1,1,03,02,00,256,,11,03,251,,21,04,068,,0*59
$GLGSV,2,1,08,69,03,019,11,70,39,071,29,71,32,135,44,75,16,204,33,1*74
$GLGSV,2,2,08,76,40,261,36,77,23,318,22,85,38,051,44,87,11,284,22,1*7D
$GLGSV,2,1,06,69,03,019,12,71,32,135,38,75,16,204,37,76,40,261,38,3*7F
$GLGSV,2,2,06,77,23,318,33,85,38,051,34,3*72
$GLGSV,1,1,02,72,02,172,,86,51,340,,0*75
$GAGSV,2,1,08,01,12,323,40,03,21,085,37,08,15,137,41,13,60,301,44,2*7A
$GAGSV,2,2,08,15,47,046,45,18,56,096,47,21,48,284,45,27,44,201,41,2*7F
$GAGSV,2,1,08,01,12,323,41,03,21,085,39,08,15,137,42,13,60,301,45,7*72
$GAGSV,2,2,08,15,47,046,43,18,56,096,46,21,48,284,42,27,44,201,43,7*78
$GAGSV,1,1,04,05,05,038,,26,14,263,,30,03,165,,34,03,069,,0*74
$GBGSV,3,1,12,01,43,152,41,02,27,236,34,03,44,206,41,04,35,132,39,1*7F
$GBGSV,3,2,12,07,75,228,42,08,50,238,39,10,70,273,43,13,40,236,42,1*71
$GBGSV,3,3,12,27,38,300,46,28,67,028,46,33,47,099,46,37,23,230,42,1*7A
$GBGSV,2,1,06,02,27,236,40,03,44,206,39,07,75,228,41,08,50,238,40,3*70
$GBGSV,2,2,06,10,70,273,41,13,40,236,36,3*73
$GBGSV,1,1,01,23,02,186,,0*4A
$GNRMC,034839.00,A,3726.9912603,N,12639.0701010,E,0.007,,210622,,,R,V*0E
$GNVTG,,T,,M,0.007,N,0.013,K,D*3D
$GNGNS,034839.00,3726.9912603,N,12639.0701010,E,RRRR,28,0.71,16.239,17.831,2.0,4095,V*02
$GNGGA,034839.00,3726.9912603,N,12639.0701010,E,4,12,0.71,16.239,M,17.831,M,2.0,4095*5E
$GNGSA,A,3,14,06,19,03,17,01,,,,,,,1.43,0.71,1.24,1*09
$GNGSA,A,3,85,75,71,76,77,,,,,,,,1.43,0.71,1.24,2*0D
$GNGSA,A,3,15,21,03,27,08,13,01,,,,,,1.43,0.71,1.24,3*0E
$GNGSA,A,3,08,27,37,07,10,02,28,13,33,03,,,1.43,0.71,1.24,4*05
$GPGSV,3,1,09,01,24,056,42,03,52,062,44,06,38,267,44,09,07,144,36,1*69
$GPGSV,3,2,09,14,50,195,43,17,71,356,46,19,50,318,44,28,,,45,1*58
$GPGSV,3,3,09,50,47,179,40,1*50
$GPGSV,2,1,07,01,24,056,38,03,52,062,36,04,12,113,12,06,38,267,36,6*61
$GPGSV,2,2,07,09,07,144,31,14,50,195,37,17,71,356,38,6*5B
$GPGSV,1,1,03,02,00,256,,11,03,251,,21,04,068,,0*59
$GLGSV,2,1,08,69,03,019,10,70,39,069,29,71,32,135,44,75,16,204,34,1*7B
$GLGSV,2,2,08,76,40,261,36,77,23,318,23,85,38,051,44,87,11,284,22,1*7C
$GLGSV,2,1,06,69,03,019,11,71,32,135,38,75,16,204,37,76,40,261,38,3*7C
$GLGSV,2,2,06,77,23,318,33,85,38,051,34,3*72
$GLGSV,1,1,02,72,02,172,,86,51,340,,0*75
$GAGSV,2,1,08,01,12,323,40,03,21,085,37,08,15,137,41,13,60,301,44,2*7A
$GAGSV,2,2,08,15,47,046,45,18,56,096,47,21,48,284,46,27,44,201,40,2*7D
$GAGSV,2,1,08,01,12,323,41,03,21,085,39,08,15,137,42,13,60,301,45,7*72
$GAGSV,2,2,08,15,47,046,43,18,56,096,46,21,48,284,42,27,44,201,44,7*7F
$GAGSV,1,1,04,05,05,038,,26,14,263,,30,03,165,,34,03,069,,0*74
$GBGSV,3,1,12,01,43,152,42,02,27,236,34,03,44,206,41,04,35,132,39,1*7C
$GBGSV,3,2,12,07,75,228,42,08,50,238,39,10,70,273,44,13,40,236,42,1*76
$GBGSV,3,3,12,27,38,300,46,28,67,028,46,33,47,099,46,37,23,230,42,1*7A
$GBGSV,2,1,06,02,27,236,40,03,44,206,39,07,75,228,41,08,50,238,40,3*70
$GBGSV,2,2,06,10,70,273,41,13,40,236,36,3*73
$GBGSV,1,1,01,23,02,186,,0*4A
$GNRMC,034840.00,A,3726.9912627,N,12639.0701036,E,0.012,,210622,,,R,V*06
$GNVTG,,T,,M,0.012,N,0.021,K,D*38
$GNGNS,034840.00,3726.9912627,N,12639.0701036,E,RRRR,28,0.71,16.243,17.831,2.0,4095,V*03
$GNGGA,034840.00,3726.9912627,N,12639.0701036,E,4,12,0.71,16.243,M,17.831,M,2.0,4095*5F
$GNGSA,A,3,14,06,19,03,17,01,,,,,,,1.43,0.71,1.24,1*09
$GNGSA,A,3,85,75,71,76,77,,,,,,,,1.43,0.71,1.24,2*0D
$GNGSA,A,3,15,21,03,27,08,13,01,,,,,,1.43,0.71,1.24,3*0E
$GNGSA,A,3,08,27,37,07,10,02,28,13,33,03,,,1.43,0.71,1.24,4*05
$GPGSV,3,1,09,01,24,056,42,03,52,062,44,06,38,267,44,09,07,144,36,1*69
$GPGSV,3,2,09,14,50,195,43,17,71,356,46,19,50,318,44,28,,,45,1*58
$GPGSV,3,3,09,50,47,179,40,1*50
$GPGSV,2,1,07,01,24,056,36,03,52,062,34,04,12,113,11,06,38,267,33,6*6B
$GPGSV,2,2,07,09,07,144,29,14,50,195,34,17,71,356,35,6*5C
$GPGSV,1,1,03,02,00,256,,11,03,251,,21,04,068,,0*59
$GLGSV,2,1,08,69,03,019,10,70,39,069,29,71,33,135,44,75,16,204,34,1*7A
$GLGSV,2,2,08,76,40,261,36,77,23,318,23,85,38,051,44,87,11,284,22,1*7C
$GLGSV,2,1,06,69,03,019,09,71,33,135,35,75,16,204,34,76,40,261,35,3*77
$GLGSV,2,2,06,77,23,318,30,85,38,051,31,3*74
$GLGSV,1,1,02,72,02,172,,86,51,340,,0*75
$GAGSV,2,1,08,01,12,323,40,03,21,085,36,08,15,137,41,13,60,301,44,2*7B
$GAGSV,2,2,08,15,47,046,45,18,56,096,47,21,48,284,46,27,44,201,40,2*7D
$GAGSV,2,1,08,01,12,323,41,03,21,085,39,08,15,137,42,13,60,301,45,7*72
$GAGSV,2,2,08,15,47,046,43,18,56,096,46,21,48,284,42,27,44,201,44,7*7F
$GNRMC,034841.00,A,3726.9912627,N,12639.0701010,E,0.003,,210622,,,R,V*03
$GNVTG,,T,,M,0.003,N,0.006,K,D*3D
$GNGNS,034841.00,3726.9912627,N,12639.0701010,E,RRRR,28,0.71,16.236,17.831,2.0,4095,V*04
$GNGGA,034841.00,3726.9912627,N,12639.0701010,E,4,12,0.71,16.236,M,17.831,M,2.0,4095*58
$GNGSA,A,3,14,06,19,03,17,01,,,,,,,1.43,0.71,1.24,1*09
$GNGSA,A,3,85,75,71,76,77,,,,,,,,1.43,0.71,1.24,2*0D
$GNGSA,A,3,15,21,03,27,08,13,01,,,,,,1.43,0.71,1.24,3*0E
$GNGSA,A,3,08,27,37,07,10,02,28,13,33,03,,,1.43,0.71,1.24,4*05
$GPGSV,3,1,09,01,24,056,42,03,52,062,44,06,38,267,44,09,07,144,35,1*6A
$GPGSV,3,2,09,14,50,195,43,17,71,356,46,19,50,318,44,28,,,45,1*58
$GPGSV,3,3,09,50,47,179,40,1*50
$GPGSV,2,1,07,01,24,056,37,03,52,062,35,04,12,113,16,06,38,267,35,6*6A
$GPGSV,2,2,07,09,07,144,29,14,50,195,36,17,71,356,37,6*5C
$GPGSV,1,1,03,02,00,256,,11,03,251,,21,04,068,,0*59
$GLGSV,2,1,08,69,03,019,12,70,39,069,29,71,33,135,44,75,16,204,34,1*78
$GLGSV,2,2,08,76,40,261,36,77,23,318,23,85,38,051,44,87,11,284,21,1*7F
$GLGSV,2,1,06,69,03,019,08,71,33,135,35,75,16,204,35,76,40,261,36,3*74
$GLGSV,2,2,06,77,23,318,31,85,38,051,32,3*76
$GLGSV,1,1,02,72,02,172,,86,51,340,,0*75
$GAGSV,2,1,08,01,12,323,40,03,21,085,37,08,15,137,41,13,60,301,44,2*7A
$GAGSV,2,2,08,15,47,046,45,18,56,096,47,21,48,284,45,27,44,201,40,2*7E
$GAGSV,2,1,08,01,12,323,41,03,21,085,39,08,15,137,42,13,60,301,45,7*72
$GAGSV,2,2,08,15,47,046,43,18,56,096,46,21,48,284,42,27,44,201,44,7*7F
$GAGSV,1,1,04,05,05,038,,26,14,263,,30,03,165,,34,03,069,,0*74
$GBGSV,3,1,12,01,43,152,42,02,27,236,34,03,44,206,41,04,35,132,39,1*7C
$GBGSV,3,2,12,07,75,228,42,08,50,238,39,10,70,273,43,13,40,236,42,1*71
$GBGSV,3,3,12,27,38,300,46,28,67,028,46,33,47,099,46,37,23,230,42,1*7A
$GBGSV,2,1,06,02,27,236,40,03,44,206,38,07,75,228,41,08,50,238,40,3*71
$GBGSV,2,2,06,10,70,273,40,13,40,236,35,3*71
$GBGSV,1,1,01,23,02,186,,0*4A
$GNRMC,034842.00,A,3726.9912612,N,12639.0700990,E,0.008,,210622,,,R,V*0D
$GNVTG,,T,,M,0.008,N,0.014,K,D*35
$GNGNS,034842.00,3726.9912612,N,12639.0700990,E,RRRR,28,0.71,16.233,17.831,3.0,4095,V*05
$GNGGA,034842.00,3726.9912612,N,12639.0700990,E,4,12,0.71,16.233,M,17.831,M,3.0,4095*59
$GNGSA,A,3,14,06,19,03,17,01,,,,,,,1.43,0.71,1.24,1*09
$GNGSA,A,3,85,75,71,76,77,,,,,,,,1.43,0.71,1.24,2*0D
$GNGSA,A,3,15,21,03,27,08,13,01,,,,,,1.43,0.71,1.24,3*0E
$GNGSA,A,3,08,27,37,07,10,02,28,13,33,03,,,1.43,0.71,1.24,4*05
$GPGSV,3,1,09,01,24,056,42,03,52,062,44,06,38,267,44,09,07,144,36,1*69
$GPGSV,3,2,09,14,50,195,43,17,71,356,46,19,50,318,44,28,,,45,1*58
$GPGSV,3,3,09,50,47,179,40,1*50
$GPGSV,2,1,07,01,24,056,41,03,52,062,39,04,12,113,18,06,38,267,38,6*64
$GPGSV,2,2,07,09,07,144,29,14,50,195,39,17,71,356,40,6*53
$GPGSV,1,1,03,02,00,256,,11,03,251,,21,04,068,,0*59
$GNRMC,034843.00,A,3726.9912619,N,12639.0700980,E,0.006,,210622,,,R,V*08
$GNVTG,,T,,M,0.006,N,0.012,K,D*3D
$GNGNS,034843.00,3726.9912619,N,12639.0700980,E,RRRR,28,0.71,16.231,17.831,4.0,4095,V*0B
$GNGGA,034843.00,3726.9912619,N,12639.0700980,E,4,12,0.71,16.231,M,17.831,M,4.0,4095*57
$GNGSA,A,3,14,06,19,03,17,01,,,,,,,1.43,0.71,1.24,1*09
$GNGSA,A,3,85,75,71,76,77,,,,,,,,1.43,0.71,1.24,2*0D
$GNGSA,A,3,15,21,03,27,08,13,01,,,,,,1.43,0.71,1.24,3*0E
$GNGSA,A,3,08,27,37,07,10,02,28,13,33,03,,,1.43,0.71,1.24,4*05
$GPGSV,3,1,09,01,24,056,42,03,52,062,44,06,38,267,44,09,07,144,36,1*69
$GPGSV,3,2,09,14,50,195,43,17,71,356,46,19,50,318,44,28,,,45,1*58
$GPGSV,3,3,09,50,47,179,40,1*50
$GPGSV,2,1,07,01,24,056,39,03,52,062,36,04,12,113,19,06,38,267,36,6*6B
$GPGSV,2,2,07,09,07,144,29,14,50,195,36,17,71,356,38,6*53
$GPGSV,1,1,03,02,00,256,,11,03,251,,21,04,068,,0*59
