$GNRMC,034404.00,A,3727.0622384,N,12639.0863406,E,0.010,,220622,,,F,V*1B
$GNVTG,,T,,M,0.010,N,0.018,K,D*30
$GNGNS,034404.00,3727.0622384,N,12639.0863406,E,FFFF,14,2.09,13.034,17.831,17.0,4095,V*3A
$GNGGA,034404.00,3727.0622384,N,12639.0863406,E,5,12,2.09,13.034,M,17.831,M,17.0,4095*68
$GNGSA,A,3,01,19,06,17,03,14,,,,,,,3.32,2.09,2.57,1*07
$GNGSA,A,3,78,87,71,,,,,,,,,,3.32,2.09,2.57,2*0D
$GNGSA,A,3,02,,,,,,,,,,,,3.32,2.09,2.57,3*08
$GNGSA,A,3,11,08,07,10,,,,,,,,,3.32,2.09,2.57,4*03
$GPGSV,2,1,08,01,24,056,30,03,51,061,43,06,38,267,38,14,50,195,40,1*63
$GPGSV,2,2,08,17,71,356,45,19,50,318,44,28,,,41,41,27,238,39,1*56
$GPGSV,2,1,05,01,24,056,25,03,51,061,39,06,38,267,36,14,50,195,38,6*61
$GPGSV,2,2,05,17,71,356,28,6*5C
$GLGSV,2,1,05,71,37,067,44,76,17,205,39,77,39,256,25,78,22,320,36,1*70
$GLGSV,2,2,05,87,48,329,43,1*41
$GLGSV,1,1,04,71,37,067,42,76,17,205,38,77,39,256,33,78,22,320,35,3*73
$GAGSV,1,1,02,02,53,227,44,18,27,300,33,2*78
$GAGSV,2,1,05,02,53,227,44,09,,,39,18,27,300,44,30,,,40,7*7D
$GAGSV,2,2,05,36,,,45,7*72
$GBGSV,2,1,07,03,,,33,07,75,229,42,08,50,238,40,10,70,273,40,1*4F
$GBGSV,2,2,07,11,51,064,45,28,,,40,34,,,43,1*48
$GBGSV,1,1,04,07,75,229,40,08,50,238,42,10,70,273,38,11,51,064,47,3*74
$GNRMC,034405.00,A,3727.0622468,N,12639.0863419,E,0.010,,220622,,,F,V*11
$GNVTG,,T,,M,0.010,N,0.018,K,D*30
$GNGNS,034405.00,3727.0622468,N,12639.0863419,E,FFFF,14,2.09,13.002,17.831,18.0,4095,V*3A
$GNGGA,034405.00,3727.0622468,N,12639.0863419,E,5,12,2.09,13.002,M,17.831,M,18.0,4095*68
$GNGSA,A,3,01,19,06,17,03,14,,,,,,,3.32,2.09,2.57,1*07
$GNGSA,A,3,78,87,71,,,,,,,,,,3.32,2.09,2.57,2*0D
$GNGSA,A,3,02,,,,,,,,,,,,3.32,2.09,2.57,3*08
$GNGSA,A,3,11,08,07,10,,,,,,,,,3.32,2.09,2.57,4*03
$GPGSV,2,1,08,01,24,056,33,03,51,061,47,06,38,267,41,14,50,195,44,1*6E
$GPGSV,2,2,08,17,71,356,48,19,50,318,46,28,,,44,41,27,238,42,1*50
$GPGSV,2,1,05,01,24,056,25,03,51,061,39,06,38,267,36,14,50,195,38,6*61
$GPGSV,2,2,05,17,71,356,28,6*5C
$GLGSV,2,1,05,71,37,067,44,76,17,205,39,77,39,256,25,78,22,320,36,1*70
$GLGSV,2,2,05,87,48,329,44,1*46
$GLGSV,1,1,04,71,37,067,41,76,17,205,39,77,39,256,33,78,22,320,36,3*72
$GAGSV,1,1,02,02,53,227,44,18,27,300,33,2*78
$GAGSV,2,1,05,02,53,227,44,09,,,41,18,27,300,45,30,,,42,7*71
$GAGSV,2,2,05,36,,,45,7*72
$GBGSV,2,1,07,03,,,37,07,75,229,45,08,50,238,42,10,70,273,43,1*4D
$GBGSV,2,2,07,11,51,064,48,28,,,42,34,,,46,1*42
$GBGSV,1,1,04,07,75,229,40,08,50,238,42,10,70,273,38,11,51,064,47,3*74
$GNRMC,034406.00,A,3727.0622646,N,12639.0863452,E,0.014,,220622,,,F,V*17
$GNVTG,,T,,M,0.014,N,0.027,K,D*38
$GNGNS,034406.00,3727.0622646,N,12639.0863452,E,FFFF,14,2.09,12.998,17.831,19.0,4095,V*32
$GNGGA,034406.00,3727.0622646,N,12639.0863452,E,5,12,2.09,12.998,M,17.831,M,19.0,4095*60
$GNGSA,A,3,01,19,06,17,03,14,,,,,,,3.32,2.09,2.57,1*07
$GNGSA,A,3,78,87,71,,,,,,,,,,3.32,2.09,2.57,2*0D
$GNGSA,A,3,02,,,,,,,,,,,,3.32,2.09,2.57,3*08
$GNGSA,A,3,11,08,07,10,,,,,,,,,3.32,2.09,2.57,4*03
$GPGSV,2,1,08,01,24,056,32,03,51,061,45,06,38,267,40,14,50,195,43,1*6B
$GPGSV,2,2,08,17,71,356,47,19,50,318,45,28,,,43,41,27,238,41,1*58
$GPGSV,2,1,05,01,24,056,25,03,51,061,39,06,38,267,36,14,50,195,38,6*61
$GPGSV,2,2,05,17,71,356,29,6*5D
$GLGSV,2,1,05,71,37,067,46,76,17,205,40,77,39,256,26,78,22,320,37,1*7E
$GLGSV,2,2,05,87,48,329,45,1*47
$GLGSV,1,1,04,71,37,067,41,76,17,205,38,77,39,256,33,78,22,320,36,3*73
$GAGSV,1,1,02,02,53,227,44,18,27,300,33,2*78
$GAGSV,2,1,05,02,53,227,44,09,,,40,18,27,300,45,30,,,42,7*70
$GAGSV,2,2,05,36,,,45,7*72
$GBGSV,2,1,07,03,,,35,07,75,229,44,08,50,238,41,10,70,273,42,1*4C
$GBGSV,2,2,07,11,51,064,46,28,,,41,34,,,44,1*4D
$GBGSV,1,1,04,07,75,229,40,08,50,238,43,10,70,273,38,11,51,064,47,3*75
$GNRMC,034407.00,A,3727.0622778,N,12639.0863452,E,0.010,,220622,,,F,V*1E
$GNVTG,,T,,M,0.010,N,0.018,K,D*30
$GNGNS,034407.00,3727.0622778,N,12639.0863452,E,FFFF,14,2.09,12.998,17.831,20.0,4095,V*35
$GNGGA,034407.00,3727.0622778,N,12639.0863452,E,5,12,2.09,12.998,M,17.831,M,20.0,4095*67
$GNGSA,A,3,01,19,06,17,03,14,,,,,,,3.32,2.09,2.57,1*07
$GNGSA,A,3,78,87,71,,,,,,,,,,3.32,2.09,2.57,2*0D
$GNGSA,A,3,02,,,,,,,,,,,,3.32,2.09,2.57,3*08
$GNGSA,A,3,11,08,07,10,,,,,,,,,3.32,2.09,2.57,4*03
$GPGSV,2,1,08,01,24,056,32,03,51,061,45,06,38,267,39,14,50,195,42,1*64
$GPGSV,2,2,08,17,71,356,47,19,50,318,45,28,,,43,41,27,238,41,1*58
$GPGSV,2,1,05,01,24,056,25,03,51,061,39,06,38,267,36,14,50,195,38,6*61
$GPGSV,2,2,05,17,71,356,30,6*55
$GLGSV,2,1,05,71,37,067,45,76,17,205,41,77,39,256,26,78,22,320,37,1*7C
$GLGSV,2,2,05,87,48,329,45,1*47
$GLGSV,1,1,04,71,37,067,41,76,17,205,38,77,39,256,33,78,22,320,36,3*73
$GAGSV,1,1,02,02,53,227,44,18,27,300,33,2*78
$GAGSV,2,1,05,02,53,227,44,09,,,40,18,27,300,44,30,,,41,7*72
$GAGSV,2,2,05,36,,,45,7*72
$GBGSV,2,1,07,03,,,35,07,75,229,44,08,50,238,40,10,70,273,41,1*4E
$GBGSV,2,2,07,11,51,064,46,28,,,41,34,,,44,1*4D
$GBGSV,1,1,04,07,75,229,40,08,50,238,42,10,70,273,38,11,51,064,47,3*74
$GNRMC,034408.00,A,3727.0618792,N,12639.0863140,E,0.113,,220622,,,F,V*18
$GNVTG,,T,,M,0.113,N,0.209,K,D*30
$GNGNS,034408.00,3727.0618792,N,12639.0863140,E,FFFF,14,1.16,12.895,17.831,2.0,4095,V*00
$GNGGA,034408.00,3727.0618792,N,12639.0863140,E,5,12,1.16,12.895,M,17.831,M,2.0,4095*52
$GNGSA,A,3,01,19,06,17,03,14,,,,,,,2.13,1.16,1.78,1*06
$GNGSA,A,3,78,87,71,,,,,,,,,,2.13,1.16,1.78,2*0C
$GNGSA,A,3,02,,,,,,,,,,,,2.13,1.16,1.78,3*09
$GNGSA,A,3,11,08,07,10,,,,,,,,,2.13,1.16,1.78,4*02
$GPGSV,2,1,08,01,24,056,32,03,51,061,45,06,38,267,39,14,50,195,42,1*64
$GPGSV,2,2,08,17,71,356,47,19,50,318,46,28,,,43,41,27,238,41,1*5B
$GPGSV,2,1,05,01,24,056,25,03,51,061,39,06,38,267,36,14,50,195,40,6*6E
$GPGSV,2,2,05,17,71,356,30,6*55
$GLGSV,2,1,05,71,37,067,46,76,17,205,41,77,39,256,27,78,22,320,38,1*71
$GLGSV,2,2,05,87,48,329,45,1*47
$GLGSV,1,1,04,71,37,067,41,76,17,205,38,77,39,256,33,78,22,320,35,3*70
$GAGSV,1,1,02,02,53,227,45,18,27,300,33,2*79
$GAGSV,2,1,05,02,53,227,44,09,,,40,18,27,300,45,30,,,41,7*73
$GAGSV,2,2,05,36,,,45,7*72
$GBGSV,2,1,07,03,,,35,07,75,229,44,08,50,238,40,10,70,273,42,1*4D
$GBGSV,2,2,07,11,51,064,46,28,,,41,34,,,44,1*4D
$GBGSV,1,1,04,07,75,229,40,08,50,238,42,10,70,273,39,11,51,064,47,3*75
$GNRMC,034409.00,A,3727.0617647,N,12639.0862878,E,0.054,,220622,,,F,V*1E
$GNVTG,,T,,M,0.054,N,0.100,K,D*38
$GNGNS,034409.00,3727.0617647,N,12639.0862878,E,FFFF,17,1.16,13.071,17.831,3.0,4095,V*05
$GNGGA,034409.00,3727.0617647,N,12639.0862878,E,5,12,1.16,13.071,M,17.831,M,3.0,4095*54
$GNGSA,A,3,01,19,06,17,03,14,,,,,,,2.12,1.16,1.78,1*07
$GNGSA,A,3,78,76,77,87,71,,,,,,,,2.12,1.16,1.78,2*0C
$GNGSA,A,3,02,,,,,,,,,,,,2.12,1.16,1.78,3*08
$GNGSA,A,3,11,08,07,10,34,,,,,,,,2.12,1.16,1.78,4*04
$GPGSV,2,1,08,01,24,056,32,03,51,061,45,06,38,267,39,14,50,195,42,1*64
$GPGSV,2,2,08,17,71,356,47,19,50,318,46,28,,,43,41,27,238,41,1*5B
$GPGSV,2,1,05,01,24,056,25,03,51,061,39,06,38,267,37,14,50,195,39,6*61
$GPGSV,2,2,05,17,71,356,30,6*55
$GLGSV,2,1,05,71,37,067,46,76,17,205,41,77,39,256,26,78,22,320,38,1*70
$GLGSV,2,2,05,87,48,329,45,1*47
$GLGSV,1,1,04,71,37,067,43,76,17,205,39,77,39,256,34,78,22,320,36,3*77
$GAGSV,1,1,02,02,53,227,45,18,27,300,34,2*7E
$GAGSV,2,1,05,02,53,227,44,09,,,40,18,27,300,45,30,,,41,7*73
$GAGSV,2,2,05,36,,,46,7*71
$GBGSV,2,1,07,03,,,35,07,75,229,44,08,50,238,41,10,70,273,42,1*4C
$GBGSV,2,2,07,11,51,064,46,28,,,41,34,,,44,1*4D
$GBGSV,1,1,04,07,75,229,41,08,50,238,43,10,70,273,39,11,51,064,48,3*7A
$GNRMC,034410.00,A,3727.0616631,N,12639.0862463,E,0.087,,220622,,,F,V*1E
$GNVTG,,T,,M,0.087,N,0.162,K,D*32
$GNGNS,034410.00,3727.0616631,N,12639.0862463,E,FFFF,20,0.80,13.279,17.831,3.0,4095,V*0B
$GNGGA,034410.00,3727.0616631,N,12639.0862463,E,5,12,0.80,13.279,M,17.831,M,3.0,4095*5E
$GNGSA,A,3,01,19,06,17,03,14,,,,,,,1.48,0.80,1.24,1*0C
$GNGSA,A,3,78,76,77,87,71,,,,,,,,1.48,0.80,1.24,2*07
$GNGSA,A,3,30,09,02,36,,,,,,,,,1.48,0.80,1.24,3*0C
$GNGSA,A,3,11,08,07,10,34,,,,,,,,1.48,0.80,1.24,4*0F
$GPGSV,2,1,08,01,24,056,32,03,51,061,45,06,38,267,39,14,50,195,42,1*64
$GPGSV,2,2,08,17,71,356,47,19,50,318,46,28,,,43,41,27,238,41,1*5B
$GPGSV,2,1,05,01,24,056,24,03,51,061,38,06,38,267,36,14,50,195,38,6*61
$GPGSV,2,2,05,17,71,356,30,6*55
$GLGSV,2,1,05,71,37,067,45,76,17,205,41,77,39,256,26,78,22,320,38,1*73
$GLGSV,2,2,05,87,48,329,45,1*47
$GLGSV,1,1,04,71,37,067,42,76,17,205,39,77,39,256,33,78,22,320,35,3*72
$GAGSV,1,1,02,02,53,227,44,18,27,300,34,2*7F
$GAGSV,2,1,05,02,53,227,44,09,,,40,18,27,300,44,30,,,41,7*72
$GAGSV,2,2,05,36,,,46,7*71
$GBGSV,2,1,07,03,,,36,07,75,229,43,08,50,238,41,10,70,273,42,1*48
$GBGSV,2,2,07,11,51,064,46,28,,,41,34,33,084,44,1*71
$GBGSV,1,1,04,07,75,229,41,08,50,238,43,10,70,273,38,11,51,064,46,3*75
$GNRMC,034411.00,A,3727.0608546,N,12639.0858557,E,0.023,,220622,,,R,V*06
$GNVTG,,T,,M,0.023,N,0.043,K,D*3E
$GNGNS,034411.00,3727.0608546,N,12639.0858557,E,RRRR,20,0.80,20.337,17.831,4.0,4095,V*05
$GNGGA,034411.00,3727.0608546,N,12639.0858557,E,4,12,0.80,20.337,M,17.831,M,4.0,4095*51
$GNGSA,A,3,01,19,06,17,03,14,,,,,,,1.48,0.80,1.24,1*0C
$GNGSA,A,3,78,76,77,87,71,,,,,,,,1.48,0.80,1.24,2*07
$GNGSA,A,3,30,09,02,36,,,,,,,,,1.48,0.80,1.24,3*0C
$GNGSA,A,3,11,08,07,10,34,,,,,,,,1.48,0.80,1.24,4*0F
$GPGSV,2,1,08,01,24,056,33,03,51,061,45,06,38,267,39,14,50,195,42,1*65
$GPGSV,2,2,08,17,71,356,47,19,50,318,45,28,,,43,41,27,238,41,1*58
$GPGSV,2,1,05,01,24,056,24,03,51,061,38,06,38,267,36,14,50,195,38,6*61
$GPGSV,2,2,05,17,71,356,30,6*55
$GLGSV,2,1,05,71,37,067,45,76,17,205,41,77,39,256,26,78,22,320,38,1*73
$GLGSV,2,2,05,87,48,329,45,1*47
$GLGSV,1,1,04,71,37,067,42,76,17,205,38,77,39,256,33,78,22,320,35,3*73
$GAGSV,1,1,04,02,53,227,44,18,27,300,35,30,36,303,43,36,63,018,46,2*72
$GAGSV,2,1,05,02,53,227,44,09,22,107,39,18,27,300,45,30,36,303,41,7*7E
$GAGSV,2,2,05,36,63,018,46,7*4D
$GBGSV,2,1,07,03,,,36,07,75,229,43,08,50,238,41,10,70,273,42,1*48
$GBGSV,2,2,07,11,51,064,46,28,,,42,34,33,084,44,1*72
$GBGSV,1,1,04,07,75,229,39,08,50,238,43,10,70,273,38,11,51,064,46,3*7A
$GNRMC,034412.00,A,3727.0608565,N,12639.0858565,E,0.006,,220622,,,R,V*02
$GNVTG,,T,,M,0.006,N,0.010,K,D*3F
$GNGNS,034412.00,3727.0608565,N,12639.0858565,E,RRRR,20,0.80,20.321,17.831,5.0,4095,V*00
$GNGGA,034412.00,3727.0608565,N,12639.0858565,E,4,12,0.80,20.321,M,17.831,M,5.0,4095*54
$GNGSA,A,3,01,19,06,17,03,14,,,,,,,1.48,0.80,1.24,1*0C
$GNGSA,A,3,78,76,77,87,71,,,,,,,,1.48,0.80,1.24,2*07
$GNGSA,A,3,30,09,02,36,,,,,,,,,1.48,0.80,1.24,3*0C
$GNGSA,A,3,11,08,07,10,34,,,,,,,,1.48,0.80,1.24,4*0F
$GPGSV,2,1,08,01,24,056,33,03,51,061,46,06,38,267,39,14,50,195,42,1*66
$GPGSV,2,2,08,17,71,356,47,19,50,318,46,28,,,43,41,27,238,41,1*5B
$GPGSV,2,1,05,01,24,056,23,03,51,061,38,06,38,267,37,14,50,195,38,6*67
$GPGSV,2,2,05,17,71,356,31,6*54
$GLGSV,2,1,05,71,37,067,45,76,17,205,41,77,39,256,26,78,22,320,36,1*7D
$GLGSV,2,2,05,87,48,329,45,1*47
$GLGSV,1,1,04,71,37,067,42,76,17,205,38,77,39,256,34,78,22,320,36,3*77
$GAGSV,1,1,04,02,53,227,44,18,27,300,35,30,36,303,43,36,63,018,46,2*72
$GAGSV,2,1,05,02,53,227,44,09,22,107,39,18,27,300,45,30,36,303,41,7*7E
$GAGSV,2,2,05,36,63,018,46,7*4D
$GBGSV,2,1,07,03,,,36,07,75,229,44,08,50,238,41,10,70,273,42,1*4F
$GBGSV,2,2,07,11,51,064,46,28,,,42,34,33,084,44,1*72
$GBGSV,1,1,04,07,75,229,40,08,50,238,43,10,70,273,38,11,51,064,47,3*75
$GNRMC,034413.00,A,3727.0608588,N,12639.0858505,E,0.024,,220622,,,R,V*06
$GNVTG,,T,,M,0.024,N,0.045,K,D*3F
$GNGNS,034413.00,3727.0608588,N,12639.0858505,E,RRRR,20,0.80,20.319,17.831,6.0,4095,V*0C
$GNGGA,034413.00,3727.0608588,N,12639.0858505,E,4,12,0.80,20.319,M,17.831,M,6.0,4095*58
$GNGSA,A,3,01,19,06,17,03,14,,,,,,,1.48,0.80,1.24,1*0C
$GNGSA,A,3,78,76,77,87,71,,,,,,,,1.48,0.80,1.24,2*07
$GNGSA,A,3,30,09,02,36,,,,,,,,,1.48,0.80,1.24,3*0C
$GNGSA,A,3,11,08,07,10,34,,,,,,,,1.48,0.80,1.24,4*0F
$GPGSV,2,1,08,01,24,056,32,03,51,061,46,06,38,267,39,14,50,195,42,1*67
$GPGSV,2,2,08,17,71,356,47,19,50,318,46,28,,,43,41,27,238,41,1*5B
$GPGSV,2,1,05,01,24,056,24,03,51,061,36,06,38,267,35,14,50,195,36,6*62
$GPGSV,2,2,05,17,71,356,30,6*55
$GLGSV,2,1,05,71,37,067,45,76,17,205,40,77,39,256,26,78,22,320,36,1*7C
$GLGSV,2,2,05,87,48,329,46,1*44
$GLGSV,1,1,04,71,37,067,39,76,17,205,36,77,39,256,32,78,22,320,31,3*74
$GAGSV,1,1,04,02,53,227,43,18,27,300,38,30,36,303,42,36,63,018,46,2*79
$GAGSV,2,1,05,02,53,227,44,09,22,107,39,18,27,300,45,30,36,303,40,7*7F
$GAGSV,2,2,05,36,63,018,45,7*4E
$GBGSV,2,1,07,03,,,36,07,75,229,44,08,50,238,41,10,70,273,42,1*4F
$GBGSV,2,2,07,11,51,064,46,28,,,42,34,33,084,44,1*72
$GBGSV,1,1,04,07,75,229,38,08,50,238,41,10,70,273,38,11,51,064,45,3*7A
$GNRMC,034414.00,A,3727.0608570,N,12639.0858503,E,0.026,,220622,,,R,V*02
$GNVTG,,T,,M,0.026,N,0.047,K,D*3F
$GNGNS,034414.00,3727.0608570,N,12639.0858503,E,RRRR,20,0.80,20.326,17.831,7.0,4095,V*07
$GNGGA,034414.00,3727.0608570,N,12639.0858503,E,4,12,0.80,20.326,M,17.831,M,7.0,4095*53
$GNGSA,A,3,01,19,06,17,03,14,,,,,,,1.48,0.80,1.24,1*0C
$GNGSA,A,3,78,76,77,87,71,,,,,,,,1.48,0.80,1.24,2*07
$GNGSA,A,3,30,09,02,36,,,,,,,,,1.48,0.80,1.24,3*0C
$GNGSA,A,3,11,08,07,10,34,,,,,,,,1.48,0.80,1.24,4*0F
$GPGSV,2,1,08,01,24,056,32,03,51,061,46,06,38,267,35,14,49,195,43,1*62
$GPGSV,2,2,08,17,71,356,48,19,50,318,45,28,,,43,41,27,238,38,1*59
$GPGSV,2,1,05,01,24,056,24,03,51,061,40,06,38,267,37,14,49,195,39,6*66
$GPGSV,2,2,05,17,71,356,30,6*55
$GLGSV,2,1,05,71,37,067,44,76,17,205,40,77,39,256,25,78,22,320,35,1*7D
$GLGSV,2,2,05,87,48,329,47,1*45
$GLGSV,1,1,04,71,37,067,42,76,17,205,40,77,39,256,33,78,22,320,35,3*7C
$GAGSV,2,1,05,02,53,227,44,09,22,107,37,18,27,300,33,30,36,303,43,2*76
$GAGSV,2,2,05,36,63,018,48,2*46
$GAGSV,2,1,05,02,53,227,44,09,22,107,39,18,27,300,40,30,36,303,37,7*7A
$GAGSV,2,2,05,36,63,018,46,7*4D
$GBGSV,2,1,07,03,,,36,07,75,229,43,08,50,238,39,10,70,273,42,1*47
$GBGSV,2,2,07,11,51,064,47,28,,,38,34,33,084,44,1*7E
$GBGSV,1,1,04,07,75,229,41,08,50,238,43,10,70,273,41,11,51,064,49,3*74
$GNRMC,034415.00,A,3727.0608537,N,12639.0858533,E,0.029,,220622,,,R,V*0C
$GNVTG,,T,,M,0.029,N,0.054,K,D*32
$GNGNS,034415.00,3727.0608537,N,12639.0858533,E,RRRR,21,0.80,20.330,17.831,8.0,4095,V*0F
$GNGGA,034415.00,3727.0608537,N,12639.0858533,E,4,12,0.80,20.330,M,17.831,M,8.0,4095*5A
$GNGSA,A,3,01,19,06,17,03,14,,,,,,,1.48,0.80,1.24,1*0C
$GNGSA,A,3,78,76,77,87,71,,,,,,,,1.48,0.80,1.24,2*07
$GNGSA,A,3,30,09,02,36,,,,,,,,,1.48,0.80,1.24,3*0C
$GNGSA,A,3,28,11,08,07,10,34,,,,,,,1.48,0.80,1.24,4*05
$GPGSV,2,1,08,01,24,056,32,03,51,061,46,06,38,267,38,14,49,195,42,1*6E
$GPGSV,2,2,08,17,71,356,48,19,50,318,45,28,,,42,41,27,238,27,1*56
$GPGSV,1,1,01,04,,,37,5*61
$GPGSV,2,1,05,01,24,056,23,03,51,061,37,06,38,267,35,14,49,195,37,6*6D
$GPGSV,2,2,05,17,71,356,28,6*5C
$GLGSV,2,1,05,71,37,067,45,76,17,205,40,77,39,256,24,78,22,320,37,1*7F
$GLGSV,2,2,05,87,48,329,46,1*44
$GLGSV,1,1,04,71,37,067,42,76,17,205,40,77,39,256,29,78,22,320,34,3*76
$GAGSV,2,1,05,02,53,227,42,09,22,107,37,18,27,300,38,30,36,303,44,2*7C
$GAGSV,2,2,05,36,63,018,48,2*46
$GAGSV,2,1,05,02,53,227,43,09,22,107,40,18,27,300,46,30,36,303,40,7*75
$GAGSV,2,2,05,36,63,018,45,7*4E
$GBGSV,2,1,07,03,,,34,07,75,229,42,08,50,238,39,10,70,273,42,1*44
$GBGSV,2,2,07,11,51,064,47,28,,,43,34,33,084,45,1*73
$GBGSV,1,1,04,07,75,229,41,08,50,238,40,10,70,273,39,11,51,064,47,3*76
$GNRMC,034416.00,A,3727.0608569,N,12639.0858530,E,0.027,,220622,,,R,V*09
$GNVTG,,T,,M,0.027,N,0.049,K,D*30
$GNGNS,034416.00,3727.0608569,N,12639.0858530,E,RRRR,21,0.80,20.310,17.831,9.0,4095,V*07
$GNGGA,034416.00,3727.0608569,N,12639.0858530,E,4,12,0.80,20.310,M,17.831,M,9.0,4095*52
$GNGSA,A,3,01,19,06,17,03,14,,,,,,,1.48,0.80,1.24,1*0C
$GNGSA,A,3,78,76,77,87,71,,,,,,,,1.48,0.80,1.24,2*07
$GNGSA,A,3,30,09,02,36,,,,,,,,,1.48,0.80,1.24,3*0C
$GNGSA,A,3,28,11,08,07,10,34,,,,,,,1.48,0.80,1.24,4*05
$GPGSV,2,1,08,01,24,056,33,03,51,061,46,06,38,267,39,14,49,195,42,1*6E
$GPGSV,2,2,08,17,71,356,48,19,50,318,45,28,,,43,41,27,238,40,1*56
$GPGSV,1,1,01,04,,,38,5*6E
$GPGSV,2,1,05,01,24,056,24,03,51,061,39,06,38,267,38,14,49,195,39,6*67
$GPGSV,2,2,05,17,71,356,33,6*56
$GLGSV,2,1,05,71,37,067,45,76,17,205,40,77,39,256,25,78,22,320,36,1*7F
$GLGSV,2,2,05,87,48,329,46,1*44
$GLGSV,1,1,04,71,37,067,42,76,17,205,40,77,39,256,34,78,22,320,34,3*7A
$GAGSV,2,1,05,02,53,227,45,09,22,107,35,18,27,300,37,30,36,303,44,2*76
$GAGSV,2,2,05,36,63,018,48,2*46
$GAGSV,2,1,05,02,53,227,44,09,22,107,39,18,27,300,44,30,36,303,39,7*70
$GAGSV,2,2,05,36,63,018,45,7*4E
$GBGSV,2,1,07,03,,,36,07,75,229,43,08,50,238,40,10,70,273,42,1*49
$GBGSV,2,2,07,11,51,064,47,28,31,295,42,34,33,084,44,1*4F
$GBGSV,1,1,04,07,75,229,40,08,50,238,43,10,70,273,39,11,51,064,47,3*74
$GNRMC,034417.00,A,3727.0608555,N,12639.0858511,E,0.012,,220622,,,R,V*02
$GNVTG,,T,,M,0.012,N,0.021,K,D*38
$GNGNS,034417.00,3727.0608555,N,12639.0858511,E,RRRR,21,0.80,20.325,17.831,10.0,4095,V*34
$GNGGA,034417.00,3727.0608555,N,12639.0858511,E,4,12,0.80,20.325,M,17.831,M,10.0,4095*61
$GNGSA,A,3,01,19,06,17,03,14,,,,,,,1.48,0.80,1.24,1*0C
$GNGSA,A,3,78,76,77,87,71,,,,,,,,1.48,0.80,1.24,2*07
$GNGSA,A,3,30,09,02,36,,,,,,,,,1.48,0.80,1.24,3*0C
$GNGSA,A,3,28,11,08,07,10,34,,,,,,,1.48,0.80,1.24,4*05
$GPGSV,2,1,08,01,24,056,32,03,51,061,46,06,38,267,39,14,49,195,41,1*6C
$GPGSV,2,2,08,17,71,356,48,19,50,318,45,28,,,43,41,27,238,40,1*56
$GPGSV,1,1,01,04,,,34,5*62
$GNRMC,034418.00,A,3727.0608548,N,12639.0858490,E,0.016,,220622,,,R,V*0D
$GNVTG,,T,,M,0.016,N,0.030,K,D*3C
$GNGNS,034418.00,3727.0608548,N,12639.0858490,E,RRRR,21,0.80,20.326,17.831,11.0,4095,V*3D
$GNGGA,034418.00,3727.0608548,N,12639.0858490,E,4,12,0.80,20.326,M,17.831,M,11.0,4095*68
$GNGSA,A,3,01,19,06,17,03,14,,,,,,,1.48,0.80,1.24,1*0C
$GNGSA,A,3,78,76,77,87,71,,,,,,,,1.48,0.80,1.24,2*07
$GNGSA,A,3,30,09,02,36,,,,,,,,,1.48,0.80,1.24,3*0C
$GNGSA,A,3,28,11,08,07,10,34,,,,,,,1.48,0.80,1.24,4*05
$GPGSV,2,1,08,01,24,056,32,03,51,061,46,06,38,267,39,14,49,195,41,1*6C
$GPGSV,2,2,08,17,71,356,48,19,50,318,45,28,,,43,41,27,238,40,1*56
$GPGSV,1,1,01,04,,,32,5*64
$GPGSV,2,1,05,01,24,056,25,03,51,061,39,06,38,267,37,14,49,195,40,6*67
$GPGSV,2,2,05,17,71,356,32,6*57
$GLGSV,2,1,05,71,37,067,45,76,17,205,41,77,39,256,26,78,22,320,37,1*7C
$GLGSV,2,2,05,87,48,329,46,1*44
$GLGSV,1,1,04,71,37,067,42,76,17,205,40,77,39,256,34,78,22,320,36,3*78
$GAGSV,2,1,05,02,53,227,45,09,22,107,35,18,27,300,36,30,36,303,43,2*70
$GAGSV,2,2,05,36,63,018,47,2*49
$GAGSV,2,1,05,02,53,227,44,09,22,107,35,18,27,300,44,30,36,303,39,7*7C
$GAGSV,2,2,05,36,63,018,45,7*4E
$GBGSV,2,1,07,03,,,36,07,75,229,43,08,50,238,40,10,70,273,42,1*49
$GBGSV,2,2,07,11,51,064,47,28,31,295,41,34,33,084,43,1*4B
$GBGSV,1,1,04,07,75,229,40,08,50,238,43,10,70,273,39,11,51,064,47,3*74
$GNRMC,034419.00,A,3727.0608542,N,12639.0858513,E,0.017,,220622,,,R,V*0D
$GNVTG,,T,,M,0.017,N,0.032,K,D*3F
$GNGNS,034419.00,3727.0608542,N,12639.0858513,E,RRRR,21,0.80,20.311,17.831,12.0,4095,V*3B
$GNGGA,034419.00,3727.0608542,N,12639.0858513,E,4,12,0.80,20.311,M,17.831,M,12.0,4095*6E
$GNGSA,A,3,01,19,06,17,03,14,,,,,,,1.48,0.80,1.24,1*0C
$GNGSA,A,3,78,76,77,87,71,,,,,,,,1.48,0.80,1.24,2*07
$GNGSA,A,3,30,09,02,36,,,,,,,,,1.48,0.80,1.24,3*0C
$GNGSA,A,3,28,11,08,07,10,34,,,,,,,1.48,0.80,1.24,4*05
$GPGSV,2,1,08,01,24,056,32,03,51,061,47,06,38,267,39,14,49,195,41,1*6D
$GPGSV,2,2,08,17,71,356,49,19,50,318,46,28,,,44,41,27,238,40,1*53
$GPGSV,1,1,01,04,,,36,5*60
$GPGSV,2,1,05,01,24,056,24,03,51,061,41,06,38,267,37,14,49,195,39,6*67
$GPGSV,2,2,05,17,71,356,32,6*57
$GLGSV,2,1,05,71,37,067,46,76,17,205,41,77,39,256,26,78,22,320,37,1*7F
$GLGSV,2,2,05,87,48,329,46,1*44
$GLGSV,1,1,04,71,37,067,41,76,17,205,39,77,39,256,33,78,22,320,36,3*72
$GAGSV,2,1,05,02,53,227,45,09,22,107,36,18,27,300,36,30,36,303,43,2*73
$GAGSV,2,2,05,36,63,018,48,2*46
$GAGSV,2,1,05,02,53,227,45,09,22,107,41,18,27,300,46,30,36,303,39,7*7C
$GAGSV,2,2,05,36,63,018,46,7*4D
$GBGSV,2,1,07,03,,,36,07,75,229,43,08,50,238,40,10,70,273,42,1*49
$GBGSV,2,2,07,11,51,064,47,28,31,295,40,34,33,084,44,1*4D
$GBGSV,2,1,05,02,,,32,07,75,229,40,08,50,238,43,10,70,273,39,3*40
$GBGSV,2,2,05,11,51,064,48,3*4B
$GNRMC,034420.00,A,3727.0608543,N,12639.0858523,E,0.004,,220622,,,R,V*07
$GNVTG,,T,,M,0.004,N,0.007,K,D*3B
$GNGNS,034420.00,3727.0608543,N,12639.0858523,E,RRRR,21,0.80,20.296,17.831,13.0,4095,V*3C
$GNGGA,034420.00,3727.0608543,N,12639.0858523,E,4,12,0.80,20.296,M,17.831,M,13.0,4095*69
$GNGSA,A,3,01,19,06,17,03,14,,,,,,,1.48,0.80,1.24,1*0C
$GNGSA,A,3,78,76,77,87,71,,,,,,,,1.48,0.80,1.24,2*07
$GNGSA,A,3,30,09,02,36,,,,,,,,,1.48,0.80,1.24,3*0C
$GNGSA,A,3,28,11,08,07,10,34,,,,,,,1.48,0.80,1.24,4*05
$GPGSV,2,1,08,01,24,056,31,03,51,061,45,06,38,267,38,14,49,195,41,1*6D
$GPGSV,2,2,08,17,71,356,48,19,50,318,45,28,,,44,41,27,238,40,1*51
$GPGSV,1,1,01,04,,,35,5*63
$GPGSV,2,1,05,01,24,056,23,03,51,061,39,06,38,267,36,14,49,195,39,6*6E
$GPGSV,2,2,05,17,71,356,31,6*54
$GLGSV,2,1,05,71,37,067,45,76,17,205,42,77,39,256,27,78,22,320,38,1*71
$GLGSV,2,2,05,87,48,329,46,1*44
$GLGSV,1,1,04,71,37,067,40,76,17,205,38,77,39,256,33,78,22,320,35,3*71
$GAGSV,2,1,05,02,53,227,45,09,22,107,36,18,27,300,35,30,36,303,43,2*70
$GAGSV,2,2,05,36,63,018,47,2*49
$GAGSV,2,1,05,02,53,227,43,09,22,107,39,18,27,300,45,30,36,303,40,7*78
$GAGSV,2,2,05,36,63,018,45,7*4E
$GBGSV,2,1,07,03,,,36,07,75,229,43,08,50,238,39,10,70,273,42,1*47
$GBGSV,2,2,07,11,51,064,46,28,31,295,40,34,33,084,44,1*4C
$GBGSV,2,1,05,02,,,37,07,75,229,40,08,50,238,43,10,70,273,39,3*45
$GBGSV,2,2,05,11,51,064,46,3*45
$GNRMC,034421.00,A,3727.0608514,N,12639.0858539,E,0.001,,220622,,,R,V*0A
$GNVTG,,T,,M,0.001,N,0.003,K,D*3A
$GNGNS,034421.00,3727.0608514,N,12639.0858539,E,RRRR,21,0.80,20.296,17.831,14.0,4095,V*33
$GNGGA,034421.00,3727.0608514,N,12639.0858539,E,4,12,0.80,20.296,M,17.831,M,14.0,4095*66
$GNGSA,A,3,01,19,06,17,03,14,,,,,,,1.48,0.80,1.24,1*0C
$GNGSA,A,3,78,76,77,87,71,,,,,,,,1.48,0.80,1.24,2*07
$GNGSA,A,3,30,09,02,36,,,,,,,,,1.48,0.80,1.24,3*0C
$GNGSA,A,3,28,11,08,07,10,34,,,,,,,1.48,0.80,1.24,4*05
$GPGSV,2,1,08,01,24,056,31,03,51,061,45,06,38,267,38,14,49,195,41,1*6D
$GPGSV,2,2,08,17,71,356,48,19,50,318,45,28,,,43,41,27,238,40,1*56
$GPGSV,1,1,01,04,,,36,5*60
$GPGSV,2,1,05,01,24,056,22,03,51,061,39,06,38,267,36,14,49,195,39,6*6F
$GPGSV,2,2,05,17,71,356,30,6*55
$GLGSV,2,1,05,71,37,067,45,76,17,205,42,77,39,256,26,78,22,320,38,1*70
$GLGSV,2,2,05,87,48,329,46,1*44
$GLGSV,1,1,04,71,37,067,41,76,17,205,38,77,39,256,33,78,22,320,35,3*70
$GAGSV,2,1,05,02,53,227,45,09,22,107,35,18,27,300,35,30,36,303,43,2*73
$GAGSV,2,2,05,36,63,018,47,2*49
$GAGSV,2,1,05,02,53,227,43,09,22,107,39,18,27,300,45,30,36,303,40,7*78
$GAGSV,2,2,05,36,63,018,45,7*4E
$GBGSV,2,1,07,03,,,35,07,75,229,43,08,50,238,39,10,70,273,42,1*44
$GBGSV,2,2,07,11,51,064,46,28,31,295,39,34,33,084,44,1*42
$GBGSV,2,1,05,02,,,36,07,75,229,39,08,50,238,43,10,70,273,39,3*4A
$GBGSV,2,2,05,11,51,064,47,3*44
$GNRMC,034422.00,A,3727.0608511,N,12639.0858553,E,0.021,,220622,,,R,V*02
$GNVTG,,T,,M,0.021,N,0.039,K,D*31
$GNGNS,034422.00,3727.0608511,N,12639.0858553,E,RRRR,21,0.80,20.296,17.831,15.0,4095,V*38
$GNGGA,034422.00,3727.0608511,N,12639.0858553,E,4,12,0.80,20.296,M,17.831,M,15.0,4095*6D
$GNGSA,A,3,01,19,06,17,03,14,,,,,,,1.47,0.80,1.24,1*03
$GNGSA,A,3,78,76,77,87,71,,,,,,,,1.47,0.80,1.24,2*08
$GNGSA,A,3,30,09,02,36,,,,,,,,,1.47,0.80,1.24,3*03
$GNGSA,A,3,28,11,08,07,10,34,,,,,,,1.47,0.80,1.24,4*0A
$GPGSV,2,1,08,01,24,056,30,03,51,061,45,06,38,267,37,14,49,195,40,1*62
$GPGSV,2,2,08,17,71,356,47,19,50,318,44,28,,,42,41,27,238,40,1*59
$GPGSV,1,1,01,04,,,35,5*63
$GPGSV,2,1,05,01,24,056,21,03,51,061,38,06,38,267,34,14,49,195,37,6*61
$GPGSV,2,2,05,17,71,356,30,6*55
$GLGSV,2,1,05,71,37,067,44,76,17,205,42,77,39,256,26,78,22,320,38,1*71
$GLGSV,2,2,05,87,48,329,46,1*44
$GLGSV,1,1,04,71,37,067,41,76,17,205,37,77,39,256,33,78,22,320,34,3*7E
$GAGSV,2,1,05,02,53,227,44,09,22,107,35,18,27,300,35,30,36,303,42,2*73
$GAGSV,2,2,05,36,63,018,46,2*48
$GAGSV,2,1,05,02,53,227,43,09,22,107,38,18,27,300,43,30,36,303,38,7*70
$GAGSV,2,2,05,36,63,018,45,7*4E
$GBGSV,2,1,07,03,,,34,07,75,229,42,08,50,238,37,10,70,273,40,1*48
$GBGSV,2,2,07,11,51,064,45,28,31,295,39,34,33,084,42,1*47
$GBGSV,2,1,05,02,,,36,07,75,229,39,08,50,238,42,10,70,273,38,3*4A
$GBGSV,2,2,05,11,51,064,46,3*45
$GNRMC,034423.00,A,3727.0608481,N,12639.0858536,E,0.010,,220622,,,R,V*0A
$GNVTG,,T,,M,0.010,N,0.018,K,D*30
$GNGNS,034423.00,3727.0608481,N,12639.0858536,E,RRRR,21,0.80,20.296,17.831,16.0,4095,V*31
$GNGGA,034423.00,3727.0608481,N,12639.0858536,E,4,12,0.80,20.296,M,17.831,M,16.0,4095*64
$GNGSA,A,3,01,19,06,17,03,14,,,,,,,1.47,0.80,1.24,1*03
$GNGSA,A,3,78,76,77,87,71,,,,,,,,1.47,0.80,1.24,2*08
$GNGSA,A,3,30,09,02,36,,,,,,,,,1.47,0.80,1.24,3*03
$GNGSA,A,3,28,11,08,07,10,34,,,,,,,1.47,0.80,1.24,4*0A
$GPGSV,2,1,08,01,24,056,30,03,51,061,45,06,38,267,36,14,49,195,40,1*63
$GPGSV,2,2,08,17,71,356,48,19,50,318,44,28,,,42,41,27,238,40,1*56
$GPGSV,1,1,01,04,,,35,5*63
$GPGSV,2,1,05,01,24,056,20,03,51,061,38,06,38,267,34,14,49,195,38,6*6F
$GPGSV,2,2,05,17,71,356,30,6*55
$GLGSV,2,1,06,71,37,067,44,76,17,205,41,77,39,256,27,78,22,320,36,1*7E
$GLGSV,2,2,06,87,48,329,46,,,,39,1*4D
$GLGSV,1,1,04,71,37,067,41,76,17,205,36,77,39,256,33,78,22,320,34,3*7F
$GAGSV,2,1,05,02,53,227,45,09,22,107,35,18,27,300,36,30,36,303,43,2*70
$GAGSV,2,2,05,36,63,018,47,2*49
$GAGSV,2,1,05,02,53,227,44,09,22,107,39,18,27,300,45,30,36,303,39,7*71
$GAGSV,2,2,05,36,63,018,45,7*4E
$GBGSV,2,1,07,03,,,35,07,75,229,43,08,50,238,39,10,70,273,41,1*47
$GBGSV,2,2,07,11,51,064,46,28,31,295,40,34,33,084,43,1*4B
$GBGSV,2,1,05,02,,,36,07,75,229,39,08,50,238,42,10,70,273,38,3*4A
$GBGSV,2,2,05,11,51,064,47,3*44
$GNRMC,034424.00,A,3727.0608468,N,12639.0858553,E,0.005,,220622,,,R,V*0D
$GNVTG,,T,,M,0.005,N,0.009,K,D*34
$GNGNS,034424.00,3727.0608468,N,12639.0858553,E,RRRR,21,0.80,20.291,17.831,17.0,4095,V*34
$GNGGA,034424.00,3727.0608468,N,12639.0858553,E,4,12,0.80,20.291,M,17.831,M,17.0,4095*61
$GNGSA,A,3,01,19,06,17,03,14,,,,,,,1.47,0.80,1.24,1*03
$GNGSA,A,3,78,76,77,87,71,,,,,,,,1.47,0.80,1.24,2*08
$GNGSA,A,3,30,09,02,36,,,,,,,,,1.47,0.80,1.24,3*03
$GNGSA,A,3,28,11,08,07,10,34,,,,,,,1.47,0.80,1.24,4*0A
$GPGSV,2,1,08,01,24,056,30,03,51,061,45,06,38,267,37,14,49,195,40,1*62
$GPGSV,2,2,08,17,71,356,48,19,50,318,44,28,,,42,41,27,238,40,1*56
$GPGSV,1,1,01,04,,,31,5*67
$GPGSV,2,1,05,01,24,056,21,03,51,061,36,06,38,267,35,14,49,195,36,6*6F
$GPGSV,2,2,05,17,71,356,29,6*5D
$GLGSV,2,1,06,71,37,067,44,76,17,205,40,77,39,256,26,78,22,320,36,1*7E
$GLGSV,2,2,06,87,48,329,45,,,,40,1*40
$GLGSV,1,1,04,71,37,067,38,76,17,205,33,77,39,256,32,78,22,320,30,3*71
$GAGSV,2,1,05,02,53,227,43,09,22,107,32,18,27,300,37,30,36,303,42,2*71
$GAGSV,2,2,05,36,63,018,46,2*48
$GAGSV,2,1,05,02,53,227,44,09,22,107,40,18,27,300,45,30,36,303,39,7*7F
$GAGSV,2,2,05,36,63,018,46,7*4D
$GBGSV,2,1,08,03,,,37,07,75,229,44,08,50,238,41,10,70,273,42,1*41
$GBGSV,2,2,08,11,51,064,48,23,,,40,28,31,295,40,34,33,084,45,1*49
$GBGSV,2,1,05,02,,,36,07,75,229,37,08,50,238,40,10,70,273,36,3*48
$GBGSV,2,2,05,11,51,064,44,3*47
$GNRMC,034425.00,A,3727.0608486,N,12639.0858545,E,0.005,,220622,,,R,V*0B
$GNVTG,,T,,M,0.005,N,0.010,K,D*3C
$GNGNS,034425.00,3727.0608486,N,12639.0858545,E,RRRR,21,0.80,20.275,17.831,18.0,4095,V*37
$GNGGA,034425.00,3727.0608486,N,12639.0858545,E,4,12,0.80,20.275,M,17.831,M,18.0,4095*62
$GNGSA,A,3,01,19,06,17,03,14,,,,,,,1.47,0.80,1.24,1*03
$GNGSA,A,3,78,76,77,87,71,,,,,,,,1.47,0.80,1.24,2*08
$GNGSA,A,3,30,09,02,36,,,,,,,,,1.47,0.80,1.24,3*03
$GNGSA,A,3,28,11,08,07,10,34,,,,,,,1.47,0.80,1.24,4*0A
$GPGSV,2,1,08,01,24,056,30,03,51,061,45,06,38,267,35,14,49,195,40,1*60
$GPGSV,2,2,08,17,71,356,47,19,50,318,44,28,,,42,41,27,238,40,1*59
$GPGSV,1,1,01,04,,,34,5*62
$GPGSV,2,1,05,01,24,056,22,03,51,061,38,06,38,267,34,14,49,195,38,6*6D
$GPGSV,2,2,05,17,71,356,30,6*55
$GLGSV,2,1,06,71,37,067,44,76,17,205,41,77,39,256,26,78,22,320,28,1*70
$GLGSV,2,2,06,87,48,329,45,,,,39,1*4E
$GLGSV,1,1,04,71,37,067,41,76,17,205,35,77,39,256,32,78,22,320,34,3*7D
$GAGSV,2,1,05,02,53,227,45,09,22,107,35,18,27,300,35,30,36,303,43,2*73
$GAGSV,2,2,05,36,63,018,48,2*46
$GAGSV,2,1,05,02,53,227,44,09,22,107,40,18,27,300,42,30,36,303,40,7*76
$GAGSV,2,2,05,36,63,018,46,7*4D
$GBGSV,2,1,08,03,,,36,07,75,229,43,08,50,238,41,10,70,273,42,1*47
$GBGSV,2,2,08,11,51,064,46,23,,,39,28,31,295,41,34,33,084,43,1*4E
$GBGSV,2,1,05,02,,,37,07,75,229,39,08,50,238,43,10,70,273,39,3*4B
$GBGSV,2,2,05,11,51,064,47,3*44
$GNRMC,034426.00,A,3727.0608474,N,12639.0858551,E,0.005,,220622,,,R,V*00
$GNVTG,,T,,M,0.005,N,0.010,K,D*3C
$GNGNS,034426.00,3727.0608474,N,12639.0858551,E,RRRR,21,0.80,20.271,17.831,19.0,4095,V*39
$GNGGA,034426.00,3727.0608474,N,12639.0858551,E,4,12,0.80,20.271,M,17.831,M,19.0,4095*6C
$GNGSA,A,3,01,19,06,17,03,14,,,,,,,1.47,0.80,1.24,1*03
$GNGSA,A,3,78,76,77,87,71,,,,,,,,1.47,0.80,1.24,2*08
$GNGSA,A,3,30,09,02,36,,,,,,,,,1.47,0.80,1.24,3*03
$GNGSA,A,3,28,11,08,07,10,34,,,,,,,1.47,0.80,1.24,4*0A
$GPGSV,2,1,08,01,24,056,29,03,51,061,45,06,38,267,35,14,49,195,40,1*68
$GPGSV,2,2,08,17,71,356,47,19,50,318,43,28,,,43,41,27,238,40,1*5F
$GPGSV,1,1,01,04,,,34,5*62
$GPGSV,2,1,05,01,24,056,22,03,51,061,38,06,38,267,35,14,49,195,38,6*6C
$GPGSV,2,2,05,17,71,356,30,6*55
$GLGSV,2,1,06,71,37,067,45,76,17,205,41,77,39,256,26,78,22,320,34,1*7C
$GLGSV,2,2,06,87,48,329,45,,,,39,1*4E
$GLGSV,1,1,04,71,37,067,41,76,17,205,36,77,39,256,32,78,22,320,34,3*7E
$GAGSV,2,1,05,02,53,227,44,09,22,107,35,18,27,300,37,30,36,303,44,2*77
$GAGSV,2,2,05,36,63,018,47,2*49
$GAGSV,2,1,05,02,53,227,44,09,22,107,39,18,27,300,44,30,36,303,41,7*7F
$GAGSV,2,2,05,36,63,018,46,7*4D
$GBGSV,2,1,08,03,,,36,07,75,229,43,08,50,238,40,10,70,273,42,1*46
$GBGSV,2,2,08,11,51,064,47,23,,,41,28,31,295,40,34,33,084,43,1*41
$GBGSV,2,1,05,02,,,38,07,75,229,39,08,50,238,43,10,70,273,39,3*44
$GBGSV,2,2,05,11,51,064,47,3*44
$GNRMC,034427.00,A,3727.0608492,N,12639.0858523,E,0.012,,220622,,,R,V*0A
$GNVTG,,T,,M,0.012,N,0.021,K,D*38
$GNGNS,034427.00,3727.0608492,N,12639.0858523,E,RRRR,21,0.80,20.268,17.831,20.0,4095,V*37
$GNGGA,034427.00,3727.0608492,N,12639.0858523,E,4,12,0.80,20.268,M,17.831,M,20.0,4095*62
$GNGSA,A,3,01,19,06,17,03,14,,,,,,,1.47,0.80,1.24,1*03
$GNGSA,A,3,78,76,77,87,71,,,,,,,,1.47,0.80,1.24,2*08
$GNGSA,A,3,30,09,02,36,,,,,,,,,1.47,0.80,1.24,3*03
$GNGSA,A,3,28,11,08,07,10,34,,,,,,,1.47,0.80,1.24,4*0A
$GPGSV,2,1,08,01,24,056,30,03,51,061,45,06,38,267,36,14,49,195,40,1*63
$GPGSV,2,2,08,17,71,356,47,19,50,318,43,28,,,42,41,27,238,40,1*5E
$GPGSV,1,1,01,04,,,37,5*61
$GPGSV,2,1,05,01,24,056,24,03,51,061,41,06,38,267,37,14,49,195,40,6*69
$GPGSV,2,2,05,17,71,356,30,6*55
$GLGSV,2,1,06,71,37,067,44,76,17,205,41,77,39,256,27,78,22,320,34,1*7C
$GLGSV,2,2,06,87,48,329,45,,,,39,1*4E
$GLGSV,1,1,04,71,37,067,41,76,17,205,37,77,39,256,32,78,22,320,34,3*7F
$GAGSV,2,1,05,02,53,227,44,09,22,107,34,18,27,300,39,30,36,303,44,2*78
$GAGSV,2,2,05,36,63,018,47,2*49
$GAGSV,2,1,05,02,53,227,43,09,22,107,38,18,27,300,44,30,36,303,39,7*76
$GAGSV,2,2,05,36,63,018,46,7*4D
$GBGSV,2,1,08,03,,,37,07,75,229,43,08,50,238,40,10,70,273,41,1*44
$GBGSV,2,2,08,11,51,064,47,23,,,40,28,31,295,40,34,33,084,43,1*40
$GBGSV,2,1,05,02,,,38,07,75,229,39,08,50,238,43,10,70,273,39,3*44
$GBGSV,2,2,05,11,51,064,47,3*44
$GNRMC,034428.00,A,3727.0608439,N,12639.0858551,E,0.006,,220622,,,R,V*04
$GNVTG,,T,,M,0.006,N,0.011,K,D*3E
$GNGNS,034428.00,3727.0608439,N,12639.0858551,E,RRRR,21,0.80,20.259,17.831,21.0,4095,V*3F
$GNGGA,034428.00,3727.0608439,N,12639.0858551,E,4,12,0.80,20.259,M,17.831,M,21.0,4095*6A
$GNGSA,A,3,01,19,06,17,03,14,,,,,,,1.47,0.80,1.24,1*03
$GNGSA,A,3,78,76,77,87,71,,,,,,,,1.47,0.80,1.24,2*08
$GNGSA,A,3,30,09,02,36,,,,,,,,,1.47,0.80,1.24,3*03
$GNGSA,A,3,28,11,08,07,10,34,,,,,,,1.47,0.80,1.24,4*0A
$GPGSV,2,1,08,01,24,056,29,03,51,061,46,06,38,267,36,14,49,195,41,1*69
$GPGSV,2,2,08,17,71,356,48,19,50,318,44,28,,,43,41,27,238,40,1*57
$GPGSV,1,1,02,04,,,38,19,50,318,15,5*5E
$GPGSV,2,1,05,01,24,056,24,03,51,061,40,06,38,267,36,14,49,195,40,6*69
$GPGSV,2,2,05,17,71,356,31,6*54
$GLGSV,2,1,06,71,37,067,44,76,17,205,41,77,39,256,27,78,22,320,38,1*70
$GLGSV,2,2,06,87,48,329,45,,,,39,1*4E
$GLGSV,1,1,04,71,37,067,43,76,17,205,39,77,39,256,33,78,22,320,36,3*70
$GAGSV,2,1,05,02,53,227,44,09,22,107,37,18,27,300,37,30,36,303,43,2*72
$GAGSV,2,2,05,36,63,018,47,2*49
$GAGSV,2,1,05,02,53,227,43,09,22,107,38,18,27,300,45,30,36,303,40,7*79
$GAGSV,2,2,05,36,63,018,46,7*4D
$GBGSV,2,1,08,03,,,37,07,75,229,43,08,50,238,40,10,70,273,41,1*44
$GBGSV,2,2,08,11,51,064,47,23,,,40,28,31,295,39,34,33,084,43,1*4E
$GBGSV,2,1,05,02,,,37,07,75,229,41,08,50,238,44,10,70,273,38,3*42
$GBGSV,2,2,05,11,51,064,48,3*4B
$GNRMC,034429.00,A,3727.0608428,N,12639.0858565,E,0.008,,220622,,,R,V*0C
$GNVTG,,T,,M,0.008,N,0.014,K,D*35
$GNGNS,034429.00,3727.0608428,N,12639.0858565,E,RRRR,21,0.80,20.257,17.831,22.0,4095,V*34
$GNGGA,034429.00,3727.0608428,N,12639.0858565,E,4,12,0.80,20.257,M,17.831,M,22.0,4095*61
$GNGSA,A,3,01,19,06,17,03,14,,,,,,,1.47,0.80,1.24,1*03
$GNGSA,A,3,78,76,77,87,71,,,,,,,,1.47,0.80,1.24,2*08
$GNGSA,A,3,30,09,02,36,,,,,,,,,1.47,0.80,1.24,3*03
$GNGSA,A,3,28,11,08,07,10,34,,,,,,,1.47,0.80,1.24,4*0A
$GPGSV,2,1,08,01,24,056,29,03,51,061,46,06,38,267,35,14,49,195,40,1*6B
$GPGSV,2,2,08,17,71,356,48,19,50,318,44,28,,,43,41,27,238,40,1*57
$GPGSV,1,1,01,04,,,36,5*60
$GPGSV,2,1,06,01,24,056,24,03,51,061,39,06,38,267,36,14,49,195,39,6*6A
$GPGSV,2,2,06,17,71,356,31,19,50,318,12,6*63
$GLGSV,2,1,06,71,37,067,44,76,17,205,40,77,39,256,27,78,22,320,38,1*71
$GLGSV,2,2,06,87,48,329,46,,,,39,1*4D
$GLGSV,1,1,04,71,37,067,43,76,17,205,38,77,39,256,33,78,22,320,36,3*71
$GAGSV,2,1,05,02,53,227,44,09,22,107,34,18,27,300,39,30,36,303,44,2*78
$GAGSV,2,2,05,36,63,018,47,2*49
$GAGSV,2,1,05,02,53,227,42,09,22,107,38,18,27,300,45,30,36,303,40,7*78
$GAGSV,2,2,05,36,63,018,45,7*4E
$GBGSV,2,1,08,03,,,37,07,75,229,44,08,50,238,40,10,70,273,41,1*43
$GBGSV,2,2,08,11,51,064,47,23,,,39,28,31,295,40,34,33,084,44,1*49
$GBGSV,2,1,07,02,,,37,07,75,229,41,08,50,238,43,10,70,273,39,3*46
$GBGSV,2,2,07,11,51,064,46,28,31,295,14,34,33,084,14,3*4A
$GNRMC,034430.00,A,3727.0608422,N,12639.0858569,E,0.007,,220622,,,R,V*0D
$GNVTG,,T,,M,0.007,N,0.014,K,D*3A
$GNGNS,034430.00,3727.0608422,N,12639.0858569,E,RRRR,21,0.80,20.249,17.831,23.0,4095,V*34
$GNGGA,034430.00,3727.0608422,N,12639.0858569,E,4,12,0.80,20.249,M,17.831,M,23.0,4095*61
$GNGSA,A,3,01,19,06,17,03,14,,,,,,,1.47,0.80,1.24,1*03
$GNGSA,A,3,78,76,77,87,71,,,,,,,,1.47,0.80,1.24,2*08
$GNGSA,A,3,30,09,02,36,,,,,,,,,1.47,0.80,1.24,3*03
$GNGSA,A,3,28,11,08,07,10,34,,,,,,,1.47,0.80,1.24,4*0A
$GPGSV,2,1,08,01,24,056,28,03,51,061,45,06,38,267,35,14,49,195,40,1*69
$GPGSV,2,2,08,17,71,356,48,19,50,318,44,28,,,43,41,27,238,40,1*57
$GPGSV,1,1,01,04,,,35,5*63
$GPGSV,2,1,06,01,24,056,23,03,51,061,39,06,38,267,35,14,49,195,39,6*6E
$GPGSV,2,2,06,17,71,356,31,19,50,318,09,6*69
$GLGSV,2,1,06,71,37,067,44,76,17,205,40,77,38,256,27,78,22,320,35,1*7D
$GLGSV,2,2,06,87,48,329,45,,,,38,1*4F
$GLGSV,1,1,04,71,37,067,42,76,17,205,38,77,38,256,32,78,22,320,37,3*71
$GAGSV,2,1,05,02,53,227,44,09,22,107,35,18,27,300,36,30,36,303,44,2*76
$GAGSV,2,2,05,36,63,018,47,2*49
$GAGSV,2,1,05,02,53,227,43,09,22,107,38,18,27,300,45,30,36,303,40,7*79
$GAGSV,2,2,05,36,63,018,45,7*4E
$GBGSV,2,1,08,03,,,37,07,75,229,44,08,50,238,40,10,70,273,41,1*43
$GBGSV,2,2,08,11,51,064,47,23,,,40,28,31,295,39,34,33,084,44,1*49
$GBGSV,2,1,07,02,,,38,07,75,229,41,08,50,238,43,10,70,273,38,3*48
$GBGSV,2,2,07,11,51,064,47,28,31,295,10,34,33,084,12,3*49
$GNRMC,034431.00,A,3727.0608439,N,12639.0858544,E,0.004,,220622,,,R,V*0A
$GNVTG,,T,,M,0.004,N,0.008,K,D*34
$GNGNS,034431.00,3727.0608439,N,12639.0858544,E,RRRR,21,0.80,20.250,17.831,24.0,4095,V*3F
$GNGGA,034431.00,3727.0608439,N,12639.0858544,E,4,12,0.80,20.250,M,17.831,M,24.0,4095*6A
$GNGSA,A,3,01,19,06,17,03,14,,,,,,,1.47,0.80,1.24,1*03
$GNGSA,A,3,78,76,77,87,71,,,,,,,,1.47,0.80,1.24,2*08
$GNGSA,A,3,30,09,02,36,,,,,,,,,1.47,0.80,1.24,3*03
$GNGSA,A,3,28,11,08,07,10,34,,,,,,,1.47,0.80,1.24,4*0A
$GPGSV,2,1,08,01,24,056,27,03,51,061,45,06,38,267,35,14,49,195,40,1*66
$GPGSV,2,2,08,17,71,356,48,19,50,318,44,28,,,43,41,27,238,39,1*59
$GPGSV,1,1,01,04,,,36,5*60
$GPGSV,2,1,06,01,24,056,22,03,51,061,39,06,38,267,35,14,49,195,39,6*6F
$GPGSV,2,2,06,17,71,356,30,19,50,318,08,6*69
$GLGSV,2,1,06,71,37,067,44,76,17,205,40,77,38,256,27,78,22,320,35,1*7D
$GLGSV,2,2,06,87,48,329,45,,,,39,1*4E
$GLGSV,1,1,04,71,37,067,42,76,17,205,38,77,38,256,33,78,22,320,37,3*70
$GAGSV,2,1,05,02,53,227,44,09,22,107,36,18,27,300,36,30,36,303,44,2*75
$GAGSV,2,2,05,36,63,018,47,2*49
$GAGSV,2,1,05,02,53,227,43,09,22,107,38,18,27,300,45,30,36,303,39,7*77
$GAGSV,2,2,05,36,63,018,46,7*4D
$GBGSV,2,1,08,03,,,37,07,75,229,43,08,50,238,40,10,70,273,41,1*44
$GBGSV,2,2,08,11,51,064,47,23,,,40,28,31,295,40,34,33,084,44,1*47
$GBGSV,2,1,07,02,,,38,07,75,229,41,08,50,238,43,10,70,273,38,3*48
$GBGSV,2,2,07,11,51,064,47,28,31,295,10,34,33,084,10,3*4B
$GNRMC,034432.00,A,3727.0608429,N,12639.0858538,E,0.020,,220622,,,R,V*05
$GNVTG,,T,,M,0.020,N,0.037,K,D*3E
$GNGNS,034432.00,3727.0608429,N,12639.0858538,E,RRRR,21,0.80,20.245,17.831,25.0,4095,V*33
$GNGGA,034432.00,3727.0608429,N,12639.0858538,E,4,12,0.80,20.245,M,17.831,M,25.0,4095*66
$GNGSA,A,3,01,19,06,17,03,14,,,,,,,1.47,0.80,1.24,1*03
$GNGSA,A,3,78,76,77,87,71,,,,,,,,1.47,0.80,1.24,2*08
$GNGSA,A,3,30,09,02,36,,,,,,,,,1.47,0.80,1.24,3*03
$GNGSA,A,3,28,11,08,07,10,34,,,,,,,1.47,0.80,1.24,4*0A
$GPGSV,2,1,08,01,24,056,27,03,51,061,45,06,38,267,34,14,49,195,41,1*66
$GPGSV,2,2,08,17,71,356,48,19,50,318,44,28,,,43,41,27,238,39,1*59
$GPGSV,1,1,01,04,,,36,5*60
$GPGSV,2,1,06,01,24,056,23,03,51,061,39,06,38,267,35,14,49,195,40,6*60
$GPGSV,2,2,06,17,71,356,29,19,50,318,08,6*61
$GLGSV,2,1,06,71,37,067,44,76,17,205,39,77,38,256,27,78,22,320,34,1*72
$GLGSV,2,2,06,87,48,329,45,,,,39,1*4E
$GLGSV,1,1,04,71,37,067,42,76,17,205,39,77,38,256,33,78,22,320,38,3*7E
$GAGSV,2,1,05,02,53,227,44,09,22,107,36,18,27,300,36,30,36,303,44,2*75
$GAGSV,2,2,05,36,63,018,47,2*49
$GAGSV,2,1,05,02,53,227,43,09,22,107,38,18,27,300,45,30,36,303,39,7*77
$GAGSV,2,2,05,36,63,018,46,7*4D
$GBGSV,2,1,08,03,,,36,07,75,229,43,08,50,238,40,10,70,273,41,1*45
$GBGSV,2,2,08,11,51,064,47,23,,,40,28,31,295,40,34,33,084,44,1*47
$GBGSV,2,1,06,02,,,37,07,75,229,42,08,50,238,43,10,70,273,38,3*45
$GBGSV,2,2,06,11,51,064,47,34,33,084,10,3*7D
$GNRMC,034433.00,A,3727.0608442,N,12639.0858524,E,0.004,,220622,,,R,V*02
$GNVTG,,T,,M,0.004,N,0.008,K,D*34
$GNGNS,034433.00,3727.0608442,N,12639.0858524,E,RRRR,22,0.80,20.246,17.831,26.0,4095,V*31
$GNGGA,034433.00,3727.0608442,N,12639.0858524,E,4,12,0.80,20.246,M,17.831,M,26.0,4095*67
$GNGSA,A,3,01,19,06,17,03,14,,,,,,,1.47,0.80,1.24,1*03
$GNGSA,A,3,78,76,77,87,71,,,,,,,,1.47,0.80,1.24,2*08
$GNGSA,A,3,30,09,02,36,,,,,,,,,1.47,0.80,1.24,3*03
$GNGSA,A,3,28,11,03,08,07,10,34,,,,,,1.47,0.80,1.24,4*09
$GPGSV,2,1,08,01,24,056,27,03,51,061,45,06,38,267,33,14,49,195,40,1*60
$GPGSV,2,2,08,17,71,356,48,19,50,318,44,28,,,43,41,27,238,39,1*59
$GPGSV,1,1,01,04,,,36,5*60
$GPGSV,2,1,06,01,24,056,23,03,51,061,39,06,38,267,35,14,49,195,40,6*60
$GPGSV,2,2,06,17,71,356,30,19,50,318,07,6*66
$GLGSV,2,1,06,71,37,067,44,76,17,205,39,77,38,256,27,78,22,320,35,1*73
$GLGSV,2,2,06,87,48,329,45,,,,39,1*4E
$GLGSV,1,1,04,71,37,067,42,76,17,205,39,77,38,256,33,78,22,320,38,3*7E
$GAGSV,2,1,05,02,53,227,44,09,22,107,36,18,27,300,37,30,36,303,44,2*74
$GAGSV,2,2,05,36,63,018,47,2*49
$GAGSV,2,1,05,02,53,227,43,09,22,107,39,18,27,300,45,30,36,303,39,7*76
$GAGSV,2,2,05,36,63,018,46,7*4D
$GBGSV,2,1,08,03,,,37,07,75,229,44,08,50,238,40,10,70,273,41,1*43
$GBGSV,2,2,08,11,51,064,46,23,,,40,28,31,295,40,34,33,084,44,1*46
$GBGSV,2,1,05,02,,,37,07,75,229,41,08,50,238,43,10,70,273,38,3*45
$GBGSV,2,2,05,11,51,064,47,3*44
$GNRMC,034434.00,A,3727.0608431,N,12639.0858539,E,0.012,,220622,,,R,V*0A
$GNVTG,,T,,M,0.012,N,0.022,K,D*3B
$GNGNS,034434.00,3727.0608431,N,12639.0858539,E,RRRR,22,0.80,20.231,17.831,27.0,4095,V*3F
$GNGGA,034434.00,3727.0608431,N,12639.0858539,E,4,12,0.80,20.231,M,17.831,M,27.0,4095*69
$GNGSA,A,3,01,19,06,17,03,14,,,,,,,1.47,0.80,1.24,1*03
$GNGSA,A,3,78,76,77,87,71,,,,,,,,1.47,0.80,1.24,2*08
$GNGSA,A,3,30,09,02,36,,,,,,,,,1.47,0.80,1.24,3*03
$GNGSA,A,3,28,11,03,08,07,10,34,,,,,,1.47,0.80,1.24,4*09
$GPGSV,2,1,08,01,24,056,28,03,51,061,45,06,38,267,34,14,49,195,40,1*68
$GPGSV,2,2,08,17,71,356,48,19,50,318,44,28,,,43,41,27,238,39,1*59
$GPGSV,1,1,01,04,,,36,5*60
$GPGSV,2,1,05,01,24,056,23,03,51,061,39,06,38,267,35,14,49,195,40,6*63
$GPGSV,2,2,05,17,71,356,30,6*55
$GLGSV,2,1,06,71,37,067,45,76,17,205,39,77,38,256,27,78,22,320,36,1*71
$GLGSV,2,2,06,87,48,329,45,,,,39,1*4E
$GLGSV,1,1,04,71,37,067,42,76,17,205,39,77,38,256,33,78,22,320,36,3*70
$GAGSV,2,1,05,02,53,227,45,09,22,107,35,18,27,300,37,30,36,303,44,2*76
$GAGSV,2,2,05,36,63,018,47,2*49
$GAGSV,2,1,05,02,53,227,43,09,22,107,38,18,27,300,45,30,36,303,39,7*77
$GAGSV,2,2,05,36,63,018,45,7*4E
$GBGSV,2,1,08,03,44,206,36,07,75,229,44,08,50,238,41,10,70,273,42,1*74
$GBGSV,2,2,08,11,51,064,47,23,,,40,28,31,295,39,34,33,084,44,1*49
$GBGSV,2,1,06,02,,,37,03,44,206,38,07,75,229,41,08,50,238,42,3*40
$GBGSV,2,2,06,10,70,273,38,11,51,064,47,3*7C
$GNRMC,034435.00,A,3727.0608414,N,12639.0858545,E,0.020,,220622,,,R,V*06
$GNVTG,,T,,M,0.020,N,0.036,K,D*3F
$GNGNS,034435.00,3727.0608414,N,12639.0858545,E,RRRR,22,0.80,20.226,17.831,28.0,4095,V*3B
$GNGGA,034435.00,3727.0608414,N,12639.0858545,E,4,12,0.80,20.226,M,17.831,M,28.0,4095*6D
$GNGSA,A,3,01,19,06,17,03,14,,,,,,,1.47,0.80,1.24,1*03
$GNGSA,A,3,78,76,77,87,71,,,,,,,,1.47,0.80,1.24,2*08
$GNGSA,A,3,30,09,02,36,,,,,,,,,1.47,0.80,1.24,3*03
$GNGSA,A,3,28,11,03,08,07,10,34,,,,,,1.47,0.80,1.24,4*09
$GPGSV,2,1,08,01,24,056,27,03,51,061,45,06,38,267,34,14,49,195,40,1*67
$GPGSV,2,2,08,17,71,356,48,19,50,318,44,28,,,43,41,27,238,39,1*59
$GPGSV,1,1,01,04,,,33,5*65
$GPGSV,2,1,05,01,24,056,22,03,51,061,36,06,38,267,35,14,49,195,39,6*63
$GPGSV,2,2,05,17,71,356,30,6*55
$GLGSV,2,1,06,71,37,067,45,76,17,205,39,77,38,256,28,78,22,320,36,1*7E
$GLGSV,2,2,06,87,48,329,45,,,,39,1*4E
$GLGSV,1,1,04,71,37,067,41,76,17,205,39,77,38,256,33,78,22,320,36,3*73
$GAGSV,2,1,05,02,53,227,44,09,22,107,36,18,27,300,37,30,36,303,44,2*74
$GAGSV,2,2,05,36,63,018,47,2*49
$GAGSV,2,1,05,02,53,227,43,09,22,107,38,18,27,300,45,30,36,303,38,7*76
$GAGSV,2,2,05,36,63,018,45,7*4E
$GBGSV,2,1,08,03,44,206,37,07,75,229,44,08,50,238,40,10,70,273,42,1*74
$GBGSV,2,2,08,11,51,064,46,23,,,40,28,31,295,40,34,33,084,45,1*47
$GBGSV,2,1,06,02,,,36,03,44,206,38,07,75,229,41,08,50,238,42,3*41
$GBGSV,2,2,06,10,70,273,37,11,51,064,45,3*71
$GNRMC,034436.00,A,3727.0608420,N,12639.0858533,E,0.017,,220622,,,R,V*07
$GNVTG,,T,,M,0.017,N,0.031,K,D*3C
$GNGNS,034436.00,3727.0608420,N,12639.0858533,E,RRRR,22,0.80,20.219,17.831,29.0,4095,V*33
$GNGGA,034436.00,3727.0608420,N,12639.0858533,E,4,12,0.80,20.219,M,17.831,M,29.0,4095*65
$GNGSA,A,3,01,19,06,17,03,14,,,,,,,1.47,0.80,1.24,1*03
$GNGSA,A,3,78,76,77,87,71,,,,,,,,1.47,0.80,1.24,2*08
$GNGSA,A,3,30,09,02,36,,,,,,,,,1.47,0.80,1.24,3*03
$GNGSA,A,3,28,11,03,08,07,10,34,,,,,,1.47,0.80,1.24,4*09
$GPGSV,2,1,08,01,24,056,28,03,51,061,47,06,38,267,36,14,49,195,40,1*68
$GPGSV,2,2,08,17,71,356,48,19,50,318,45,28,,,43,41,27,238,39,1*58
$GPGSV,1,1,01,04,,,33,5*65
$GPGSV,2,1,05,01,24,056,20,03,51,061,37,06,38,267,35,14,49,195,38,6*61
$GPGSV,2,2,05,17,71,356,28,6*5C
$GLGSV,2,1,06,71,37,067,47,76,17,205,39,77,38,256,28,78,22,320,34,1*7E
$GLGSV,2,2,06,87,48,329,45,,,,39,1*4E
$GLGSV,1,1,04,71,37,067,39,76,17,205,38,77,38,256,31,78,22,320,36,3*7F
$GAGSV,2,1,05,02,53,227,44,09,22,107,32,18,27,300,35,30,36,303,44,2*72
$GAGSV,2,2,05,36,63,018,46,2*48
$GAGSV,2,1,05,02,53,227,43,09,22,107,38,18,27,300,45,30,36,303,38,7*76
$GAGSV,2,2,05,36,63,018,45,7*4E
$GBGSV,2,1,08,03,44,206,36,07,75,229,43,08,50,238,40,10,70,273,42,1*72
$GBGSV,2,2,08,11,51,064,47,23,,,39,28,31,295,41,34,33,084,43,1*4F
$GBGSV,2,1,06,02,,,37,03,44,206,38,07,75,229,41,08,50,238,42,3*40
$GBGSV,2,2,06,10,70,273,37,11,51,064,46,3*72
$GNRMC,034437.00,A,3727.0608415,N,12639.0858527,E,0.010,,220622,,,R,V*02
$GNVTG,,T,,M,0.010,N,0.018,K,D*30
$GNGNS,034437.00,3727.0608415,N,12639.0858527,E,RRRR,22,0.80,20.214,17.831,30.0,4095,V*34
$GNGGA,034437.00,3727.0608415,N,12639.0858527,E,4,12,0.80,20.214,M,17.831,M,30.0,4095*62
$GNGSA,A,3,01,19,06,17,03,14,,,,,,,1.47,0.80,1.24,1*03
$GNGSA,A,3,78,76,77,87,71,,,,,,,,1.47,0.80,1.24,2*08
$GNGSA,A,3,30,09,02,36,,,,,,,,,1.47,0.80,1.24,3*03
$GNGSA,A,3,28,11,03,08,07,10,34,,,,,,1.47,0.80,1.24,4*09
$GPGSV,2,1,08,01,24,056,29,03,51,061,46,06,38,267,33,14,49,195,40,1*6D
$GPGSV,2,2,08,17,71,356,48,19,50,318,44,28,,,43,41,27,238,39,1*59
$GPGSV,1,1,01,04,,,34,5*62
$GPGSV,2,1,05,01,24,056,18,03,51,061,38,06,38,267,35,14,49,195,39,6*64
$GPGSV,2,2,05,17,71,356,29,6*5D
$GLGSV,2,1,06,71,37,067,45,76,17,205,40,77,38,256,28,78,22,320,35,1*73
$GLGSV,2,2,06,87,48,329,45,,,,39,1*4E
$GLGSV,1,1,04,71,37,067,40,76,17,205,37,77,38,256,31,78,22,320,36,3*7E
$GAGSV,2,1,05,02,53,227,44,09,22,107,35,18,27,300,35,30,36,303,44,2*75
$GAGSV,2,2,05,36,63,018,46,2*48
$GAGSV,2,1,05,02,53,227,43,09,22,107,38,18,27,300,45,30,36,303,36,7*78
$GAGSV,2,2,05,36,63,018,45,7*4E
$GBGSV,2,1,08,03,44,206,36,07,75,229,43,08,50,238,40,10,70,273,42,1*72
$GBGSV,2,2,08,11,51,064,46,23,,,39,28,31,295,41,34,33,084,44,1*49
$GBGSV,2,1,06,02,,,37,03,44,206,38,07,75,229,41,08,50,238,43,3*41
$GBGSV,2,2,06,10,70,273,37,11,51,064,46,3*72
$GNRMC,034438.00,A,3727.0608406,N,12639.0858521,E,0.009,,220622,,,R,V*01
$GNVTG,,T,,M,0.009,N,0.017,K,D*37
$GNGNS,034438.00,3727.0608406,N,12639.0858521,E,RRRR,22,0.80,20.210,17.831,31.0,4095,V*3A
$GNGGA,034438.00,3727.0608406,N,12639.0858521,E,4,12,0.80,20.210,M,17.831,M,31.0,4095*6C
$GNGSA,A,3,01,19,06,17,03,14,,,,,,,1.47,0.80,1.24,1*03
$GNGSA,A,3,78,76,77,87,71,,,,,,,,1.47,0.80,1.24,2*08
$GNGSA,A,3,30,09,02,36,,,,,,,,,1.47,0.80,1.24,3*03
$GNGSA,A,3,28,11,03,08,07,10,34,,,,,,1.47,0.80,1.24,4*09
$GPGSV,2,1,08,01,24,056,28,03,51,061,46,06,38,267,34,14,49,195,40,1*6B
$GPGSV,2,2,08,17,71,356,48,19,50,318,45,28,,,43,41,27,238,40,1*56
$GPGSV,1,1,01,04,,,37,5*61
$GPGSV,2,1,05,01,24,056,18,03,51,061,38,06,38,267,35,14,49,195,39,6*64
$GPGSV,2,2,05,17,71,356,29,6*5D
$GLGSV,2,1,06,71,37,067,45,76,17,205,40,77,38,256,28,78,22,320,34,1*72
$GLGSV,2,2,06,87,48,330,45,,,,38,1*47
$GLGSV,1,1,04,71,37,067,41,76,17,205,38,77,38,256,31,78,22,320,36,3*70
$GAGSV,2,1,05,02,53,227,44,09,22,107,35,18,27,300,37,30,36,303,44,2*77
$GAGSV,2,2,05,36,63,018,47,2*49
$GAGSV,2,1,05,02,53,227,42,09,22,107,39,18,27,300,45,30,36,303,37,7*79
$GAGSV,2,2,05,36,63,018,46,7*4D
$GBGSV,2,1,08,03,44,206,36,07,75,229,43,08,50,238,40,10,70,273,42,1*72
$GBGSV,2,2,08,11,51,064,47,23,,,39,28,31,295,41,34,33,084,44,1*48
$GBGSV,2,1,06,02,,,37,03,44,206,39,07,75,229,42,08,50,238,43,3*43
$GBGSV,2,2,06,10,70,273,37,11,51,064,47,3*73
$GNRMC,034439.00,A,3727.0608422,N,12639.0858501,E,0.018,,220622,,,R,V*04
$GNVTG,,T,,M,0.018,N,0.033,K,D*31
$GNGNS,034439.00,3727.0608422,N,12639.0858501,E,RRRR,23,0.80,20.212,17.831,32.0,4095,V*3F
$GNGGA,034439.00,3727.0608422,N,12639.0858501,E,4,12,0.80,20.212,M,17.831,M,32.0,4095*68
$GNGSA,A,3,01,19,06,17,03,14,,,,,,,1.47,0.80,1.24,1*03
$GNGSA,A,3,78,76,77,87,72,71,,,,,,,1.47,0.80,1.24,2*0D
$GNGSA,A,3,30,09,02,36,,,,,,,,,1.47,0.80,1.24,3*03
$GNGSA,A,3,28,11,03,08,07,10,34,,,,,,1.47,0.80,1.24,4*09
$GPGSV,2,1,08,01,24,056,27,03,51,061,46,06,38,267,34,14,49,195,40,1*64
$GPGSV,2,2,08,17,71,356,48,19,50,318,45,28,,,43,41,27,238,39,1*58
$GPGSV,1,1,01,04,,,37,5*61
$GPGSV,2,1,05,01,24,056,20,03,51,061,39,06,38,267,36,14,49,195,40,6*63
$GPGSV,2,2,05,17,71,356,31,6*54
$GLGSV,2,1,06,71,37,067,45,72,,,38,76,17,205,40,77,38,256,29,1*44
$GLGSV,2,2,06,78,22,320,35,87,48,330,45,1*74
$GLGSV,1,1,04,71,37,067,42,76,17,205,39,77,38,256,32,78,22,320,38,3*7F
$GAGSV,2,1,05,02,53,227,44,09,22,107,35,18,27,300,36,30,36,303,44,2*76
$GAGSV,2,2,05,36,63,018,47,2*49
$GAGSV,2,1,05,02,53,227,42,09,22,107,39,18,27,300,45,30,36,303,38,7*76
$GAGSV,2,2,05,36,63,018,46,7*4D
$GBGSV,2,1,08,03,44,206,36,07,75,229,43,08,50,238,40,10,70,273,42,1*72
$GBGSV,2,2,08,11,51,064,47,23,,,39,28,31,295,41,34,33,084,44,1*48
$GBGSV,2,1,06,02,,,37,03,44,206,39,07,75,229,42,08,50,238,43,3*43
$GBGSV,2,2,06,10,70,273,37,11,51,064,47,3*73
$GNRMC,034440.00,A,3727.0608427,N,12639.0858492,E,0.010,,220622,,,R,V*0C
$GNVTG,,T,,M,0.010,N,0.018,K,D*30
$GNGNS,034440.00,3727.0608427,N,12639.0858492,E,RRRR,23,0.80,20.220,17.831,33.0,4095,V*3F
$GNGGA,034440.00,3727.0608427,N,12639.0858492,E,4,12,0.80,20.220,M,17.831,M,33.0,4095*68
$GNGSA,A,3,01,19,06,17,03,14,,,,,,,1.47,0.80,1.24,1*03
$GNGSA,A,3,78,76,77,87,72,71,,,,,,,1.47,0.80,1.24,2*0D
$GNGSA,A,3,30,09,02,36,,,,,,,,,1.47,0.80,1.24,3*03
$GNGSA,A,3,28,11,03,08,07,10,34,,,,,,1.47,0.80,1.24,4*09
$GPGSV,2,1,08,01,23,057,26,03,51,061,45,06,38,267,34,14,49,195,40,1*60
$GPGSV,2,2,08,17,71,356,48,19,50,318,45,28,,,43,41,27,238,39,1*58
$GPGSV,1,1,01,04,,,37,5*61
$GPGSV,2,1,05,01,23,057,21,03,51,061,39,06,38,267,36,14,49,195,40,6*64
$GPGSV,2,2,05,17,71,356,31,6*54
$GLGSV,2,1,06,71,37,067,44,72,35,131,38,76,17,205,39,77,38,256,29,1*7E
$GLGSV,2,2,06,78,22,320,36,87,48,330,45,1*77
$GLGSV,1,1,04,71,37,067,42,76,17,205,40,77,38,256,32,78,22,320,37,3*7E
$GAGSV,2,1,05,02,53,227,44,09,22,107,35,18,27,300,36,30,36,303,44,2*76
$GAGSV,2,2,05,36,63,018,47,2*49
$GAGSV,2,1,05,02,53,227,42,09,22,107,39,18,27,300,45,30,36,303,38,7*76
$GAGSV,2,2,05,36,63,018,45,7*4E
$GBGSV,2,1,08,03,44,206,37,07,75,229,44,08,50,238,40,10,70,273,42,1*74
$GBGSV,2,2,08,11,51,064,47,23,,,39,28,31,295,40,34,33,084,44,1*49
$GBGSV,2,1,06,02,,,37,03,44,206,38,07,75,229,42,08,50,238,43,3*42
$GBGSV,2,2,06,10,70,273,37,11,51,064,47,3*73
$GNRMC,034441.00,A,3727.0608406,N,12639.0858500,E,0.005,,220622,,,R,V*00
$GNVTG,,T,,M,0.005,N,0.010,K,D*3C
$GNGNS,034441.00,3727.0608406,N,12639.0858500,E,RRRR,23,0.80,20.214,17.831,34.0,4095,V*37
$GNGGA,034441.00,3727.0608406,N,12639.0858500,E,4,12,0.80,20.214,M,17.831,M,34.0,4095*60
$GNGSA,A,3,01,19,06,17,03,14,,,,,,,1.47,0.80,1.24,1*03
$GNGSA,A,3,78,76,77,87,72,71,,,,,,,1.47,0.80,1.24,2*0D
$GNGSA,A,3,30,09,02,36,,,,,,,,,1.47,0.80,1.24,3*03
$GNGSA,A,3,28,11,03,08,07,10,34,,,,,,1.47,0.80,1.24,4*09
$GPGSV,2,1,08,01,23,057,26,03,51,061,45,06,38,267,34,14,49,195,40,1*60
$GPGSV,2,2,08,17,71,356,48,19,50,318,45,28,,,43,41,27,238,40,1*56
$GPGSV,1,1,01,04,,,36,5*60
$GPGSV,2,1,05,01,23,057,22,03,51,061,39,06,38,267,35,14,49,195,40,6*64
$GPGSV,2,2,05,17,71,356,32,6*57
$GLGSV,2,1,06,71,37,067,44,72,35,131,37,76,17,205,40,77,38,256,29,1*7F
$GLGSV,2,2,06,78,22,320,36,87,48,330,45,1*77
$GLGSV,2,1,05,71,37,067,42,72,35,131,19,76,17,205,40,77,38,256,32,3*7E
$GLGSV,2,2,05,78,22,320,36,3*44
$GAGSV,2,1,05,02,53,227,44,09,22,107,35,18,27,300,36,30,36,303,44,2*76
$GAGSV,2,2,05,36,63,018,47,2*49
$GAGSV,2,1,05,02,53,227,42,09,22,107,38,18,27,300,44,30,36,303,38,7*76
$GAGSV,2,2,05,36,63,018,46,7*4D
$GBGSV,2,1,08,03,44,206,36,07,75,229,44,08,50,238,40,10,70,273,42,1*75
$GBGSV,2,2,08,11,51,064,47,23,,,39,28,31,295,41,34,33,084,44,1*48
$GBGSV,2,1,06,02,,,37,03,44,206,38,07,75,229,42,08,50,238,43,3*42
$GBGSV,2,2,06,10,70,273,37,11,51,064,47,3*73
$GNRMC,034442.00,A,3727.0608400,N,12639.0858490,E,0.012,,220622,,,R,V*0B
$GNVTG,,T,,M,0.012,N,0.022,K,D*3B
$GNGNS,034442.00,3727.0608400,N,12639.0858490,E,RRRR,23,0.80,20.222,17.831,35.0,4095,V*3E
$GNGGA,034442.00,3727.0608400,N,12639.0858490,E,4,12,0.80,20.222,M,17.831,M,35.0,4095*69
$GNGSA,A,3,01,19,06,17,03,14,,,,,,,1.47,0.80,1.24,1*03
$GNGSA,A,3,78,76,77,87,72,71,,,,,,,1.47,0.80,1.24,2*0D
$GNGSA,A,3,30,09,02,36,,,,,,,,,1.47,0.80,1.24,3*03
$GNGSA,A,3,28,11,03,08,07,10,34,,,,,,1.47,0.80,1.24,4*09
$GPGSV,2,1,08,01,23,057,27,03,51,061,46,06,39,267,35,14,49,195,40,1*62
$GPGSV,2,2,08,17,71,356,48,19,50,318,45,28,,,43,41,27,238,40,1*56
$GPGSV,1,1,01,04,,,36,5*60
$GPGSV,2,1,05,01,23,057,23,03,51,061,39,06,39,267,35,14,49,195,40,6*64
$GPGSV,2,2,05,17,71,356,32,6*57
$GLGSV,2,1,06,71,37,067,45,72,35,131,37,76,17,205,40,77,38,256,29,1*7E
$GLGSV,2,2,06,78,22,320,36,87,48,330,45,1*77
$GLGSV,2,1,05,71,37,067,42,72,35,131,18,76,17,205,40,77,38,256,32,3*7F
$GLGSV,2,2,05,78,22,320,36,3*44
$GAGSV,2,1,05,02,53,227,44,09,22,107,34,18,27,300,36,30,36,303,44,2*77
$GAGSV,2,2,05,36,63,018,47,2*49
$GAGSV,2,1,05,02,53,227,43,09,22,107,39,18,27,300,45,30,36,303,39,7*76
$GAGSV,2,2,05,36,63,018,46,7*4D
$GBGSV,2,1,08,03,44,206,36,07,75,229,44,08,50,238,40,10,70,273,41,1*76
$GBGSV,2,2,08,11,51,064,47,23,,,39,28,31,295,41,34,33,084,44,1*48
$GBGSV,2,1,06,02,,,36,03,44,206,38,07,75,229,42,08,50,238,43,3*43
$GBGSV,2,2,06,10,70,273,37,11,51,064,47,3*73
$GNRMC,034443.00,A,3727.0608424,N,12639.0858487,E,0.016,,220622,,,R,V*0E
$GNVTG,,T,,M,0.016,N,0.030,K,D*3C
$GNGNS,034443.00,3727.0608424,N,12639.0858487,E,RRRR,23,0.80,20.221,17.831,36.0,4095,V*3F
$GNGGA,034443.00,3727.0608424,N,12639.0858487,E,4,12,0.80,20.221,M,17.831,M,36.0,4095*68
$GNGSA,A,3,01,19,06,17,03,14,,,,,,,1.47,0.80,1.24,1*03
$GNGSA,A,3,78,76,77,87,72,71,,,,,,,1.47,0.80,1.24,2*0D
$GNGSA,A,3,30,09,02,36,,,,,,,,,1.47,0.80,1.24,3*03
$GNGSA,A,3,28,11,03,08,07,10,34,,,,,,1.47,0.80,1.24,4*09
$GPGSV,2,1,08,01,23,057,27,03,51,061,46,06,39,267,34,14,49,195,40,1*63
$GPGSV,2,2,08,17,71,356,47,19,50,318,45,28,,,43,41,27,238,40,1*59
$GPGSV,1,1,01,04,,,36,5*60
$GPGSV,2,1,05,01,23,057,23,03,51,061,39,06,39,267,35,14,49,195,40,6*64
$GPGSV,2,2,05,17,71,356,31,6*54
$GLGSV,2,1,06,71,37,067,45,72,35,131,36,76,17,205,40,77,38,256,29,1*7F
$GLGSV,2,2,06,78,22,320,36,87,48,330,45,1*77
$GLGSV,2,1,05,71,37,067,41,72,35,131,19,76,17,205,39,77,38,256,32,3*73
$GLGSV,2,2,05,78,22,320,36,3*44
$GAGSV,2,1,05,02,53,227,44,09,22,107,34,18,27,300,37,30,36,303,44,2*76
$GAGSV,2,2,05,36,63,018,47,2*49
$GAGSV,2,1,05,02,53,227,43,09,22,107,39,18,27,300,45,30,36,303,39,7*76
$GAGSV,2,2,05,36,63,018,45,7*4E
$GBGSV,2,1,08,03,44,206,36,07,75,229,44,08,50,238,40,10,70,273,41,1*76
$GBGSV,2,2,08,11,51,064,47,23,,,39,28,31,295,41,34,33,084,44,1*48
$GBGSV,2,1,06,02,,,36,03,44,206,38,07,75,229,41,08,50,238,43,3*40
$GBGSV,2,2,06,10,70,273,36,11,51,064,47,3*72
$GNRMC,034444.00,A,3727.0608402,N,12639.0858530,E,0.022,,220622,,,R,V*07
$GNVTG,,T,,M,0.022,N,0.040,K,D*3C
$GNGNS,034444.00,3727.0608402,N,12639.0858530,E,RRRR,23,0.80,20.207,17.831,37.0,4095,V*34
$GNGGA,034444.00,3727.0608402,N,12639.0858530,E,4,12,0.80,20.207,M,17.831,M,37.0,4095*63
$GNGSA,A,3,01,19,06,17,03,14,,,,,,,1.47,0.80,1.24,1*03
$GNGSA,A,3,78,76,77,87,72,71,,,,,,,1.47,0.80,1.24,2*0D
$GNGSA,A,3,30,09,02,36,,,,,,,,,1.47,0.80,1.24,3*03
$GNGSA,A,3,28,11,03,08,07,10,34,,,,,,1.47,0.80,1.24,4*09
$GPGSV,2,1,08,01,23,057,26,03,51,061,45,06,39,267,33,14,49,195,40,1*66
$GPGSV,2,2,08,17,71,356,48,19,50,318,45,28,,,43,41,27,238,40,1*56
$GPGSV,1,1,01,04,,,36,5*60
$GPGSV,2,1,05,01,23,057,22,03,51,061,39,06,39,267,35,14,49,195,40,6*65
$GPGSV,2,2,05,17,71,356,30,6*55
$GLGSV,2,1,06,71,37,067,45,72,35,131,36,76,17,205,40,77,38,256,29,1*7F
$GLGSV,2,2,06,78,22,320,36,87,48,330,45,1*77
$GLGSV,2,1,05,71,37,067,41,72,35,131,20,76,17,205,39,77,38,256,32,3*79
$GLGSV,2,2,05,78,22,320,36,3*44
$GAGSV,2,1,05,02,53,227,44,09,22,107,34,18,27,300,36,30,36,303,44,2*77
$GAGSV,2,2,05,36,63,018,48,2*46
$GAGSV,2,1,05,02,53,227,43,09,22,107,39,18,27,300,45,30,36,303,38,7*77
$GAGSV,2,2,05,36,63,018,45,7*4E
$GBGSV,2,1,08,03,44,206,36,07,75,229,44,08,50,238,40,10,70,273,41,1*76
$GBGSV,2,2,08,11,51,064,47,23,,,39,28,31,295,40,34,33,084,44,1*49
$GBGSV,2,1,06,02,,,38,03,44,206,38,07,75,229,41,08,50,238,43,3*4E
$GBGSV,2,2,06,10,70,273,37,11,51,064,47,3*73
$GNRMC,034445.00,A,3727.0608385,N,12639.0858537,E,0.005,,220622,,,R,V*0C
$GNVTG,,T,,M,0.005,N,0.008,K,D*35
$GNGNS,034445.00,3727.0608385,N,12639.0858537,E,RRRR,24,0.80,20.202,17.831,38.0,4095,V*37
$GNGGA,034445.00,3727.0608385,N,12639.0858537,E,4,12,0.80,20.202,M,17.831,M,38.0,4095*67
$GNGSA,A,3,01,19,06,17,03,14,,,,,,,1.47,0.80,1.24,1*03
$GNGSA,A,3,78,76,77,87,72,71,,,,,,,1.47,0.80,1.24,2*0D
$GNGSA,A,3,30,09,02,36,,,,,,,,,1.47,0.80,1.24,3*03
$GNGSA,A,3,28,11,23,03,08,07,10,34,,,,,1.47,0.80,1.24,4*08
$GPGSV,2,1,08,01,23,057,25,03,51,061,44,06,39,267,32,14,49,195,40,1*65
$GPGSV,2,2,08,17,71,356,48,19,50,318,45,28,,,43,41,27,238,40,1*56
$GPGSV,1,1,01,04,,,36,5*60
$GPGSV,2,1,05,01,23,057,21,03,51,061,38,06,39,267,36,14,49,195,40,6*64
$GPGSV,2,2,05,17,71,356,30,6*55
$GLGSV,2,1,06,71,37,067,46,72,35,131,37,76,17,205,41,77,38,256,30,1*74
$GLGSV,2,2,06,78,22,320,37,87,48,330,46,1*75
$GLGSV,2,1,05,71,37,067,41,72,35,131,21,76,17,205,39,77,38,256,32,3*78
$GLGSV,2,2,05,78,22,320,36,3*44
$GAGSV,2,1,05,02,53,227,44,09,22,107,31,18,27,300,37,30,36,303,44,2*73
$GAGSV,2,2,05,36,63,018,47,2*49
$GAGSV,2,1,05,02,53,227,42,09,22,107,39,18,27,300,45,30,36,303,38,7*76
$GAGSV,2,2,05,36,63,018,45,7*4E
$GBGSV,2,1,08,03,44,206,36,07,75,229,44,08,50,238,40,10,70,273,41,1*76
$GBGSV,2,2,08,11,51,064,46,23,,,39,28,31,295,40,34,33,084,45,1*49
$GBGSV,2,1,06,02,,,37,03,44,206,38,07,75,229,42,08,50,238,43,3*42
$GBGSV,2,2,06,10,70,273,36,11,51,064,46,3*73
$GNRMC,034446.00,A,3727.0608373,N,12639.0858533,E,0.010,,220622,,,R,V*06
$GNVTG,,T,,M,0.010,N,0.019,K,D*31
$GNGNS,034446.00,3727.0608373,N,12639.0858533,E,RRRR,24,0.80,20.189,17.831,39.0,4095,V*38
$GNGGA,034446.00,3727.0608373,N,12639.0858533,E,4,12,0.80,20.189,M,17.831,M,39.0,4095*68
$GNGSA,A,3,01,19,06,17,03,14,,,,,,,1.47,0.80,1.24,1*03
$GNGSA,A,3,78,76,77,87,72,71,,,,,,,1.47,0.80,1.24,2*0D
$GNGSA,A,3,30,09,02,36,,,,,,,,,1.47,0.80,1.24,3*03
$GNGSA,A,3,28,11,23,03,08,07,10,34,,,,,1.47,0.80,1.24,4*08
$GPGSV,2,1,08,01,23,057,27,03,51,061,46,06,39,267,32,14,49,195,40,1*65
$GPGSV,2,2,08,17,71,356,48,19,50,318,45,28,,,43,41,27,238,40,1*56
$GPGSV,2,1,06,01,23,057,21,03,51,061,41,04,,,36,06,39,267,35,6*5A
$GPGSV,2,2,06,14,49,195,40,17,71,356,31,6*66
$GLGSV,2,1,07,71,37,067,45,72,35,131,37,76,17,205,41,77,38,256,30,1*76
$GLGSV,2,2,07,78,22,320,39,87,48,330,45,,,,36,1*7C
$GLGSV,2,1,05,71,37,067,41,72,35,131,21,76,17,205,39,77,38,256,31,3*7B
$GLGSV,2,2,05,78,22,320,36,3*44
$GAGSV,2,1,05,02,53,227,44,09,22,107,35,18,27,300,37,30,36,303,44,2*77
$GAGSV,2,2,05,36,63,018,47,2*49
$GAGSV,2,1,05,02,53,227,43,09,22,107,40,18,27,300,45,30,36,303,38,7*79
$GAGSV,2,2,05,36,63,018,45,7*4E
$GBGSV,2,1,08,03,44,206,36,07,75,229,43,08,50,238,40,10,70,273,41,1*71
$GBGSV,2,2,08,11,51,064,48,23,25,239,39,28,31,295,40,34,33,084,44,1*79
$GBGSV,2,1,06,02,,,37,03,44,206,38,07,75,229,42,08,50,238,43,3*42
$GBGSV,2,2,06,10,70,273,36,11,51,064,46,3*73
$GNRMC,034447.00,A,3727.0608372,N,12639.0858503,E,0.015,,220622,,,R,V*00
$GNVTG,,T,,M,0.015,N,0.028,K,D*36
$GNGNS,034447.00,3727.0608372,N,12639.0858503,E,RRRR,24,0.80,20.200,17.831,40.0,4095,V*37
$GNGGA,034447.00,3727.0608372,N,12639.0858503,E,4,12,0.80,20.200,M,17.831,M,40.0,4095*67
$GNGSA,A,3,01,19,06,17,03,14,,,,,,,1.47,0.80,1.24,1*03
$GNGSA,A,3,78,76,77,87,72,71,,,,,,,1.47,0.80,1.24,2*0D
$GNGSA,A,3,30,09,02,36,,,,,,,,,1.47,0.80,1.24,3*03
$GNGSA,A,3,28,11,23,03,08,07,10,34,,,,,1.47,0.80,1.24,4*08
$GPGSV,2,1,08,01,23,057,27,03,51,061,45,06,39,267,33,14,49,195,40,1*67
$GPGSV,2,2,08,17,71,357,48,19,50,318,45,28,,,43,41,27,238,40,1*57
$GPGSV,2,1,06,01,23,057,24,03,51,061,39,04,,,27,06,39,267,35,6*50
$GPGSV,2,2,06,14,49,195,40,17,71,357,31,6*67
$GLGSV,2,1,07,71,37,067,46,72,35,131,36,76,17,205,41,77,38,256,30,1*74
$GLGSV,2,2,07,78,22,320,38,87,48,330,45,,,,35,1*7E
$GLGSV,2,1,05,71,37,067,42,72,35,131,21,76,17,205,39,77,38,256,31,3*78
$GLGSV,2,2,05,78,22,320,35,3*47
$GAGSV,2,1,05,02,53,227,43,09,22,107,32,18,27,300,37,30,36,303,44,2*77
$GAGSV,2,2,05,36,63,018,47,2*49
$GAGSV,2,1,05,02,53,227,43,09,22,107,34,18,27,300,45,30,36,303,38,7*7A
$GAGSV,2,2,05,36,63,018,45,7*4E
$GBGSV,2,1,08,03,44,206,36,07,75,229,44,08,50,238,40,10,70,273,41,1*76
$GBGSV,2,2,08,11,51,064,47,23,25,239,38,28,31,295,41,34,33,084,43,1*71
$GBGSV,2,1,06,02,,,37,03,44,206,38,07,75,229,42,08,50,238,43,3*42
$GBGSV,2,2,06,10,70,273,35,11,51,064,47,3*71
$GNRMC,034448.00,A,3727.0608349,N,12639.0858499,E,0.005,,220622,,,R,V*04
$GNVTG,,T,,M,0.005,N,0.010,K,D*3C
$GNGNS,034448.00,3727.0608349,N,12639.0858499,E,RRRR,24,0.80,20.203,17.831,41.0,4095,V*30
$GNGGA,034448.00,3727.0608349,N,12639.0858499,E,4,12,0.80,20.203,M,17.831,M,41.0,4095*60
$GNGSA,A,3,01,19,06,17,03,14,,,,,,,1.47,0.80,1.24,1*03
$GNGSA,A,3,78,76,77,87,72,71,,,,,,,1.47,0.80,1.24,2*0D
$GNGSA,A,3,30,09,02,36,,,,,,,,,1.47,0.80,1.24,3*03
$GNGSA,A,3,28,11,23,03,08,07,10,34,,,,,1.47,0.80,1.24,4*08
$GPGSV,2,1,08,01,23,057,27,03,51,061,45,06,39,267,32,14,49,195,40,1*66
$GPGSV,2,2,08,17,71,357,48,19,50,319,45,28,,,43,41,27,238,40,1*56
$GPGSV,2,1,06,01,23,057,24,03,51,061,39,04,,,32,06,39,267,36,6*57
$GPGSV,2,2,06,14,49,195,40,17,71,357,31,6*67
$GLGSV,2,1,07,71,37,067,46,72,35,131,36,76,17,205,42,77,38,256,30,1*77
