$GNRMC,034244.00,A,3727.0821654,N,12639.1212884,E,0.013,,210622,,,F,V*17
$GNVTG,,T,,M,0.013,N,0.024,K,D*3C
$GNGNS,034244.00,3727.0821654,N,12639.1212884,E,FFFF,24,0.92,20.552,17.832,2.0,4095,V*07
$GNGGA,034244.00,3727.0821654,N,12639.1212884,E,5,12,0.92,20.552,M,17.832,M,2.0,4095*56
$GNGSA,A,3,14,06,19,03,17,,,,,,,,1.89,0.92,1.65,1*06
$GNGSA,A,3,85,75,71,77,76,70,,,,,,,1.89,0.92,1.65,2*04
$GNGSA,A,3,15,21,27,13,,,,,,,,,1.89,0.92,1.65,3*0A
$GNGSA,A,3,03,08,37,07,02,10,28,13,33,,,,1.89,0.92,1.65,4*0E
$GPGSV,2,1,08,01,26,055,21,03,53,065,33,06,37,265,28,14,52,197,47,1*68
$GPGSV,2,2,08,17,69,350,41,19,48,316,28,28,,,47,41,27,238,32,1*5D
$GPGSV,2,1,05,01,26,055,20,03,53,065,29,06,37,265,25,14,52,197,36,6*63
$GPGSV,2,2,05,17,69,350,31,6*5B
$GPGSV,1,1,04,04,10,115,,11,02,249,,21,05,067,,50,47,179,,0*62
$GLGSV,2,1,07,70,39,074,16,71,30,137,25,75,18,205,26,76,41,265,22,1*7F
$GLGSV,2,2,07,77,22,320,11,85,39,048,25,87,10,282,22,1*44
$GLGSV,2,1,05,71,30,137,15,75,18,205,28,76,41,265,28,77,22,320,10,3*71
$GLGSV,2,2,05,85,39,048,12,3*47
$GLGSV,1,1,02,69,05,021,,86,51,336,,0*7E
$GAGSV,2,1,06,01,11,324,28,13,60,298,35,15,49,044,45,18,59,092,32,2*7B
$GAGSV,2,2,06,21,47,287,31,27,46,202,44,2*78
$GAGSV,2,1,06,01,11,324,20,13,60,298,36,15,49,044,42,18,59,092,28,7*79
$GAGSV,2,2,06,21,47,287,33,27,46,202,42,7*79
$GAGSV,2,1,05,03,20,087,,05,06,039,,26,13,261,,30,05,165,,0*72
$GAGSV,2,2,05,30,05,165,,0*45
$GBGSV,2,1,08,03,44,206,40,07,77,232,41,08,50,235,43,10,70,277,40,1*71
$GBGSV,2,2,08,13,40,234,30,28,67,021,44,33,46,103,29,37,26,232,34,1*79
$GBGSV,2,1,06,02,27,236,28,03,44,206,39,07,77,232,42,08,50,235,46,3*7F
$GBGSV,2,2,06,10,70,277,43,13,40,234,30,3*71
$GBGSV,1,1,01,27,36,297,,0*4A
$GNRMC,034245.00,A,3727.0821665,N,12639.1212876,E,0.037,,210622,,,F,V*1F
$GNVTG,,T,,M,0.037,N,0.069,K,D*33
$GNGNS,034245.00,3727.0821665,N,12639.1212876,E,FFFF,24,0.92,20.553,17.832,2.0,4095,V*08
$GNGGA,034245.00,3727.0821665,N,12639.1212876,E,5,12,0.92,20.553,M,17.832,M,2.0,4095*59
$GNGSA,A,3,14,06,19,03,17,,,,,,,,1.89,0.92,1.65,1*06
$GNGSA,A,3,85,75,71,77,76,70,,,,,,,1.89,0.92,1.65,2*04
$GNGSA,A,3,15,21,27,13,,,,,,,,,1.89,0.92,1.65,3*0A
$GNGSA,A,3,03,08,37,07,02,10,28,13,33,,,,1.89,0.92,1.65,4*0E
$GPGSV,2,1,08,01,26,055,21,03,53,065,32,06,37,265,28,14,52,197,47,1*69
$GPGSV,2,2,08,17,69,350,41,19,48,316,27,28,,,47,41,27,238,31,1*51
$GPGSV,2,1,05,01,26,055,20,03,53,065,29,06,37,265,25,14,52,197,36,6*63
$GPGSV,2,2,05,17,69,350,31,6*5B
$GPGSV,1,1,04,04,10,115,,11,02,249,,21,05,067,,50,47,179,,0*62
$GLGSV,2,1,07,70,39,074,16,71,30,137,25,75,18,205,26,76,41,265,22,1*7F
$GLGSV,2,2,07,77,22,320,10,85,39,048,24,87,10,282,20,1*46
$GLGSV,2,1,05,71,30,137,15,75,18,205,29,76,41,265,28,77,22,320,10,3*70
$GLGSV,2,2,05,85,39,048,11,3*44
$GLGSV,1,1,02,69,05,021,,86,51,336,,0*7E
$GAGSV,2,1,06,01,11,324,28,13,60,298,35,15,49,044,45,18,59,092,32,2*7B
$GAGSV,2,2,06,21,47,287,31,27,46,202,44,2*78
$GAGSV,2,1,06,01,11,324,19,13,60,298,37,15,49,044,42,18,59,092,28,7*72
$GAGSV,2,2,06,21,47,287,33,27,46,202,43,7*78
$GAGSV,2,1,05,03,20,087,,05,06,039,,26,13,261,,30,05,165,,0*72
$GAGSV,2,2,05,30,05,165,,0*45
$GBGSV,2,1,08,03,44,206,40,07,77,232,41,08,50,235,43,10,70,277,40,1*71
$GBGSV,2,2,08,13,40,234,31,28,67,021,44,33,46,103,29,37,26,232,34,1*78
$GBGSV,2,1,06,02,27,236,29,03,44,206,39,07,77,232,43,08,50,235,46,3*7F
$GBGSV,2,2,06,10,70,277,43,13,40,234,30,3*71
$GBGSV,1,1,01,27,36,297,,0*4A
$GNRMC,034246.00,A,3727.0821688,N,12639.1212863,E,0.015,,210622,,,F,V*1B
$GNVTG,,T,,M,0.015,N,0.027,K,D*39
$GNGNS,034246.00,3727.0821688,N,12639.1212863,E,FFFF,24,0.92,20.550,17.832,2.0,4095,V*0F
$GNGGA,034246.00,3727.0821688,N,12639.1212863,E,5,12,0.92,20.550,M,17.832,M,2.0,4095*5E
$GNGSA,A,3,14,06,19,03,17,,,,,,,,1.89,0.92,1.65,1*06
$GNGSA,A,3,85,75,71,77,76,70,,,,,,,1.89,0.92,1.65,2*04
$GNGSA,A,3,15,21,27,13,,,,,,,,,1.89,0.92,1.65,3*0A
$GNGSA,A,3,03,08,37,07,02,10,28,13,33,,,,1.89,0.92,1.65,4*0E
$GPGSV,2,1,08,01,26,055,22,03,53,065,32,06,37,265,29,14,52,197,47,1*6B
$GPGSV,2,2,08,17,69,350,41,19,48,316,27,28,,,47,41,27,238,29,1*58
$GPGSV,2,1,05,01,26,055,20,03,53,065,29,06,37,265,26,14,52,197,38,6*6E
$GPGSV,2,2,05,17,69,350,33,6*59
$GPGSV,1,1,04,04,10,115,,11,02,249,,21,05,067,,50,47,179,,0*62
$GLGSV,2,1,07,70,39,074,16,71,30,137,25,75,18,205,28,76,41,265,23,1*70
$GLGSV,2,2,07,77,22,320,10,85,39,048,23,87,10,282,21,1*40
$GLGSV,2,1,05,71,30,137,14,75,18,205,33,76,41,265,28,77,22,320,12,3*78
$GLGSV,2,2,05,85,39,048,12,3*47
$GLGSV,1,1,02,69,05,021,,86,51,336,,0*7E
$GAGSV,2,1,06,01,11,324,27,13,60,298,34,15,49,044,45,18,59,092,31,2*76
$GAGSV,2,2,06,21,47,287,30,27,46,202,45,2*78
$GAGSV,2,1,06,01,11,324,18,13,60,298,37,15,49,044,42,18,59,092,28,7*73
$GAGSV,2,2,06,21,47,287,33,27,46,202,43,7*78
$GAGSV,2,1,05,03,20,087,,05,06,039,,26,13,261,,30,05,165,,0*72
$GAGSV,2,2,05,30,05,165,,0*45
$GBGSV,2,1,08,03,44,206,40,07,77,232,41,08,50,235,43,10,70,277,40,1*71
$GBGSV,2,2,08,13,40,234,30,28,67,021,44,33,46,103,30,37,26,232,34,1*71
$GBGSV,2,1,06,02,27,236,30,03,44,206,41,07,77,232,44,08,50,235,48,3*71
$GBGSV,2,2,06,10,70,277,45,13,40,234,30,3*77
$GBGSV,1,1,01,27,36,297,,0*4A
$GNRMC,034247.00,A,3727.0821710,N,12639.1212827,E,0.015,,210622,,,F,V*1A
$GNVTG,,T,,M,0.015,N,0.028,K,D*36
$GNGNS,034247.00,3727.0821710,N,12639.1212827,E,FFFF,24,0.92,20.551,17.832,2.0,4095,V*0F
$GNGGA,034247.00,3727.0821710,N,12639.1212827,E,5,12,0.92,20.551,M,17.832,M,2.0,4095*5E
$GNGSA,A,3,14,06,19,03,17,,,,,,,,1.89,0.92,1.65,1*06
$GNGSA,A,3,85,75,71,77,76,70,,,,,,,1.89,0.92,1.65,2*04
$GNGSA,A,3,15,21,27,13,,,,,,,,,1.89,0.92,1.65,3*0A
$GNGSA,A,3,03,08,37,07,02,10,28,13,33,,,,1.89,0.92,1.65,4*0E
$GPGSV,2,1,08,01,26,055,22,03,53,065,32,06,37,265,29,14,52,197,47,1*6B
$GPGSV,2,2,08,17,69,350,41,19,48,316,28,28,,,47,41,27,238,28,1*56
$GPGSV,2,1,05,01,26,055,22,03,53,065,29,06,37,265,26,14,52,197,36,6*62
$GPGSV,2,2,05,17,69,350,33,6*59
$GPGSV,1,1,04,04,10,115,,11,02,249,,21,05,067,,50,47,179,,0*62
$GLGSV,2,1,07,70,39,074,14,71,30,137,25,75,18,205,28,76,41,265,23,1*72
$GLGSV,2,2,07,77,22,320,10,85,39,048,22,87,10,282,22,1*42
$GLGSV,2,1,05,71,30,137,14,75,18,205,30,76,41,265,28,77,22,320,14,3*7D
$GLGSV,2,2,05,85,39,048,14,3*41
$GLGSV,1,1,02,69,05,021,,86,51,336,,0*7E
$GAGSV,2,1,06,01,11,324,28,13,60,298,35,15,49,044,44,18,59,092,31,2*79
$GAGSV,2,2,06,21,47,287,30,27,46,202,44,2*79
$GAGSV,2,1,06,01,11,324,18,13,60,298,37,15,49,044,42,18,59,092,27,7*7C
$GAGSV,2,2,06,21,47,287,33,27,46,202,43,7*78
$GAGSV,2,1,05,03,20,087,,05,06,039,,26,13,261,,30,05,165,,0*72
$GAGSV,2,2,05,30,05,165,,0*45
$GBGSV,2,1,08,03,44,206,40,07,77,232,42,08,50,235,43,10,70,277,40,1*72
$GBGSV,2,2,08,13,40,234,30,28,67,021,44,33,46,103,31,37,26,232,34,1*70
$GBGSV,2,1,06,02,27,236,29,03,44,206,40,07,77,232,43,08,50,235,46,3*71
$GBGSV,2,2,06,10,70,277,44,13,40,234,30,3*76
$GBGSV,1,1,01,27,36,297,,0*4A
$GNRMC,034248.00,A,3727.0821685,N,12639.1212867,E,0.019,,210622,,,F,V*10
$GNVTG,,T,,M,0.019,N,0.035,K,D*36
$GNGNS,034248.00,3727.0821685,N,12639.1212867,E,FFFF,24,0.92,20.539,17.832,2.0,4095,V*07
$GNGSA,A,3,14,06,19,03,17,,,,,,,,1.89,0.92,1.65,1*06
$GNGSA,A,3,85,75,71,77,76,70,,,,,,,1.89,0.92,1.65,2*04
$GNGSA,A,3,15,21,27,13,,,,,,,,,1.89,0.92,1.65,3*0A
$GNGSA,A,3,03,08,37,07,02,10,28,13,33,,,,1.89,0.92,1.65,4*0E
$GPGSV,3,1,09,01,26,055,22,03,53,065,31,06,37,265,31,14,52,197,47,1*61
$GPGSV,3,2,09,17,69,350,41,19,48,316,28,28,,,47,41,27,238,27,1*59
$GPGSV,3,3,09,50,47,179,30,1*57
$GPGSV,2,1,05,01,26,055,22,03,53,065,29,06,37,265,26,14,52,197,36,6*62
$GPGSV,2,2,05,17,69,350,32,6*58
$GPGSV,1,1,03,04,10,115,,11,02,249,,21,05,067,,0*5C
$GLGSV,2,1,07,70,39,074,14,71,30,137,25,75,18,205,27,76,41,265,23,1*7D
$GLGSV,2,2,07,77,22,320,10,85,39,048,22,87,10,282,20,1*40
$GLGSV,1,1,04,75,18,205,31,76,41,265,28,77,22,320,12,85,39,048,15,3*72
$GLGSV,1,1,02,69,05,021,,86,51,336,,0*7E
$GAGSV,2,1,06,01,11,324,28,13,60,298,35,15,49,044,44,18,59,092,31,2*79
$GAGSV,2,2,06,21,47,287,30,27,46,202,44,2*79
$GAGSV,2,1,06,01,1$GAGSV,2,2,06,21,47,287,34,27,46,202,43,7*7F
$GAGSV,2,1,05,03,20,087,,05,06,039,,26,13,261,,30,05,165,,0*72
$GAGSV,2,2,05,30,05,165,,0*45
$GBGSV,2,1,08,03,44,206,40,07,77,232,42,08,50,235,44,10,70,277,40,1*75
$GBGSV,2,2,08,13,40,234,30,28,67,021,44,33,46,103,31,37,26,232,34,1*70
$GBGSV,2,1,06,02,27,236,30,03,44,206,39,07,77,232,43,08,50,235,46,3*77
$GBGSV,2,2,06,10,70,277,43,13,40,234,30,3*71
$GBGSV,1,1,01,27,36,297,,0*4A
$GNRMC,034249.00,A,3727.0821662,N,12639.1212847,E,0.030,,210622,,,F,V*11
$GNVTG,,T,,M,0.030,N,0.055,K,D*3B
$GNGNS,034249.00,3727.0821662,N,12639.1212847,E,FFFF,24,0.92,20.563,17.832,2.0,4095,V*02
$GNGGA,034249.00,3727.0821662,N,12639.1212847,E,5,12,0.92,20.563,M,17.832,M,2.0,4095*53
$GNGSA,A,3,14,06,19,03,17,,,,,,,,1.89,0.92,1.65,1*06
$GNGSA,A,3,85,75,71,77,76,70,,,,,,,1.89,0.92,1.65,2*04
$GNGSA,A,3,15,21,27,13,,,,,,,,,1.89,0.92,1.65,3*0A
$GNGSA,A,3,03,08,37,07,02,10,28,13,33,,,,1.89,0.92,1.65,4*0E
$GPGSV,2,1,08,01,26,055,21,03,53,065,31,06,37,265,32,14,52,197,47,1*61
$GPGSV,2,2,08,17,69,350,42,19,48,316,27,28,,,47,50,47,179,31,1*52
$GPGSV,2,1,05,01,26,055,22,03,53,065,28,06,37,265,26,14,52,197,37,6*62
$GPGSV,2,2,05,17,69,350,32,6*58
$GPGSV,1,1,03,04,10,115,,11,02,249,,21,05,067,,0*5C
$GLGSV,2,1,07,70,39,074,13,71,30,137,26,75,18,205,27,76,41,265,22,1*78
$GLGSV,2,2,07,77,22,320,08,85,39,048,23,87,10,282,20,1*48
$GLGSV,1,1,04,75,18,205,30,76,41,265,28,77,22,320,13,85,39,048,16,3*71
$GLGSV,1,1,02,69,05,021,,86,51,336,,0*7E
$GAGSV,2,1,06,01,11,324,28,13,60,298,35,15,49,044,45,18,59,092,30,2*79
$GAGSV,2,2,06,21,47,287,30,27,46,202,44,2*79
$GAGSV,2,1,06,01,11,324,17,13,60,298,36,15,49,044,42,18,59,092,27,7*72
$GAGSV,2,2,06,21,47,287,34,27,46,202,43,7*7F
$GAGSV,2,1,05,03,20,087,,05,06,039,,26,13,261,,30,05,165,,0*72
$GAGSV,2,2,05,30,05,165,,0*45
$GBGSV,2,1,08,03,44,206,40,07,76,231,42,08,50,235,44,10,70,277,40,1*77
$GBGSV,2,2,08,13,40,234,30,28,67,021,44,33,46,103,31,37,26,232,33,1*77
$GBGSV,2,1,06,02,27,236,30,03,44,206,40,07,76,231,43,08,50,235,46,3*7B
$GBGSV,2,2,06,10,70,277,43,13,40,234,30,3*71
$GBGSV,1,1,01,27,36,297,,0*4A
$GNRMC,034250.00,A,3727.0821668,N,12639.1212868,E,0.017,,210622,,,F,V*1B
$GNVTG,,T,,M,0.017,N,0.031,K,D*3C
$GNGNS,034250.00,3727.0821668,N,12639.1212868,E,FFFF,24,0.99,20.583,17.832,2.0,4095,V*08
$GNGGA,034250.00,3727.0821668,N,12639.1212868,E,5,12,0.99,20.583,M,17.832,M,2.0,4095*59
$GNGSA,A,3,14,06,19,03,17,,,,,,,,1.94,0.99,1.66,1*02
$GNGSA,A,3,85,75,71,77,76,70,,,,,,,1.94,0.99,1.66,2*00
$GNGSA,A,3,15,21,27,13,,,,,,,,,1.94,0.99,1.66,3*0E
$GNGSA,A,3,03,08,37,07,02,10,28,13,33,,,,1.94,0.99,1.66,4*0A
$GPGSV,2,1,08,01,26,055,22,03,53,065,31,06,37,265,31,14,52,197,47,1*61
$GPGSV,2,2,08,17,69,350,42,19,48,316,25,28,,,47,50,47,179,32,1*53
$GPGSV,2,1,05,01,26,055,21,03,53,065,28,06,37,265,26,14,52,197,37,6*61
$GPGSV,2,2,05,17,69,350,32,6*58
$GPGSV,1,1,03,04,10,115,,11,02,249,,21,05,067,,0*5C
$GLGSV,2,1,07,70,39,074,11,71,30,137,26,75,18,205,27,76,41,265,23,1*7B
$GLGSV,2,2,07,77,22,320,09,85,39,048,22,87,10,282,21,1*49
$GLGSV,1,1,04,75,18,205,30,76,41,265,29,77,22,320,12,85,39,048,17,3*70
$GLGSV,1,1,02,69,05,021,,86,51,336,,0*7E
$GAGSV,2,1,06,01,11,324,28,13,60,298,34,15,49,044,45,18,59,092,29,2*70
$GAGSV,2,2,06,21,47,287,30,27,46,202,44,2*79
$GAGSV,2,1,06,01,11,324,16,13,60,298,37,15,49,044,42,18,59,092,28,7*7D
$GAGSV,2,2,06,21,47,287,34,27,46,202,43,7*7F
$GAGSV,2,1,05,03,20,087,,05,06,039,,26,13,261,,30,05,165,,0*72
$GAGSV,2,2,05,30,05,165,,0*45
$GBGSV,2,1,08,03,44,206,40,07,76,231,42,08,50,236,44,10,70,277,40,1*74
$GBGSV,2,2,08,13,40,234,30,28,67,021,44,33,46,103,31,37,26,232,34,1*70
$GBGSV,2,1,06,02,27,236,30,03,44,206,39,07,76,231,42,08,50,236,46,3*77
$GBGSV,2,2,06,10,70,277,43,13,40,234,31,3*70
$GBGSV,1,1,01,27,36,297,,0*4A
$GNRMC,034251.00,A,3727.0821664,N,12639.1212880,E,0.019,,210622,,,F,V*1E
$GNVTG,,T,,M,0.019,N,0.035,K,D*36
$GNGNS,034251.00,3727.0821664,N,12639.1212880,E,FFFF,24,0.99,20.562,17.832,2.0,4095,V*0C
$GNGSA,A,3,14,06,19,03,17,,,,,,,,1.94,0.99,1.66,1*02
$GNGSA,A,3,85,75,71,77,76,70,,,,,,,1.94,0.99,1.66,2*00
$GNGSA,A,3,15,21,27,13,,,,,,,,,1.94,0.99,1.66,3*0E
$GNGSA,A,3,03,08,37,07,02,10,28,13,33,,,,1.94,0.99,1.66,4*0A
$GPGSV,2,1,08,01,26,055,22,03,53,065,31,06,37,265,32,14,52,197,47,1*62
$GPGSV,2,2,08,17,69,350,42,19,48,316,24,28,,,47,50,47,179,32,1*52
$GPGSV,2,1,05,01,26,055,20,03,53,065,28,06,37,265,26,14,52,197,37,6*60
$GPGSV,2,2,05,17,69,350,32,6*58
$GPGSV,1,1,03,04,10,115,,11,02,249,,21,05,067,,0*5C
$GLGSV,2,1,07,70,39,074,11,71,30,137,25,75,18,205,27,76,41,265,23,1*78
$GLGSV,2,2,07,77,22,320,10,85,39,048,22,87,10,282,20,1*40
$GLGSV,1,1,04,75,18,205,30,76,41,265,29,77,22,320,14,85,39,048,17,3*76
$GLGSV,1,1,02,69,05,021,,86,51,336,,0*7E
$GAGSV,2,1,06,01,11,324,28,13,60,298,35,15,49,044,45,18,59,092,30,2*79
$GAGSV,2,2,06,21,47,287,30,27,46,202,44,2*79
$GAGSV,2,1,06,01,11,324,16,13,60,298,37,15,49,044,4$GAGSV,2,2,06,21,47,287,34,27,46,202,44,7*78
$GAGSV,2,1,05,03,20,087,,05,06,039,,26,13,261,,30,05,165,,0*72
$GAGSV,2,2,05,30,05,165,,0*45
$GBGSV,2,1,08,03,44,206,40,07,76,231,42,08,50,236,44,10,70,277,40,1*74
$GBGSV,2,2,08,13,40,234,30,28,67,021,44,33,46,103,31,37,26,232,34,1*70
$GBGSV,2,1,06,02,27,236,30,03,44,206,39,07,76,231,42,08,50,236,46,3*77
$GBGSV,2,2,06,10,70,277,43,13,40,234,30,3*71
$GBGSV,1,1,01,27,36,297,,0*4A
$GNRMC,034252.00,A,3727.0821653,N,12639.1212844,E,0.010,,210622,,,F,V*18
$GNVTG,,T,,M,0.010,N,0.019,K,D*31
$GNGNS,034252.00,3727.0821653,N,12639.1212844,E,FFFF,24,0.99,20.555,17.832,2.0,4095,V*07
$GNGGA,034252.00,3727.0821653,N,12639.1212844,E,5,12,0.99,20.555,M,17.832,M,2.0,4095*56
$GNGSA,A,3,14,06,19,03,17,,,,,,,,1.94,0.99,1.66,1*02
$GNGSA,A,3,85,75,71,77,76,70,,,,,,,1.94,0.99,1.66,2*00
$GNGSA,A,3,15,21,27,13,,,,,,,,,1.94,0.99,1.66,3*0E
$GNGSA,A,3,03,08,37,07,02,10,28,13,33,,,,1.94,0.99,1.66,4*0A
$GPGSV,2,2,08,17,69,350,42,19,48,316,23,28,,,47,50,47,179,32,1*55
$GPGSV,2,1,05,01,26,055,19,03,53,065,28,06,37,265,26,14,52,197,36,6*6B
$GPGSV,2,2,05,17,69,350,32,6*58
$GPGSV,1,1,03,04,10,115,,11,02,249,,21,05,067,,0*5C
$GLGSV,2,1,07,70,39,074,12,71,30,137,24,75,18,205,27,76,41,265,24,1*7D
$GLGSV,2,2,07,77,22,320,11,85,39,048,23,87,10,282,19,1*4A
$GLGSV,1,1,04,75,18,205,31,76,41,265,28,77,22,320,13,85,39,048,16,3*70
$GLGSV,1,1,02,69,05,021,,86,51,336,,0*7E
$GAGSV,2,1,06,01,11,324,28,13,60,298,35,15,49,044,45,18,59,092,29,2*71
$GAGSV,2,2,06,21,47,287,31,27,46,202,44,2*78
$GAGSV,2,1,06,01,11,324,16,13,60,298,37,15,49,044,42,18,59,092,29,7*7C
$GAGSV,2,2,06,21,47,287,34,27,46,202,44,7*78
$GAGSV,2,1,05,03,20,087,,05,06,039,,26,13,261,,30,05,165,,0*72
$GAGSV,2,2,05,30,05,165,,0*45
$GBGSV,2,1,08,03,44,206,40,07,76,231,42,08,50,236,44,10,70,276,40,1*75
$GBGSV,2,2,08,13,40,234,31,28,67,021,44,33,46,103,32,37,26,232,33,1*75
$GBGSV,$GBGSV,2,2,06,10,70,276,43,13,40,234,31,3*71
$GBGSV,1,1,01,27,36,297,,0*4A
$GNRMC,034253.00,A,3727.0821624,N,12639.1212897,E,0.010,,210622,,,F,V*17
$GNVTG,,T,,M,0.010,N,0.019,K,D*31
$GNGNS,034253.00,3727.0821624,N,12639.1212897,E,FFFF,24,1.06,20.602,17.832,1.0,4095,V*0D
$GNGGA,034253.00,3727.0821624,N,12639.1212897,E,5,12,1.06,20.602,M,17.832,M,1.0,4095*5C
$GNGSA,A,3,14,06,19,03,17,,,,,,,,2.01,1.06,1.71,1*0C
$GNGSA,A,3,85,75,71,77,76,70,,,,,,,2.01,1.06,1.71,2*0E
$GNGSA,A,3,15,21,27,13,,,,,,,,,2.01,1.06,1.71,3*00
$GNGSA,A,3,03,08,37,07,02,10,28,13,33,,,,2.01,1.06,1.71,4*04
$GPGSV,2,1,08,01,26,055,22,03,53,065,30,06,37,265,33,14,52,197,47,1*62
$GPGSV,2,2,08,17,69,350,42,19,48,316,22,28,,,47,50,47,179,32,1*54
$GPGSV,2,1,05,01,26,055,19,03,53,065,28,06,37,265,26,14,52,197,35,6*68
$GPGSV,2,2,05,17,69,350,31,6*5B
$GPGSV,1,1,03,04,10,115,,11,02,249,,21,05,067,,0*5C
$GLGSV,2,1,07,70,39,074,08,71,30,137,25,75,18,205,27,76,41,265,24,1*77
$GLGSV,2,2,07,77,22,320,11,85,39,048,23,87,10,282,20,1*40
$GLGSV,1,1,04,75,18,205,29,76,41,265,27,77,22,320,09,85,39,048,14,3*7F
$GLGSV,1,1,02,69,05,021,,86,51,336,,0*7E
$GAGSV,2,1,06,01,11,324,28,13,60,298,35,15,49,044,44,18,59,092,28,2*71
$GAGSV,2,2,06,21,47,287,30,27,46,202,44,2*79
$GAGSV,2,1,06,01,11,324,18,13,60,298,37,15,49,044,42,18,59,092,30,7*7A
$GAGSV,2,2,06,21,47,287,34,27,46,202,44,7*78
$GAGSV,2,1,05,03,20,087,,05,06,039,,26,13,261,,30,05,165,,0*72
$GAGSV,2,2,05,30,05,165,,0*45
$GBGSV,2,1,08,03,44,206,40,07,76,231,42,08,50,236,44,10,70,276,40,1*75
$GBGSV,2,2,08,13,40,235,30,28,67,021,44,33,46,103,32,37,26,232,33,1*75
$GBGSV,2,1,06,02,27,236,29,03,44,206,38,07,76,231,41,08,50,236,45,3*7E
$GBGSV,2,2,06,10,70,276,41,13,40,235,30,3*73
$GBGSV,1,1,01,27,36,297,,0*4A
$GNRMC,034254.00,A,3727.0821643,N,12639.1212923,E,0.048,,210622,,,F,V*12
$GNVTG,,T,,M,0.048,N,0.088,K,D*34
$GNGNS,034254.00,3727.0821643,N,12639.1212923,E,FFFF,24,0.99,20.581,17.832,2.0,4095,V*09
$GNGGA,034254.00,3727.0821643,N,12639.1212923,E,5,12,0.99,20.581,M,17.832,M,2.0,4095*58
$GNGSA,A,3,14,06,19,03,17,,,,,,,,1.94,0.99,1.66,1*02
$GNGSA,A,3,85,75,71,77,76,70,,,,,,,1.94,0.99,1.66,2*00
$GNGSA,A,3,15,21,27,13,,,,,,,,,1.94,0.99,1.66,3*0E
$GNGSA,A,3,03,08,37,07,02,10,28,13,33,,,,1.94,0.99,1.66,4*0A
$GPGSV,2,1,08,01,26,055,21,03,53,065,30,06,37,265,33,14,52,197,47,1*61
$GPGSV,2,2,08,17,69,350,42,19,48,316,21,28,,,47,50,47,179,31,1*54
$GPGSV,2,1,05,01,26,055,18,03,53,065,28,06,37,265,26,14,52,197,36,6*6A
$GPGSV,2,2,05,17,69,350,32,6*58
$GPGSV,1,1,03,04,10,115,,11,02,249,,21,05,067,,0*5C
$GNRMC,034255.00,A,3727.0821666,N,12639.1212913,E,0.013,,210622,,,F,V*19
$GNVTG,,T,,M,0.013,N,0.023,K,D*3B
$GNGNS,034255.00,3727.0821666,N,12639.1212913,E,FFFF,24,0.99,20.588,17.832,2.0,4095,V*05
$GNGGA,034255.00,3727.0821666,N,12639.1212913,E,5,12,0.99,20.588,M,17.832,M,2.0,4095*54
$GNGSA,A,3,14,06,19,03,17,,,,,,,,1.94,0.99,1.66,1*02
$GNGSA,A,3,85,75,71,77,76,70,,,,,,,1.94,0.99,1.66,2*00
$GNGSA,A,3,15,21,27,13,,,,,,,,,1.94,0.99,1.66,3*0E
$GNGSA,A,3,03,08,37,07,02,10,28,13,33,,,,1.94,0.99,1.66,4*0A
$GPGSV,2,1,08,01,26,055,21,03,53,065,31,06,37,265,33,14,52,197,46,1*61
$GPGSV,2,2,08,17,69,350,42,19,48,316,22,28,,,47,50,47,179,31,1*57
$GPGSV,2,1,05,01,26,055,19,03,53,065,28,06,37,265,27,14,52,197,38,6*64
$GPGSV,2,2,05,17,69,350,33,6*59
$GPGSV,1,1,03,04,10,115,,11,02,249,,21,05,067,,0*5C
$GLGSV,2,1,07,70,39,074,09,71,30,137,24,75,18,205,26,76,41,265,25,1*77
$GLGSV,2,2,07,77,22,320,10,85,39,048,25,87,10,282,18,1*4C
$GLGSV,1,1,04,75,18,205,32,76,41,265,27,77,22,320,10,85,39,048,13,3*7A
$GLGSV,1,1,02,69,05,021,,86,51,336,,0*7E
$GAGSV,2,1,06,01,11,324,27,13,60,298,35,15,49,044,46,18,59,092,27,2*73
$GAGSV,2,2,06,21,47,287,30,27,46,202,45,2*78
$GAGSV,2,1,06,01,11,324,19,13,60,298,37,15,49,044,42,18,59,092,31,7*7A
$GAGSV,2,2,06,21,47,287,34,27,46,202,43,7*7F
$GAGSV,2,1,05,03,20,087,,05,06,039,,26,13,261,,30,05,165,,0*72
$GAGSV,2,2,05,30,05,165,,0*45
$GBGSV,2,1,08,03,44,206,40,07,76,231,42,08,50,236,44,10,70,276,40,1*75
$GBGSV,2,2,08,13,40,235,31,28,67,021,44,33,46,103,31,37,26,232,32,1*76
$GBGSV,2,1,06,02,27,236,31,03,44,206,41,07,76,231,44,08,50,236,48,3*71
$GBGSV,2,2,06,10,70,276,45,13,40,235,34,3*73
$GBGSV,1,1,01,27,36,297,,0*4A
$GNRMC,034256.00,A,3727.0821683,N,12639.1212889,E,0.032,,210622,,,F,V*10
$GNVTG,,T,,M,0.032,N,0.060,K,D*3F
$GNGNS,034256.00,3727.0821683,N,12639.1212889,E,FFFF,23,0.99,20.594,17.832,2.0,4095,V*05
$GNGGA,034256.00,3727.0821683,N,12639.1212889,E,5,12,0.99,20.594,M,17.832,M,2.0,4095*53
$GNGSA,A,3,14,06,19,03,17,,,,,,,,1.94,0.99,1.66,1*02
$GNGSA,A,3,85,75,77,76,70,,,,,,,,1.94,0.99,1.66,2*06
$GNGSA,A,3,15,21,27,13,,,,,,,,,1.94,0.99,1.66,3*0E
$GNGSA,A,3,03,08,37,07,02,10,28,13,33,,,,1.94,0.99,1.66,4*0A
$GPGSV,2,1,08,01,26,055,21,03,53,065,31,06,37,265,33,14,52,197,47,1*60
$GPGSV,2,2,08,17,69,350,42,19,48,316,22,28,,,47,50,47,179,32,1*54
$GPGSV,2,1,05,01,26,055,18,03,53,065,28,06,37,265,27,14,52,197,37,6*6A
$GPGSV,2,2,05,17,69,350,33,6*59
$GPGSV,1,1,03,04,10,115,,11,02,249,,21,05,067,,0*5C
$GLGSV,2,1,06,70,39,074,11,75,18,205,26,76,41,265,24,77,22,320,11,1*79
$GLGSV,2,2,06,85,39,048,24,87,10,282,20,1*77
$GLGSV,1,1,04,75,18,205,31,76,41,265,28,77,22,320,10,85,39,048,14,3*71
$GLGSV,1,1,03,69,05,021,,71,30,137,,86,51,336,,0*4F
$GAGSV,2,1,06,01,11,324,27,13,60,298,35,15,49,044,45,18,59,092,27,2*70
$GAGSV,2,2,06,21,47,287,30,27,46,202,44,2*79
$GAGSV,2,1,06,01,11,324,20,13,60,298,37,15,49,044,42,18,59,092,31,7*70
$GAGSV,2,2,06,21,47,287,34,27,46,202,43,7*7F
$GAGSV,2,1,05,03,20,087,,05,06,039,,26,13,261,,30,05,165,,0*72
$GAGSV,2,2,05,30,05,165,,0*45
$GBGSV,3,1,09,03,44,206,40,07,76,231,42,08,50,236,44,10,70,276,40,1*75
$GBGSV,3,2,09,13,40,235,31,27,37,298,25,28,67,021,44,33,46,103,31,1*71
$GBGSV,3,3,09,37,26,232,32,1*4D
$GBGSV,2,1,06,02,27,236,30,03,44,206,40,07,76,231,43,08,50,236,47,3*79
$GBGSV,2,2,06,10,70,276,44,13,40,235,33,3*75
$GNRMC,034257.00,A,3727.0821708,N,12639.1212864,E,0.043,,210622,,,F,V*16
$GNVTG,,T,,M,0.043,N,0.079,K,D*31
$GNGNS,034257.00,3727.0821708,N,12639.1212864,E,FFFF,24,0.89,20.579,17.832,2.0,4095,V*00
$GNGSA,A,3,14,06,19,03,17,,,,,,,,1.82,0.89,1.59,1*08
$GNGSA,A,3,85,75,77,76,70,,,,,,,,1.82,0.89,1.59,2*0C
$GNGSA,A,3,15,21,27,13,,,,,,,,,1.82,0.89,1.59,3*04
$GNGSA,A,3,03,08,27,37,07,02,10,28,13,33,,,1.82,0.89,1.59,4*05
$GPGSV,2,1,08,01,26,055,21,03,53,065,31,06,37,265,33,14,52,197,46,1*61
$GPGSV,2,2,08,17,69,350,42,19,48,316,22,28,,,47,50,47,179,31,1*57
$GPGSV,2,1,05,01,26,055,18,03,53,065,28,06,37,265,26,14,52,197,36,6*6A
$GPGSV,2,2,05,17,69,350,33,6*59
$GPGSV,1,1,03,04,10,115,,11,02,249,,21,05,067,,0*5C
$GLGSV,2,1,07,70,39,074,09,71,30,137,27,75,18,205,25,76,41,265,24,1*76
$GLGSV,2,2,07,77,22,320,08,85,39,048,25,87,10,282,24,1*4A
$GLGSV,1,1,04,75,18,205,32,76,41,265,27,77,22,320,11,85,39,048,15,3*7D
$GLGSV,1,1,02,69,05,021,,86,51,336,,0*7E
$GAGSV,2,1,06,01,11,324,28,13,60,298,35,15,49,044,45,18,59,092,27,2*7F
$GAGSV,2,2,06,21,47,287,30,27,46,202,44,2*79
$GAGSV,2,1,06,01,11,324,21,13,60,298,37,15,49,044,4$GAGSV,2,2,06,21,47,287,34,27,46,202,44,7*78
$GAGSV,2,1,05,03,20,087,,05,06,039,,26,13,261,,30,05,165,,0*72
$GAGSV,2,2,05,30,05,165,,0*45
$GBGSV,3,1,09,03,44,206,40,07,76,231,42,08,50,236,44,10,70,276,40,1*75
$GBGSV,3,2,09,13,40,235,31,27,37,298,24,28,67,022,43,33,46,103,31,1*74
$GBGSV,3,3,09,37,26,232,32,1*4D
$GBGSV,2,1,06,02,27,236,30,03,44,206,39,07,76,231,42,08,50,236,46,3*77
$GBGSV,2,2,06,10,70,276,43,13,40,235,32,3*73
$GNRMC,034258.00,A,3727.0821693,N,12639.1212869,E,0.019,,210622,,,F,V*18
$GNVTG,,T,,M,0.019,N,0.034,K,D*37
$GNGNS,034258.00,3727.0821693,N,12639.1212869,E,FFFF,25,0.89,20.584,17.832,2.0,4095,V*02
$GNGGA,034258.00,3727.0821693,N,12639.1212869,E,5,12,0.89,20.584,M,17.832,M,2.0,4095*52
$GNGSA,A,3,14,06,19,03,17,,,,,,,,1.82,0.89,1.59,1*08
$GNGSA,A,3,85,75,77,76,70,71,,,,,,,1.82,0.89,1.59,2*0A
$GNGSA,A,3,15,21,27,13,,,,,,,,,1.82,0.89,1.59,3*04
$GNGSA,A,3,03,08,27,37,07,02,10,28,13,33,,,1.82,0.89,1.59,4*05
$GPGSV,2,1,08,01,26,055,21,03,53,065,32,06,37,265,33,14,52,197,46,1*62
$GPGSV,2,2,08,17,69,350,42,19,48,316,22,28,,,47,50,47,179,31,1*57
$GPGSV,2,1,05,01,26,055,19,03,53,065,28,06,37,265,26,14,52,197,36,6*6B
$GPGSV,2,2,05,17,69,350,33,6*59
$GPGSV,1,1,03,04,10,115,,11,02,249,,21,05,067,,0*5C
$GLGSV,2,1,07,70,39,074,08,71,30,137,26,75,18,205,25,76,41,265,25,1*77
$GLGSV,2,2,07,77,22,320,09,85,39,048,25,87,10,282,22,1*4D
$GLGSV,1,1,04,75,18,205,31,76,41,265,27,77,22,320,09,85,39,048,15,3*77
$GLGSV,1,1,02,69,05,021,,86,51,336,,0*7E
$GAGSV,2,1,06,01,11,324,29,13,60,298,36,15,49,044,45,18,59,092,28,2*72
$GAGSV,2,2,06,21,47,287,30,27,46,202,44,2*79
$GAGSV,2,1,06,01,11,324,21,13,60,298,37,15,49,044,42,18,59,092,31,7*71
$GAGSV,2,2,06,21,47,287,34,27,46,202,44,7*78
$GAGSV,2,1,05,03,20,087,,05,06,039,,26,13,261,,30,05,165,,0*72
$GAGSV,2,2,05,30,05,165,,0*45
$GBGSV,3,1,09,03,44,206,40,07,76,231,42,08,50,236,44,10,70,276,40,1*75
$GBGSV,3,2,09,13,40,235,31,27,37,298,25,28,67,022,43,33,46,103,31,1*75
$GBGSV,3,3,09,37,26,232,31,1*4E
$GBGSV,2,1,06,02,27,236,30,03,44,206,39,07,76,231,42,08,50,236,46,3*77
$GBGSV,2,2,06,10,70,276,43,13,40,235,31,3*70
$GNRMC,034259.00,A,3727.0821698,N,12639.1212876,E,0.020,,210622,,,F,V*16
$GNVTG,,T,,M,0.020,N,0.038,K,D*31
$GNGNS,034259.00,3727.0821698,N,12639.1212876,E,FFFF,25,0.89,20.590,17.832,2.0,4095,V*03
$GNGGA,034259.00,3727.0821698,N,12639.1212876,E,5,12,0.89,20.590,M,17.832,M,2.0,4095*53
$GNGSA,A,3,14,06,19,03,17,,,,,,,,1.82,0.89,1.59,1*08
$GNGSA,A,3,85,75,77,76,70,71,,,,,,,1.82,0.89,1.59,2*0A
$GNGSA,A,3,15,21,27,13,,,,,,,,,1.82,0.89,1.59,3*04
$GNGSA,A,3,03,08,27,37,07,02,10,28,13,33,,,1.82,0.89,1.59,4*05
$GPGSV,2,1,08,01,26,055,22,03,53,065,32,06,37,265,34,14,52,197,46,1*66
$GPGSV,2,2,08,17,69,350,42,19,48,316,21,28,,,47,50,47,179,32,1*57
$GPGSV,2,1,05,01,26,055,17,03,53,065,27,06,37,265,25,14,52,197,36,6*69
$GPGSV,2,2,05,17,69,350,32,6*58
$GPGSV,1,1,03,04,10,115,,11,02,249,,21,05,067,,0*5C
$GLGSV,2,1,07,70,39,074,13,71,30,137,25,75,18,205,24,76,41,265,25,1*7F
$GLGSV,2,2,07,77,22,320,12,85,39,048,25,87,10,282,21,1*44
$GLGSV,1,1,04,75,18,205,32,76,41,265,26,77,22,320,12,85,39,048,14,3*7E
$GLGSV,1,1,02,69,05,021,,86,51,336,,0*7E
$GAGSV,2,1,06,01,11,324,28,13,60,298,35,15,49,044,45,18,59,092,28,2*70
$GAGSV,2,2,06,21,47,287,30,27,46,202,44,2*79
$GAGSV,2,1,06,01,11,324,21,13,60,298,37,15,49,044,42,18,59,092,30,7*70
$GAGSV,2,2,06,21,47,287,33,27,46,202,44,7*7F
$GAGSV,2,1,05,03,20,087,,05,06,039,,26,13,261,,30,05,165,,0*72
$GAGSV,2,2,05,30,05,165,,0*45
$GBGSV,3,1,09,03,44,206,40,07,76,231,42,08,50,236,44,10,70,276,40,1*75
$GBGSV,3,2,09,13,40,235,31,27,37,298,25,28,67,022,44,33,46,103,31,1*72
$GBGSV,3,3,09,37,26,232,31,1*4E
$GBGSV,2,1,06,02,27,236,30,03,44,206,39,07,76,231,42,08,50,236,46,3*77
$GBGSV,2,2,06,10,70,276,43,13,40,235,32,3*73
$GNRMC,034300.00,A,3727.0821697,N,12639.1212864,E,0.031,,210622,,,F,V*17
$GNVTG,,T,,M,0.031,N,0.057,K,D*38
$GNGNS,034300.00,3727.0821697,N,12639.1212864,E,FFFF,24,0.89,20.580,17.832,2.0,4095,V*02
$GNGGA,034300.00,3727.0821697,N,12639.1212864,E,5,12,0.89,20.580,M,17.832,M,2.0,4095*53
$GNGSA,A,3,14,06,19,03,17,,,,,,,,1.82,0.89,1.59,1*08
$GNGSA,A,3,85,75,77,76,70,71,,,,,,,1.82,0.89,1.59,2*0A
$GNGSA,A,3,15,21,27,13,,,,,,,,,1.82,0.89,1.59,3*04
$GNGSA,A,3,03,08,27,37,07,02,10,28,13,33,,,1.82,0.89,1.59,4*05
$GPGSV,2,1,08,01,26,055,22,03,53,065,32,06,37,265,33,14,52,197,46,1*61
$GPGSV,2,2,08,17,69,350,42,19,48,316,21,28,,,47,50,47,179,32,1*57
$GPGSV,2,1,05,01,26,055,16,03,53,065,27,06,37,265,25,14,52,197,36,6*68
$GPGSV,2,2,05,17,69,350,32,6*58
$GPGSV,1,1,03,04,10,115,,11,02,249,,21,05,067,,0*5C
$GLGSV,2,1,07,70,39,074,10,71,30,137,25,75,18,205,25,76,41,265,26,1*7E
$GLGSV,2,2,07,77,22,320,07,85,39,048,24,87,10,282,23,1*43
$GLGSV,1,1,04,75,18,205,31,76,41,265,25,77,22,320,11,85,39,048,12,3*7B
$GLGSV,1,1,02,69,05,021,,86,51,336,,0*7E
$GAGSV,2,1,06,01,11,324,28,13,60,298,35,15,49,044,45,18,59,092,27,2*7F
$GAGSV,2,2,06,21,47,287,30,27,46,202,44,2*79
$GAGSV,2,1,06,01,11,324,21,13,60,298,37,15,49,044,41,18,59,092,29,7*7B
$GAGSV,2,2,06,21,47,287,34,27,46,202,44,7*78
$GNRMC,034301.00,A,3727.0821694,N,12639.1212839,E,0.026,,210622,,,F,V*1B
$GNVTG,,T,,M,0.026,N,0.047,K,D*3F
$GNGNS,034301.00,3727.0821694,N,12639.1212839,E,FFFF,25,0.89,20.596,17.832,2.0,4095,V*0E
$GNGGA,034301.00,3727.0821694,N,12639.1212839,E,5,12,0.89,20.596,M,17.832,M,2.0,4095*5E
$GNGSA,A,3,14,06,19,03,17,,,,,,,,1.82,0.89,1.59,1*08
$GNGSA,A,3,85,75,77,76,70,71,,,,,,,1.82,0.89,1.59,2*0A
$GNGSA,A,3,15,21,27,13,,,,,,,,,1.82,0.89,1.59,3*04
$GNGSA,A,3,03,08,27,37,07,02,10,28,13,33,,,1.82,0.89,1.59,4*05
$GPGSV,2,1,08,01,26,055,22,03,53,065,31,06,37,265,32,14,52,197,47,1*62
$GPGSV,2,2,08,17,69,350,42,19,48,316,20,28,,,47,50,47,179,31,1*55
$GPGSV,2,1,05,01,26,055,15,03,53,065,27,06,37,265,24,14,52,197,37,6*6B
$GPGSV,2,2,05,17,69,350,32,6*58
$GPGSV,1,1,03,04,10,115,,11,02,249,,21,05,067,,0*5C
$GLGSV,2,1,07,70,39,074,10,71,30,137,25,75,18,205,25,76,41,265,26,1*7E
$GLGSV,2,2,07,77,22,320,08,85,39,048,22,87,10,282,22,1*4B
$GLGSV,1,1,04,75,18,205,31,76,41,265,25,77,22,320,11,85,39,048,12,3*7B
$GLGSV,1,1,02,69,05,021,,86,51,336,,0*7E
$GAGSV,2,1,06,01,11,324,28,13,60,298,35,15,49,044,45,18,59,092,26,2*7E
$GAGSV,2,2,06,21,47,287,29,27,46,202,44,2*71
$GAGSV,2,1,06,01,11,324,20,13,60,298,37,15,49,044,41,18,59,092,29,7*7A
$GAGSV,2,2,06,21,47,287,34,27,46,202,44,7*78
$GAGSV,2,1,05,03,20,087,,05,06,039,,26,13,261,,30,05,165,,0*72
$GAGSV,2,2,05,30,05,165,,0*45
$GBGSV,3,1,09,03,44,206,40,07,76,231,42,08,50,236,45,10,70,276,40,1*74
$GBGSV,3,2,09,13,40,235,30,27,37,298,25,28,67,022,44,33,46,103,32,1*70
$GBGSV,3,3,09,37,25,231,30,1*4F
$GBGSV,2,1,06,02,27,236,30,03,44,206,39,07,76,231,42,08,50,236,46,3*77
$GBGSV,2,2,06,10,70,276,43,13,40,235,32,3*73
$GNRMC,034302.00,A,3727.0821718,N,12639.1212861,E,0.047,,210622,,,F,V*17
$GNVTG,,T,,M,0.047,N,0.087,K,D*34
$GNGNS,034302.00,3727.0821718,N,12639.1212861,E,FFFF,24,0.89,20.598,17.832,2.0,4095,V*0A
$GNGGA,034302.00,3727.0821718,N,12639.1212861,E,5,12,0.89,20.598,M,17.832,M,2.0,4095*5B
$GNGSA,A,3,14,06,19,03,17,,,,,,,,1.82,0.89,1.59,1*08
$GNGSA,A,3,85,75,77,76,71,,,,,,,,1.82,0.89,1.59,2*0D
$GNGSA,A,3,15,21,27,13,,,,,,,,,1.82,0.89,1.59,3*04
$GNGSA,A,3,03,08,27,37,07,02,10,28,13,33,,,1.82,0.89,1.59,4*05
$GPGSV,2,1,08,01,26,055,23,03,53,065,31,06,37,265,32,14,52,197,47,1*63
$GPGSV,2,2,08,17,69,350,42,19,48,316,20,28,,,47,50,47,179,31,1*55
$GPGSV,2,1,05,01,26,055,14,03,53,065,27,06,37,265,23,14,52,197,37,6*6D
$GPGSV,2,2,05,17,69,350,32,6*58
$GPGSV,1,1,03,04,10,115,,11,02,249,,21,05,067,,0*5C
$GLGSV,2,1,07,70,39,074,06,71,30,137,25,75,18,205,26,76,41,265,26,1*7A
$GLGSV,2,2,07,77,22,320,12,85,39,048,21,87,10,282,21,1*40
$GLGSV,1,1,04,75,18,205,31,76,41,265,25,77,22,320,08,85,39,048,10,3*71
$GLGSV,1,1,02,69,05,021,,86,51,336,,0*7E
$GAGSV,2,1,06,01,11,324,28,13,60,298,35,15,49,044,46,18,59,092,26,2*7D
$GAGSV,2,2,06,21,47,287,29,27,46,202,44,2*71
$GAGSV,2,1,06,01,11,324,20,13,60,298,37,15,49,044,41,18,59,092,28,7*7B
$GAGSV,2,2,06,21,47,287,34,27,46,202,44,7*78
$GAGSV,2,1,05,03,20,087,,05,06,039,,26,13,261,,30,05,165,,0*72
$GAGSV,2,2,05,30,05,165,,0*45
$GBGSV,3,1,09,03,44,206,40,07,76,231,42,08,50,236,45,10,70,276,40,1*74
$GBGSV,3,2,09,13,40,235,29,27,37,298,26,28,67,022,44,33,46,103,32,1*7B
$GBGSV,3,3,09,37,25,231,30,1*4F
$GBGSV,2,1,06,02,27,236,30,03,44,206,39,07,76,231,43,08,50,236,47,3*77
$GBGSV,2,2,06,10,70,276,44,13,40,235,32,3*74
$GNRMC,034303.00,A,3727.0821710,N,12639.1212836,E,0.007,,210622,,,F,V*18
$GNVTG,,T,,M,0.007,N,0.013,K,D*3D
$GNGNS,034303.00,3727.0821710,N,12639.1212836,E,FFFF,24,0.89,20.599,17.832,1.0,4095,V*03
$GNGGA,034303.00,3727.0821710,N,12639.1212836,E,5,12,0.89,20.599,M,17.832,M,1.0,4095*52
$GNGSA,A,3,14,06,19,03,17,,,,,,,,1.82,0.89,1.59,1*08
$GNGSA,A,3,85,75,77,76,71,,,,,,,,1.82,0.89,1.59,2*0D
$GNGSA,A,3,15,21,27,13,,,,,,,,,1.82,0.89,1.59,3*04
$GNGSA,A,3,03,08,27,37,07,02,10,28,13,33,,,1.82,0.89,1.59,4*05
$GPGSV,2,1,08,01,26,055,23,03,53,065,31,06,37,265,31,14,52,197,46,1*61
$GPGSV,2,2,08,17,69,350,42,19,48,316,20,28,,,47,50,47,179,31,1*55
$GPGSV,2,1,05,01,26,055,15,03,53,065,27,06,37,265,22,14,52,197,36,6*6C
$GPGSV,2,2,05,17,69,350,32,6*58
$GPGSV,1,1,03,04,10,115,,11,02,249,,21,05,067,,0*5C
$GLGSV,2,1,07,70,39,074,07,71,30,137,25,75,18,205,26,76,41,265,26,1*7B
$GLGSV,2,2,07,77,22,320,10,85,39,048,20,87,10,282,21,1*43
$GLGSV,1,1,04,75,18,205,31,76,41,265,24,77,22,320,11,85,39,048,11,3*79
$GLGSV,1,1,02,69,05,021,,86,51,336,,0*7E
$GAGSV,2,1,06,01,11,324,28,13,60,298,35,15,49,044,45,18,59,092,26,2*7E
$GAGSV,2,2,06,21,47,287,29,27,46,202,44,2*71
$GAGSV,2,1,06,01,11,324,20,13,60,298,37,15,49,044,41,18,59,092,28,7*7B
$GAGSV,2,2,06,21,47,287,34,27,46,202,44,7*78
$GAGSV,2,1,05,03,20,087,,05,06,039,,26,13,261,,30,05,165,,0*72
$GAGSV,2,2,05,30,05,165,,0*45
$GBGSV,3,1,09,03,44,206,40,07,76,231,42,08,50,236,45,10,70,276,40,1*74
$GBGSV,3,2,09,13,40,235,30,27,37,298,26,28,67,022,44,33,46,103,32,1*73
$GBGSV,3,3,09,37,25,231,29,1*47
$GBGSV,2,1,06,02,27,236,30,03,44,206,40,07,76,231,43,08,50,236,47,3*79
$GBGSV,2,2,06,10,70,276,44,13,40,235,32,3*74
$GNRMC,034304.00,A,3727.0821708,N,12639.1212880,E,0.007,,210622,,,F,V*1B
$GNVTG,,T,,M,0.007,N,0.013,K,D*3D
$GNGNS,034304.00,3727.0821708,N,12639.1212880,E,FFFF,24,0.89,20.614,17.832,2.0,4095,V*05
$GNGSA,A,3,14,06,19,03,17,,,,,,,,1.82,0.89,1.59,1*08
$GNGSA,A,3,85,75,77,76,71,,,,,,,,1.82,0.89,1.59,2*0D
$GNGSA,A,3,15,21,27,13,,,,,,,,,1.82,0.89,1.59,3*04
$GNGSA,A,3,03,08,27,37,07,02,10,28,13,33,,,1.82,0.89,1.59,4*05
$GPGSV,2,1,08,01,26,055,22,03,53,065,31,06,37,265,30,14,52,197,46,1*61
$GPGSV,2,2,08,17,69,350,42,19,48,316,21,28,,,47,50,47,179,31,1*54
$GPGSV,2,1,05,01,26,055,16,03,53,065,27,06,37,265,22,14,52,197,36,6*6F
$GPGSV,2,2,05,17,69,350,32,6*58
$GPGSV,1,1,03,04,10,115,,11,02,249,,21,05,067,,0*5C
$GLGSV,2,1,07,70,39,074,07,71,30,137,25,75,18,205,26,76,41,265,26,1*7B
$GLGSV,2,2,07,77,22,320,09,85,39,048,20,87,10,282,21,1*4B
$GLGSV,1,1,04,75,18,205,32,76,41,265,23,77,22,320,12,85,39,048,14,3*7B
$GLGSV,1,1,02,69,05,021,,86,51,336,,0*7E
$GAGSV,2,1,06,01,11,324,28,13,60,298,36,15,49,044,45,18,59,092,26,2*7D
$GAGSV,2,2,06,21,47,287,29,27,46,202,44,2*71
$GAGSV,2,1,06,01,11,324,21,13,60,298,37,15,49,044,4$GAGSV,2,2,06,21,47,287,34,27,46,202,44,7*78
$GAGSV,2,1,05,03,20,087,,05,06,039,,26,13,261,,30,05,165,,0*72
$GAGSV,2,2,05,30,05,165,,0*45
$GBGSV,3,1,09,03,44,206,40,07,76,231,42,08,50,236,45,10,70,276,40,1*74
$GBGSV,3,2,09,13,40,235,30,27,37,298,27,28,67,022,44,33,46,103,33,1*73
$GBGSV,3,3,09,37,25,231,28,1*46
$GBGSV,2,1,06,02,27,236,30,03,44,206,40,07,76,231,43,08,50,236,47,3*79
$GBGSV,2,2,06,10,70,276,44,13,40,235,32,3*74
$GNRMC,034305.00,A,3727.0821724,N,12639.1212874,E,0.039,,210622,,,F,V*12
$GNVTG,,T,,M,0.039,N,0.072,K,D*37
$GNGNS,034305.00,3727.0821724,N,12639.1212874,E,FFFF,23,0.89,20.586,17.832,2.0,4095,V*0E
$GNGGA,034305.00,3727.0821724,N,12639.1212874,E,5,12,0.89,20.586,M,17.832,M,2.0,4095*58
$GNGSA,A,3,14,06,19,03,17,,,,,,,,1.82,0.89,1.59,1*08
$GNGSA,A,3,85,75,77,76,,,,,,,,,1.82,0.89,1.59,2*0B
$GNGSA,A,3,15,21,27,13,,,,,,,,,1.82,0.89,1.59,3*04
$GNGSA,A,3,03,08,27,37,07,02,10,28,13,33,,,1.82,0.89,1.59,4*05
$GPGSV,2,1,08,01,26,055,21,03,53,065,30,06,37,265,30,14,52,197,46,1*63
$GPGSV,2,2,08,17,69,350,42,19,48,316,23,28,,,47,50,47,179,31,1*56
$GPGSV,2,1,05,01,26,055,17,03,53,065,27,06,37,265,22,14,52,197,35,6*6D
$GPGSV,2,2,05,17,69,350,32,6*58
$GPGSV,1,1,03,04,10,115,,11,02,249,,21,05,067,,0*5C
$GLGSV,2,1,06,70,39,074,06,75,18,205,26,76,41,265,26,77,22,320,14,1*78
$GLGSV,2,2,06,85,39,048,21,87,10,282,19,1*78
$GLGSV,1,1,04,75,18,205,31,76,41,265,21,77,22,320,11,85,39,048,13,3*7E
$GLGSV,1,1,03,69,05,021,,71,30,137,,86,51,336,,0*4F
$GAGSV,2,1,06,01,11,324,28,13,60,298,36,15,49,044,45,18,59,092,27,2*7C
$GAGSV,2,2,06,21,47,287,28,27,46,202,44,2*70
$GAGSV,2,1,06,01,11,324,22,13,60,298,37,15,49,044,41,18,59,092,28,7*79
$GAGSV,2,2,06,21,47,287,35,27,46,202,44,7*79
$GAGSV,2,1,05,03,20,087,,05,06,039,,26,13,261,,30,05,165,,0*72
$GAGSV,2,2,05,30,05,165,,0*45
$GBGSV,3,1,09,03,44,206,40,07,76,231,42,08,50,236,45,10,70,276,40,1*74
$GBGSV,3,2,09,13,40,235,30,27,37,298,28,28,67,022,43,33,46,103,33,1*7B
$GBGSV,3,3,09,37,25,231,28,1*46
$GBGSV,2,1,06,02,27,236,30,03,44,206,39,07,76,231,43,08,50,236,47,3*77
$GBGSV,2,2,06,10,70,276,44,13,40,235,32,3*74
$GNRMC,034306.00,A,3727.0821747,N,12639.1212828,E,0.020,,210622,,,F,V*15
$GNVTG,,T,,M,0.020,N,0.038,K,D*31
$GNGNS,034306.00,3727.0821747,N,12639.1212828,E,FFFF,23,0.89,20.560,17.832,2.0,4095,V*09
$GNGGA,034306.00,3727.0821747,N,12639.1212828,E,5,12,0.89,20.560,M,17.832,M,2.0,4095*5F
$GNGSA,A,3,14,06,19,03,17,,,,,,,,1.82,0.89,1.59,1*08
$GNGSA,A,3,85,75,77,76,,,,,,,,,1.82,0.89,1.59,2*0B
$GNGSA,A,3,15,21,27,13,,,,,,,,,1.82,0.89,1.59,3*04
$GNGSA,A,3,03,08,27,37,07,02,10,28,13,33,,,1.82,0.89,1.59,4*05
$GPGSV,2,1,08,01,26,055,21,03,53,065,29,06,37,265,29,14,52,197,46,1*63
$GPGSV,2,2,08,17,69,350,42,19,48,316,26,28,,,47,50,47,179,31,1*53
$GPGSV,2,1,05,01,26,055,17,03,53,065,27,06,37,265,21,14,52,197,35,6*6E
$GPGSV,2,2,05,17,69,350,32,6*58
$GPGSV,1,1,03,04,10,115,,11,02,249,,21,05,067,,0*5C
$GLGSV,2,1,07,70,39,074,06,71,30,137,25,75,18,205,26,76,41,265,27,1*7B
$GLGSV,2,2,07,77,22,320,09,85,39,048,22,87,10,282,20,1*48
$GLGSV,1,1,04,75,18,205,31,76,41,265,22,77,22,320,10,85,39,048,13,3*7C
$GLGSV,1,1,02,69,05,021,,86,51,336,,0*7E
$GAGSV,2,1,06,01,11,324,28,13,60,298,37,15,49,044,45,18,59,092,26,2*7C
$GAGSV,2,2,06,21,47,287,29,27,46,202,44,2*71
$GAGSV,2,1,06,01,11,324,22,13,60,298,37,15,49,044,41,18,59,092,28,7*79
$GAGSV,2,2,06,21,47,287,34,27,46,202,45,7*79
$GAGSV,2,1,05,03,20,087,,05,06,039,,26,13,261,,30,05,165,,0*72
$GAGSV,2,2,05,30,05,165,,0*45
$GBGSV,3,1,09,03,44,206,40,07,76,231,42,08,50,236,45,10,70,276,40,1*74
$GBGSV,3,2,09,13,40,235,29,27,37,298,28,28,67,022,44,33,46,103,33,1*74
$GBGSV,3,3,09,37,25,231,29,1*47
$GBGSV,2,1,06,02,27,236,31,03,44,206,39,07,76,231,43,08,50,236,47,3*76
$GNRMC,034307.00,A,3727.0821739,N,12639.1212831,E,0.030,,210622,,,F,V*14
$GNVTG,,T,,M,0.030,N,0.055,K,D*3B
$GNGNS,034307.00,3727.0821739,N,12639.1212831,E,FFFF,23,0.89,20.578,17.832,2.0,4095,V*00
$GNGGA,034307.00,3727.0821739,N,12639.1212831,E,5,12,0.89,20.578,M,17.832,M,2.0,4095*56
$GNGSA,A,3,14,06,19,03,17,,,,,,,,1.82,0.89,1.59,1*08
$GNGSA,A,3,85,75,77,76,,,,,,,,,1.82,0.89,1.59,2*0B
$GNGSA,A,3,15,21,27,13,,,,,,,,,1.82,0.89,1.59,3*04
$GNGSA,A,3,03,08,27,37,07,02,10,28,13,33,,,1.82,0.89,1.59,4*05
$GPGSV,2,1,08,01,26,055,21,03,53,065,28,06,37,265,27,14,52,197,47,1*6D
$GPGSV,2,2,08,17,69,350,42,19,48,316,22,28,,,48,50,47,179,31,1*58
$GPGSV,2,1,05,01,26,055,16,03,53,065,27,06,37,265,22,14,52,197,37,6*6E
$GPGSV,2,2,05,17,69,350,32,6*58
$GPGSV,1,1,03,04,10,115,,11,02,249,,21,05,067,,0*5C
$GLGSV,2,1,07,70,39,074,09,71,30,137,23,75,18,205,26,76,41,265,27,1*72
$GLGSV,2,2,07,77,22,320,14,85,39,048,22,87,10,282,21,1*45
$GLGSV,1,1,04,75,18,205,31,76,41,265,21,77,22,320,09,85,39,048,09,3*7C
$GLGSV,1,1,02,69,05,021,,86,51,336,,0*7E
$GAGSV,2,1,06,01,11,324,28,13,60,298,36,15,49,044,44,18,59,092,26,2*7C
$GAGSV,2,2,06,21,47,287,29,27,46,202,44,2*71
$GAGSV,2,1,06,01,11,324,22,13,60,298,36,15,49,044,40,18,59,092,28,7*79
$GAGSV,2,2,06,21,47,287,34,27,46,202,45,7*79
$GAGSV,2,1,05,03,20,087,,05,06,039,,26,13,261,,30,05,165,,0*72
$GAGSV,2,2,05,30,05,165,,0*45
$GBGSV,3,1,09,03,44,206,40,07,76,231,42,08,50,236,44,10,70,276,40,1*75
$GBGSV,3,2,09,13,40,235,30,27,37,298,26,28,67,022,44,33,46,103,33,1*72
$GBGSV,3,3,09,37,25,231,29,1*47
$GBGSV,2,1,06,02,27,236,30,03,44,206,39,07,76,231,42,08,50,236,46,3*77
$GBGSV,2,2,06,10,70,276,44,13,40,235,32,3*74
$GNRMC,034308.00,A,3727.0821740,N,12639.1212828,E,0.021,,210622,,,F,V*1D
$GNVTG,,T,,M,0.021,N,0.039,K,D*31
$GNGNS,034308.00,3727.0821740,N,12639.1212828,E,FFFF,24,0.89,20.590,17.832,2.0,4095,V*08
$GNGGA,034308.00,3727.0821740,N,12639.1212828,E,5,12,0.89,20.590,M,17.832,M,2.0,4095*59
$GNGSA,A,3,14,06,19,03,17,,,,,,,,1.82,0.89,1.59,1*08
$GNGSA,A,3,85,75,77,76,71,,,,,,,,1.82,0.89,1.59,2*0D
$GNGSA,A,3,15,21,27,13,,,,,,,,,1.82,0.89,1.59,3*04
$GNGSA,A,3,03,08,27,37,07,02,10,28,13,33,,,1.82,0.89,1.59,4*05
$GPGSV,2,1,08,01,26,055,22,03,53,065,27,06,37,265,26,14,52,197,47,1*60
$GPGSV,2,2,08,17,69,350,42,19,48,316,16,28,,,48,50,47,179,31,1*5F
$GPGSV,2,1,05,01,26,055,15,03,53,065,26,06,37,265,21,14,52,197,38,6*60
$GPGSV,2,2,05,17,69,350,32,6*58
$GPGSV,1,1,03,04,10,115,,11,02,249,,21,05,067,,0*5C
$GLGSV,2,1,06,71,30,137,23,75,18,205,26,76,41,265,29,77,22,320,14,1*7E
$GLGSV,2,2,06,85,39,048,22,87,10,282,18,1*7A
$GLGSV,1,1,04,75,18,205,30,76,41,265,20,77,22,320,10,85,39,048,17,3*7B
$GLGSV,1,1,03,69,05,021,,70,39,074,,86,51,336,,0*41
$GAGSV,2,1,06,01,11,324,28,13,60,298,36,15,49,044,44,18,59,092,24,2*7E
$GAGSV,2,2,06,21,47,287,28,27,46,202,44,2*70
$GAGSV,2,1,06,01,11,324,22,13,60,298,36,15,49,044,40,18,59,092,27,7*76
$GAGSV,2,2,06,21,47,287,34,27,46,202,45,7*79
$GAGSV,2,1,05,03,20,087,,05,06,039,,26,13,261,,30,05,165,,0*72
$GAGSV,2,2,05,30,05,165,,0*45
$GBGSV,3,1,09,03,44,206,40,07,76,231,42,08,50,236,45,10,70,276,41,1*75
$GBGSV,3,2,09,13,40,235,29,27,37,298,25,28,67,022,45,33,46,103,33,1*78
$GBGSV,3,3,09,37,25,231,29,1*47
$GBGSV,2,1,06,02,27,236,29,03,44,206,40,07,76,231,42,08,50,236,46,3*71
$GBGSV,2,2,06,10,70,276,43,13,40,235,33,3*72
$GNRMC,034309.00,A,3727.0821759,N,12639.1212794,E,0.005,,210622,,,F,V*1A
$GNVTG,,T,,M,0.005,N,0.010,K,D*3C
$GNGNS,034309.00,3727.0821759,N,12639.1212794,E,FFFF,24,0.89,20.566,17.832,2.0,4095,V*00
$GNGGA,034309.00,3727.0821759,N,12639.1212794,E,5,12,0.89,20.566,M,17.832,M,2.0,4095*51
$GNGSA,A,3,14,06,19,03,17,,,,,,,,1.82,0.89,1.59,1*08
$GNGSA,A,3,85,75,77,76,71,,,,,,,,1.82,0.89,1.59,2*0D
$GNGSA,A,3,15,21,27,13,,,,,,,,,1.82,0.89,1.59,3*04
$GNGSA,A,3,03,08,27,37,07,02,10,28,13,33,,,1.82,0.89,1.59,4*05
$GPGSV,2,1,07,01,26,055,21,06,37,265,25,14,52,197,47,17,69,350,41,1*66
$GPGSV,2,2,07,19,48,316,16,28,,,48,50,47,179,31,1*69
$GPGSV,2,1,05,01,26,055,14,03,53,065,25,06,37,265,21,14,52,197,38,6*62
$GPGSV,2,2,05,17,69,350,33,6*59
$GPGSV,1,1,03,04,10,115,,11,02,249,,21,05,067,,0*5C
$GLGSV,2,1,06,71,30,137,24,75,18,205,26,76,41,265,29,77,22,320,13,1*7E
$GLGSV,2,2,06,85,39,048,22,87,10,282,15,1*77
$GLGSV,1,1,04,75,18,205,29,76,41,265,20,77,22,320,11,85,39,048,13,3*76
$GLGSV,1,1,03,69,05,021,,70,39,074,,86,51,336,,0*41
$GAGSV,2,1,06,01,11,324,28,13,60,298,35,15,49,044,45,18,59,092,23,2*7B
$GAGSV,2,2,06,21,47,287,27,27,46,202,44,2*7F
$GAGSV,2,1,06,01,11,324,21,13,60,298,37,15,49,044,41,18,59,092,28,7*7A
$GAGSV,2,2,06,21,47,287,34,27,46,202,44,7*78
$GAGSV,2,1,05,03,20,087,,05,06,039,,26,13,261,,30,05,165,,0*72
$GAGSV,2,2,05,30,05,165,,0*45
$GBGSV,3,1,09,03,44,206,39,07,76,231,42,08,50,236,44,10,70,276,41,1*7A
$GBGSV,3,2,09,13,40,235,29,27,37,298,27,28,67,022,45,33,46,103,33,1*7A
$GBGSV,3,3,09,37,25,231,30,1*4F
$GNRMC,034310.00,A,3727.0821774,N,12639.1212791,E,0.013,,210622,,,F,V*1F
$GNVTG,,T,,M,0.013,N,0.024,K,D*3C
$GNGNS,034310.00,3727.0821774,N,12639.1212791,E,FFFF,23,0.89,20.553,17.832,2.0,4095,V*03
$GNGGA,034310.00,3727.0821774,N,12639.1212791,E,5,12,0.89,20.553,M,17.832,M,2.0,4095*55
$GNGSA,A,3,14,06,19,03,17,,,,,,,,1.82,0.89,1.59,1*08
$GNGSA,A,3,85,75,77,76,71,,,,,,,,1.82,0.89,1.59,2*0D
$GNGSA,A,3,15,21,27,13,,,,,,,,,1.82,0.89,1.59,3*04
$GNGSA,A,3,03,08,27,37,07,02,10,28,13,33,,,1.82,0.89,1.59,4*05
$GPGSV,2,1,07,01,26,055,19,06,37,265,24,14,52,197,47,17,69,350,42,1*6F
$GPGSV,2,2,07,19,48,316,18,28,,,48,50,47,179,31,1*67
$GPGSV,2,1,05,01,26,055,13,03,53,065,25,06,37,265,21,14,52,197,37,6*6A
$GPGSV,2,2,05,17,69,350,33,6*59
$GPGSV,1,1,03,04,10,115,,11,02,249,,21,05,067,,0*5C
$GLGSV,2,1,06,71,30,137,26,75,18,205,27,76,41,265,30,77,22,320,10,1*76
$GLGSV,2,2,06,85,39,048,21,87,10,282,18,1*79
$GLGSV,1,1,04,75,18,205,30,76,41,265,20,77,22,320,11,85,39,048,10,3*7D
$GLGSV,1,1,03,69,05,020,,70,39,074,,86,51,336,,0*40
$GAGSV,2,1,06,01,11,324,28,13,60,298,35,15,49,044,45,18,59,092,24,2*7C
$GAGSV,2,2,06,21,47,287,27,27,46,202,44,2*7F
$GAGSV,2,1,06,01,11,324,20,13,60,298,36,15,49,044,40,18,59,092,28,7*7B
$GAGSV,2,2,06,21,47,287,34,27,46,202,45,7*79
$GAGSV,2,1,05,03,20,087,,05,06,039,,26,13,261,,30,05,165,,0*72
$GAGSV,2,2,05,30,05,165,,0*45
$GBGSV,3,1,09,03,44,206,40,07,76,231,42,08,50,236,45,10,70,276,41,1*75
$GBGSV,3,2,09,13,40,235,29,27,37,298,25,28,67,022,44,33,46,103,33,1*79
$GBGSV,3,3,09,37,25,231,29,1*47
$GBGSV,2,1,06,02,27,236,29,03,44,206,39,07,76,231,42,08,50,236,46,3*7F
$GBGSV,2,2,06,10,70,276,43,13,40,235,32,3*73
$GNRMC,034311.00,A,3727.0821716,N,12639.1212835,E,0.010,,210622,,,F,V*18
$GNVTG,,T,,M,0.010,N,0.018,K,D*30
$GNGNS,034311.00,3727.0821716,N,12639.1212835,E,FFFF,22,1.06,20.576,17.832,2.0,4095,V*07
$GNGGA,034311.00,3727.0821716,N,12639.1212835,E,5,12,1.06,20.576,M,17.832,M,2.0,4095*50
$GNGSA,A,3,14,06,19,03,17,,,,,,,,2.01,1.06,1.70,1*0D
$GNGSA,A,3,85,75,77,76,71,,,,,,,,2.01,1.06,1.70,2*08
$GNGSA,A,3,15,21,27,13,,,,,,,,,2.01,1.06,1.70,3*01
$GNGSA,A,3,03,08,37,07,02,10,28,13,33,,,,2.01,1.06,1.70,4*05
$GPGSV,2,1,07,01,26,055,20,06,37,265,22,14,52,197,47,17,69,350,42,1*63
$GPGSV,2,2,07,19,48,316,19,28,,,48,50,47,179,31,1*66
$GPGSV,2,1,05,01,26,055,13,03,53,065,25,06,37,265,22,14,52,197,37,6*69
$GPGSV,2,2,05,17,69,350,32,6*58
$GPGSV,1,1,03,04,10,115,,11,02,249,,21,05,067,,0*5C
$GLGSV,2,1,06,71,30,137,26,75,18,205,27,76,41,265,30,77,22,320,15,1*73
$GLGSV,2,2,06,85,39,048,19,87,10,282,19,1*73
$GLGSV,1,1,04,75,18,205,30,76,41,265,20,77,22,320,11,85,39,048,10,3*7D
$GLGSV,1,1,03,69,05,020,,70,39,073,,86,51,336,,0*47
$GAGSV,2,1,06,01,11,324,28,13,60,298,35,15,49,044,45,18,59,092,25,2*7D
$GAGSV,2,2,06,21,47,287,27,27,46,202,44,2*7F
$GAGSV,2,1,06,01,11,324,19,13,60,298,36,15,49,044,40,18,59,092,27,7*7E
$GAGSV,2,2,06,21,47,287,35,27,46,202,45,7*78
$GAGSV,2,1,05,03,20,087,,05,06,039,,26,13,261,,30,05,165,,0*72
$GAGSV,2,2,05,30,05,165,,0*45
$GBGSV,2,1,08,03,44,206,40,07,76,231,42,08,50,236,46,10,70,276,41,1*76
$GBGSV,2,2,08,13,40,235,30,28,67,022,45,33,46,103,33,37,25,231,28,1*7C
$GBGSV,2,1,06,02,27,236,29,03,44,206,40,07,76,231,42,08,50,236,46,3*71
$GBGSV,2,2,06,10,70,276,43,13,40,235,33,3*72
$GBGSV,1,1,01,27,37,298,,0*44
$GNRMC,034312.00,A,3727.0821712,N,12639.1212848,E,0.039,,210622,,,F,V*1E
$GNVTG,,T,,M,0.039,N,0.072,K,D*37
$GNGNS,034312.00,3727.0821712,N,12639.1212848,E,FFFF,23,1.06,20.633,17.832,2.0,4095,V*09
$GNGGA,034312.00,3727.0821712,N,12639.1212848,E,5,12,1.06,20.633,M,17.832,M,2.0,4095*5F
$GNGSA,A,3,14,06,19,03,17,,,,,,,,2.01,1.06,1.70,1*0D
$GNGSA,A,3,85,75,77,76,71,,,,,,,,2.01,1.06,1.70,2*08
$GNGSA,A,3,15,21,27,13,,,,,,,,,2.01,1.06,1.70,3*01
$GNGSA,A,3,03,08,37,07,02,10,28,13,33,,,,2.01,1.06,1.70,4*05
$GPGSV,2,1,07,01,26,055,21,06,37,265,21,14,52,197,47,17,69,350,41,1*62
$GPGSV,2,2,07,19,48,316,21,28,,,48,50,47,179,31,1*6D
$GPGSV,2,1,05,01,26,055,13,03,53,065,25,06,37,265,22,14,52,197,37,6*69
$GPGSV,2,2,05,17,69,350,33,6*59
$GPGSV,1,1,03,04,10,115,,11,02,249,,21,05,067,,0*5C
$GLGSV,2,1,06,71,30,136,27,75,18,205,26,76,41,265,30,77,22,320,14,1*73
$GLGSV,2,2,06,85,39,048,19,87,10,282,17,1*7D
$GLGSV,1,1,04,75,18,205,30,76,41,265,20,77,22,320,10,85,39,048,14,3*78
$GLGSV,1,1,03,69,05,020,,70,39,073,,86,51,336,,0*47
$GAGSV,2,1,06,01,11,324,28,13,60,298,35,15,49,044,45,18,59,092,25,2*7D
$GAGSV,2,2,06,21,47,287,27,27,46,202,44,2*7F
$GAGSV,2,1,06,01,11,324,19,13,60,298,36,15,49,044,40,18,59,092,27,7*7E
$GAGSV,2,2,06,21,47,287,35,27,46,202,45,7*78
$GAGSV,2,1,05,03,20,087,,05,06,039,,26,13,261,,30,05,165,,0*72
$GAGSV,2,2,05,30,05,165,,0*45
$GNRMC,034313.00,A,3727.0821716,N,12639.1212885,E,0.007,,210622,,,F,V*17
$GNVTG,,T,,M,0.007,N,0.013,K,D*3D
$GNGNS,034313.00,3727.0821716,N,12639.1212885,E,FFFF,23,0.99,20.610,17.832,1.0,4095,V*08
$GNGGA,034313.00,3727.0821716,N,12639.1212885,E,5,12,0.99,20.610,M,17.832,M,1.0,4095*5E
$GNGSA,A,3,14,06,19,03,17,,,,,,,,1.93,0.99,1.66,1*05
$GNGSA,A,3,85,75,77,76,71,,,,,,,,1.93,0.99,1.66,2*00
$GNGSA,A,3,15,21,27,13,,,,,,,,,1.93,0.99,1.66,3*09
$GNGSA,A,3,03,08,27,37,07,02,10,28,13,33,,,1.93,0.99,1.66,4*08
$GPGSV,2,1,07,01,26,055,20,06,37,265,21,14,52,197,47,17,69,350,41,1*63
$GPGSV,2,2,07,19,48,316,22,28,,,48,50,47,179,31,1*6E
$GPGSV,2,1,05,01,26,055,14,03,53,065,25,06,37,265,22,14,52,197,37,6*6E
$GPGSV,2,2,05,17,69,350,33,6*59
$GPGSV,1,1,03,04,10,115,,11,02,249,,21,05,067,,0*5C
$GLGSV,2,1,06,71,30,136,28,75,18,205,26,76,41,265,31,77,22,320,15,1*7C
$GLGSV,2,2,06,85,39,048,20,87,10,282,17,1*77
$GLGSV,1,1,04,75,18,205,29,76,41,265,21,77,22,320,09,85,39,048,17,3*7A
$GLGSV,1,1,04,69,05,020,,70,39,073,,72,00,173,,86,51,336,,0*70
$GAGSV,2,1,06,01,11,324,28,13,60,298,34,15,49,044,45,18,59,092,24,2*7D
$GAGSV,2,2,06,21,47,287,27,27,46,202,44,2*7F
$GAGSV,2,1,06,01,11,324,20,13,60,298,36,15,49,044,41,18,59,092,27,7*75
$GAGSV,2,2,06,21,47,287,35,27,46,202,44,7*79
$GAGSV,2,1,05,03,20,087,,05,06,039,,26,13,261,,30,05,165,,0*72
$GAGSV,2,2,05,30,05,165,,0*45
$GBGSV,3,1,09,03,44,206,40,07,76,231,41,08,50,236,45,10,70,276,42,1*75
$GBGSV,3,2,09,13,40,235,30,27,37,298,27,28,67,022,45,33,46,103,34,1*75
$GBGSV,3,3,09,37,25,231,28,1*46
$GBGSV,2,1,06,02,27,236,28,03,44,206,39,07,76,231,42,08,50,236,46,3*7E
$GBGSV,2,2,06,10,70,276,43,13,40,235,32,3*73
$GNRMC,034314.00,A,3727.0821701,N,12639.1212859,E,0.012,,210622,,,F,V*13
$GNVTG,,T,,M,0.012,N,0.021,K,D*38
$GNGNS,034314.00,3727.0821701,N,12639.1212859,E,FFFF,23,0.88,20.580,17.832,2.0,4095,V*01
$GNGGA,034314.00,3727.0821701,N,12639.1212859,E,5,12,0.88,20.580,M,17.832,M,2.0,4095*57
$GNGSA,A,3,14,06,19,03,17,,,,,,,,1.86,0.88,1.64,1*03
$GNGSA,A,3,85,75,77,76,71,,,,,,,,1.86,0.88,1.64,2*06
$GNGSA,A,3,15,21,27,13,,,,,,,,,1.86,0.88,1.64,3*0F
$GNGSA,A,3,03,08,27,37,07,02,10,28,13,33,,,1.86,0.88,1.64,4*0E
$GPGSV,2,1,07,01,26,055,19,06,37,265,20,14,52,197,47,17,69,350,41,1*68
$GPGSV,2,2,07,19,48,316,24,28,,,48,50,47,179,31,1*68
$GPGSV,2,1,05,01,26,055,15,03,53,065,25,06,37,265,23,14,52,197,37,6*6E
$GPGSV,2,2,05,17,69,350,33,6*59
$GPGSV,1,1,03,04,10,115,,11,02,249,,21,05,067,,0*5C
$GLGSV,2,1,06,71,30,136,28,75,18,205,26,76,41,265,32,77,22,320,16,1*7C
$GLGSV,2,2,06,85,39,048,18,87,10,282,15,1*7E
$GLGSV,1,1,04,75,18,205,29,76,41,265,21,77,22,320,10,85,39,048,08,3*7C
$GLGSV,1,1,04,69,05,020,,70,39,073,,72,00,173,,86,51,336,,0*70
$GAGSV,2,1,06,01,11,324,28,13,60,298,35,15,49,044,45,18,59,092,25,2*7D
$GAGSV,2,2,06,21,47,287,27,27,46,202,44,2*7F
$GAGSV,2,1,06,01,11,324,19,13,60,298,36,15,49,044,41,18,59,092,27,7*7F
$GAGSV,2,2,06,21,47,287,35,27,46,202,44,7*79
$GAGSV,2,1,05,03,20,087,,05,06,039,,26,13,261,,30,05,165,,0*72
$GAGSV,2,2,05,30,05,165,,0*45
$GBGSV,3,1,09,03,44,206,40,07,76,231,42,08,50,236,45,10,70,276,42,1*76
$GBGSV,3,2,09,13,40,235,30,27,37,298,28,28,67,022,45,33,46,103,33,1*7D
$GBGSV,3,3,09,37,25,231,29,1*47
$GBGSV,2,1,06,02,27,236,28,03,44,206,39,07,76,231,42,08,50,236,46,3*7E
$GBGSV,2,2,06,10,70,276,43,13,40,235,32,3*73
$GNRMC,034315.00,A,3727.0821729,N,12639.1212819,E,0.012,,210622,,,F,V*1C
$GNVTG,,T,,M,0.012,N,0.022,K,D*3B
$GNGNS,034315.00,3727.0821729,N,12639.1212819,E,FFFF,24,0.88,20.570,17.832,2.0,4095,V*06
$GNGGA,034315.00,3727.0821729,N,12639.1212819,E,5,12,0.88,20.570,M,17.832,M,2.0,4095*57
$GNGSA,A,3,14,06,19,03,17,,,,,,,,1.86,0.88,1.64,1*03
$GNGSA,A,3,85,75,77,76,71,,,,,,,,1.86,0.88,1.64,2*06
$GNGSA,A,3,15,21,27,13,,,,,,,,,1.86,0.88,1.64,3*0F
$GNGSA,A,3,03,08,27,37,07,02,10,28,13,33,,,1.86,0.88,1.64,4*0E
$GPGSV,2,1,07,01,26,055,22,06,37,265,21,14,52,197,47,17,69,350,42,1*62
$GPGSV,2,2,07,19,48,316,24,28,,,48,50,47,179,31,1*68
$GPGSV,2,1,05,01,26,055,15,03,53,065,25,06,37,265,22,14,52,197,37,6*6F
$GPGSV,2,2,05,17,69,350,33,6*59
$GPGSV,1,1,03,04,10,115,,11,02,249,,21,05,067,,0*5C
$GLGSV,2,1,06,71,30,136,28,75,18,205,26,76,41,265,32,77,22,320,15,1*7F
$GLGSV,2,2,06,85,39,048,19,87,10,282,15,1*7F
$GLGSV,1,1,04,75,18,205,29,76,41,265,21,77,22,320,09,85,39,048,12,3*7F
$GLGSV,1,1,04,69,05,020,,70,39,073,,72,00,173,,86,51,336,,0*70
$GAGSV,2,1,06,01,11,324,28,13,60,298,34,15,49,044,45,18,59,092,25,2*7C
$GAGSV,2,2,06,21,47,287,27,27,46,202,44,2*7F
$GAGSV,2,1,06,01,11,324,19,13,60,298,36,15,49,044,40,18,59,092,28,7*71
$GAGSV,2,2,06,21,47,287,35,27,46,202,45,7*78
$GAGSV,2,1,05,03,20,087,,05,06,039,,26,13,261,,30,05,165,,0*72
$GAGSV,2,2,05,30,05,165,,0*45
$GBGSV,3,1,09,03,44,206,40,07,76,231,42,08,50,236,46,10,70,276,42,1*75
$GBGSV,3,2,09,13,40,235,31,27,37,298,26,28,67,022,45,33,46,103,33,1*72
$GBGSV,3,3,09,37,25,231,29,1*47
$GBGSV,2,1,06,02,27,236,28,03,44,206,40,07,76,231,42,08,50,236,46,3*70
$GBGSV,2,2,06,10,70,276,43,13,40,235,32,3*73
$GNRMC,034316.00,A,3727.0821683,N,12639.1212846,E,0.044,,210622,,,F,V*17
$GNVTG,,T,,M,0.044,N,0.082,K,D*32
$GNGNS,034316.00,3727.0821683,N,12639.1212846,E,FFFF,23,0.83,20.589,17.832,2.0,4095,V*04
$GNGGA,034316.00,3727.0821683,N,12639.1212846,E,5,12,0.83,20.589,M,17.832,M,2.0,4095*52
$GNGSA,A,3,14,06,19,03,17,,,,,,,,1.81,0.83,1.61,1*0A
$GNGSA,A,3,85,75,77,76,71,,,,,,,,1.81,0.83,1.61,2*0F
$GNGSA,A,3,15,21,27,13,,,,,,,,,1.81,0.83,1.61,3*06
$GNGSA,A,3,03,08,27,37,07,02,10,28,13,33,,,1.81,0.83,1.61,4*07
$GPGSV,2,1,07,01,26,055,22,06,37,265,23,14,52,197,47,17,69,350,41,1*63
$GPGSV,2,2,07,19,48,316,25,28,,,48,50,47,179,31,1*69
$GPGSV,2,1,05,01,26,055,16,03,53,065,25,06,37,265,22,14,52,197,37,6*6C
$GPGSV,2,2,05,17,69,350,33,6*59
$GPGSV,1,1,03,04,10,115,,11,02,249,,21,05,067,,0*5C
$GLGSV,2,1,06,71,30,136,29,75,17,204,26,76,41,265,32,77,22,320,18,1*7D
$GLGSV,2,2,06,85,39,048,24,87,10,282,16,1*72
$GLGSV,1,1,04,75,17,204,29,76,41,265,21,77,22,320,08,85,39,048,16,3*74
$GLGSV,1,1,04,69,05,020,,70,39,073,,72,00,173,,86,51,336,,0*70
$GAGSV,2,1,06,01,11,324,28,13,60,298,33,15,49,044,45,18,59,092,24,2*7A
$GAGSV,2,2,06,21,47,287,28,27,46,202,44,2*70
$GAGSV,2,1,06,01,11,324,17,13,60,298,36,15,49,044,41,18,59,092,29,7*7F
$GAGSV,2,2,06,21,47,287,35,27,46,202,45,7*78
$GAGSV,2,1,05,03,20,087,,05,06,039,,26,13,261,,30,05,165,,0*72
$GAGSV,2,2,05,30,05,165,,0*45
$GBGSV,3,1,09,03,44,206,41,07,76,231,41,08,50,236,46,10,70,276,40,1*75
$GBGSV,3,2,09,13,40,235,30,27,37,298,29,28,67,022,45,33,46,103,34,1*7B
$GBGSV,3,3,09,37,25,231,29,1*47
$GBGSV,2,1,06,02,27,236,27,03,44,206,40,07,76,231,42,08,50,236,46,3*7F
$GBGSV,2,2,06,10,70,276,43,13,40,235,32,3*73
$GNRMC,034317.00,A,3727.0821675,N,12639.1212861,E,0.034,,210622,,,F,V*1D
$GNVTG,,T,,M,0.034,N,0.063,K,D*3A
$GNGNS,034317.00,3727.0821675,N,12639.1212861,E,FFFF,23,0.77,20.616,17.832,2.0,4095,V*07
$GNGGA,034317.00,3727.0821675,N,12639.1212861,E,5,12,0.77,20.616,M,17.832,M,2.0,4095*51
$GNGSA,A,3,14,06,19,03,17,,,,,,,,1.72,0.77,1.54,1*0B
$GNGSA,A,3,85,75,77,76,71,,,,,,,,1.72,0.77,1.54,2*0E
$GNGSA,A,3,15,21,27,13,01,,,,,,,,1.72,0.77,1.54,3*06
$GNGSA,A,3,03,08,27,37,07,02,10,28,13,33,,,1.72,0.77,1.54,4*06
$GPGSV,2,1,07,01,26,055,23,06,37,265,24,14,52,197,47,17,69,350,42,1*66
$GPGSV,2,2,07,19,48,316,26,28,,,48,50,47,179,31,1*6A
$GPGSV,2,1,05,01,26,055,16,03,53,065,25,06,37,265,22,14,52,197,36,6*6D
$GPGSV,2,2,05,17,69,350,33,6*59
$GPGSV,1,1,03,04,10,115,,11,02,249,,21,05,067,,0*5C
$GLGSV,2,1,06,71,30,136,29,75,17,204,24,76,41,264,33,77,22,320,07,1*71
$GLGSV,2,2,06,85,39,048,27,87,10,282,16,1*71
$GLGSV,1,1,04,75,17,204,30,76,41,264,20,77,22,320,15,85,39,048,16,3*70
$GLGSV,1,1,04,69,05,020,,70,39,073,,72,00,173,,86,51,336,,0*70
$GAGSV,2,1,06,01,11,324,27,13,60,298,34,15,49,044,45,18,59,092,25,2*73
$GAGSV,2,2,06,21,47,287,28,27,46,202,44,2*70
$GAGSV,2,1,06,01,11,324,15,13,60,298,35,15,49,044,40,18,59,092,29,7*7F
$GAGSV,2,2,06,21,47,287,35,27,46,202,45,7*78
$GAGSV,2,1,05,03,20,087,,05,06,039,,26,13,261,,30,05,165,,0*72
$GAGSV,2,2,05,30,05,165,,0*45
$GBGSV,3,1,09,03,44,206,41,07,76,231,41,08,50,236,46,10,70,276,41,1*74
$GBGSV,3,2,09,13,40,235,31,27,37,298,28,28,67,022,44,33,46,103,33,1*7D
$GBGSV,3,3,09,37,25,231,29,1*47
$GBGSV,2,1,06,02,27,236,28,03,44,206,39,07,76,231,42,08,50,236,47,3*7F
$GBGSV,2,2,06,10,70,276,43,13,40,235,32,3*73
$GNRMC,034318.00,A,3727.0821662,N,12639.1212837,E,0.038,,210622,,,F,V*1B
$GNVTG,,T,,M,0.038,N,0.071,K,D*35
$GNGNS,034318.00,3727.0821662,N,12639.1212837,E,FFFF,24,0.83,20.613,17.832,2.0,4095,V*04
$GNGGA,034318.00,3727.0821662,N,12639.1212837,E,5,12,0.83,20.613,M,17.832,M,2.0,4095*55
$GNGSA,A,3,14,06,19,03,17,,,,,,,,1.81,0.83,1.61,1*0A
$GNGSA,A,3,85,75,77,76,71,,,,,,,,1.81,0.83,1.61,2*0F
$GNGSA,A,3,15,21,27,13,01,,,,,,,,1.81,0.83,1.61,3*07
$GNGSA,A,3,03,08,27,37,07,02,10,28,13,33,,,1.81,0.83,1.61,4*07
$GPGSV,2,1,07,01,26,055,25,06,37,265,25,14,52,197,46,17,69,350,42,1*60
$GPGSV,2,2,07,19,48,316,29,28,,,48,50,47,179,29,1*6C
$GPGSV,2,1,05,01,26,055,16,03,53,065,26,06,37,265,24,14,52,197,36,6*68
$GPGSV,2,2,05,17,69,350,33,6*59
$GPGSV,1,1,03,04,10,115,,11,02,249,,21,05,067,,0*5C
$GLGSV,2,1,06,71,30,136,29,75,17,204,23,76,41,264,33,77,23,320,08,1*78
$GLGSV,2,2,06,85,39,048,30,87,10,282,17,1*76
$GLGSV,1,1,04,75,17,204,31,76,41,264,20,77,23,320,10,85,39,048,15,3*76
$GLGSV,1,1,04,69,05,020,,70,39,073,,72,00,173,,86,51,336,,0*70
$GAGSV,2,1,06,01,11,323,27,13,60,298,34,15,49,044,46,18,59,092,26,2*74
$GAGSV,2,2,06,21,47,287,28,27,46,202,44,2*70
$GAGSV,2,1,06,01,11,323,15,13,60,298,34,15,49,044,41,18,59,092,29,7*78
$GAGSV,2,2,06,21,47,287,36,27,46,202,45,7*7B
$GAGSV,2,1,05,03,20,087,,05,06,039,,26,13,261,,30,05,165,,0*72
$GAGSV,2,2,05,30,05,165,,0*45
$GBGSV,3,1,09,03,44,206,40,07,76,231,41,08,50,236,46,10,70,276,41,1*75
$GBGSV,3,2,09,13,40,235,31,27,37,298,26,28,67,022,44,33,46,103,33,1*73
$GBGSV,3,3,09,37,25,231,22,1*4C
$GBGSV,2,1,06,02,27,236,29,03,44,206,39,07,76,231,42,08,50,236,47,3*7E
$GBGSV,2,2,06,10,70,276,43,13,40,235,33,3*72
$GNRMC,034319.00,A,3727.0821714,N,12639.1212830,E,0.008,,210622,,,F,V*1E
$GNVTG,,T,,M,0.008,N,0.015,K,D*34
$GNGNS,034319.00,3727.0821714,N,12639.1212830,E,FFFF,24,0.83,20.614,17.832,2.0,4095,V*05
$GNGGA,034319.00,3727.0821714,N,12639.1212830,E,5,12,0.83,20.614,M,17.832,M,2.0,4095*54
$GNGSA,A,3,14,06,19,03,17,,,,,,,,1.81,0.83,1.61,1*0A
$GNGSA,A,3,85,75,77,76,71,,,,,,,,1.81,0.83,1.61,2*0F
$GNGSA,A,3,15,21,27,13,01,,,,,,,,1.81,0.83,1.61,3*07
$GNGSA,A,3,03,08,27,37,07,02,10,28,13,33,,,1.81,0.83,1.61,4*07
$GPGSV,3,1,09,01,26,055,26,03,53,065,27,06,37,265,26,14,52,197,47,1*64
$GPGSV,3,2,09,17,69,350,40,19,48,316,29,28,,,48,41,27,238,36,1*56
$GPGSV,3,3,09,50,47,179,29,1*5F
$GPGSV,2,1,05,01,26,055,16,03,53,065,26,06,37,265,24,14,52,197,37,6*69
$GPGSV,2,2,05,17,69,350,33,6*59
$GPGSV,1,1,03,04,10,115,,11,02,249,,21,05,067,,0*5C
$GLGSV,2,1,07,70,39,073,13,71,30,136,28,75,17,204,23,76,41,264,33,1*7B
$GLGSV,2,2,07,77,23,320,10,85,39,048,28,87,10,282,17,1*4F
$GLGSV,1,1,04,75,17,204,30,76,41,264,21,77,23,320,12,85,39,048,16,3*77
$GLGSV,1,1,03,69,05,020,,72,00,173,,86,51,336,,0*4E
$GAGSV,2,1,06,01,11,323,27,13,60,298,34,15,49,044,44,18,59,092,25,2*75
$GAGSV,2,2,06,21,47,287,28,27,46,202,45,2*71
$GAGSV,2,1,06,01,11,323,15,13,60,298,35,15,49,044,40,18,59,092,29,7*78
$GAGSV,2,2,06,21,47,287,35,27,46,202,44,7*79
$GAGSV,2,1,05,03,20,087,,05,06,039,,26,13,261,,30,05,165,,0*72
$GAGSV,2,2,05,30,05,165,,0*45
$GBGSV,3,1,09,03,44,206,40,07,76,231,41,08,50,236,46,10,70,276,42,1*76
$GBGSV,3,2,09,13,40,235,31,27,37,298,35,28,67,022,45,33,46,103,34,1*77
$GBGSV,3,3,09,37,25,231,25,1*4B
$GBGSV,2,1,06,02,27,236,27,03,44,206,40,07,76,231,41,08,50,236,45,3*7F
$GBGSV,2,2,06,10,70,276,43,13,40,235,33,3*72
$GNRMC,034320.00,A,3727.0821752,N,12639.1212828,E,0.035,,210622,,,F,V*11
$GNVTG,,T,,M,0.035,N,0.065,K,D*3D
$GNGNS,034320.00,3727.0821752,N,12639.1212828,E,FFFF,23,0.78,20.590,17.832,2.0,4095,V*08
$GNGGA,034320.00,3727.0821752,N,12639.1212828,E,5,12,0.78,20.590,M,17.832,M,2.0,4095*5E
$GNGSA,A,3,14,06,19,03,17,,,,,,,,1.77,0.78,1.59,1*0C
$GNGSA,A,3,85,75,77,76,71,,,,,,,,1.77,0.78,1.59,2*09
$GNGSA,A,3,15,21,27,13,01,,,,,,,,1.77,0.78,1.59,3*01
$GNGSA,A,3,03,08,27,37,07,10,28,13,33,,,,1.77,0.78,1.59,4*03
$GPGSV,2,1,08,01,26,055,25,06,37,265,25,14,52,197,47,17,69,350,40,1*6C
$GPGSV,2,2,08,19,48,316,30,28,,,48,41,27,238,37,50,47,179,30,1*5E
$GPGSV,2,1,05,01,26,055,15,03,53,065,26,06,37,265,24,14,52,197,35,6*68
$GPGSV,2,2,05,17,69,350,34,6*5E
$GPGSV,1,1,03,04,10,115,,11,02,249,,21,05,067,,0*5C
$GLGSV,2,1,07,70,39,073,09,71,30,136,30,75,17,204,23,76,41,264,33,1*79
$GLGSV,2,2,07,77,23,320,13,85,39,048,28,87,10,282,14,1*4F
$GLGSV,1,1,04,75,17,204,29,76,41,264,20,77,23,320,11,85,39,048,17,3*7C
$GLGSV,1,1,03,69,05,020,,72,00,173,,86,51,336,,0*4E
$GAGSV,2,1,06,01,11,323,28,13,60,298,34,15,49,044,43,18,59,092,27,2*7F
$GAGSV,2,2,06,21,47,287,28,27,46,202,44,2*70
$GAGSV,2,1,06,01,11,323,14,13,60,298,36,15,49,044,42,18,59,092,29,7*78
$GAGSV,2,2,06,21,47,287,34,27,46,202,45,7*79
$GAGSV,2,1,05,03,20,087,,05,06,039,,26,13,261,,30,05,165,,0*72
$GAGSV,2,2,05,30,05,165,,0*45
$GBGSV,3,1,09,03,44,206,40,07,76,231,41,08,50,236,45,10,70,276,42,1*75
$GBGSV,3,2,09,13,40,235,32,27,37,298,35,28,67,022,45,33,46,103,34,1*74
$GBGSV,3,3,09,37,25,231,30,1*4F
$GBGSV,2,1,05,03,44,206,38,07,76,231,39,08,50,236,43,10,70,276,41,3*7F
$GBGSV,2,2,05,13,40,235,31,3*41
$GBGSV,1,1,01,02,27,236,,0*46
$GNRMC,034321.00,A,3727.0821813,N,12639.1212753,E,0.030,,210622,,,F,V*1C
$GNVTG,,T,,M,0.030,N,0.055,K,D*3B
$GNGNS,034321.00,3727.0821813,N,12639.1212753,E,FFFF,23,0.78,20.561,17.832,2.0,4095,V*0E
$GNGGA,034321.00,3727.0821813,N,12639.1212753,E,5,12,0.78,20.561,M,17.832,M,2.0,4095*58
$GNGSA,A,3,14,06,19,03,17,,,,,,,,1.77,0.78,1.59,1*0C
$GNGSA,A,3,85,75,77,76,71,,,,,,,,1.77,0.78,1.59,2*09
$GNGSA,A,3,15,21,27,13,01,,,,,,,,1.77,0.78,1.59,3*01
$GNGSA,A,3,03,08,27,37,07,10,28,13,33,,,,1.77,0.78,1.59,4*03
$GPGSV,2,1,08,01,26,055,24,06,37,265,25,14,52,197,47,17,69,350,40,1*6D
$GPGSV,2,2,08,19,48,316,29,28,,,49,41,27,238,37,50,47,179,30,1*57
$GPGSV,2,1,05,01,26,055,17,03,53,065,26,06,37,265,23,14,52,197,38,6*60
$GPGSV,2,2,05,17,69,350,34,6*5E
$GPGSV,1,1,03,04,10,115,,11,02,249,,21,05,067,,0*5C
$GLGSV,2,1,07,70,39,073,08,71,30,136,30,75,17,204,24,76,41,264,34,1*78
$GLGSV,2,2,07,77,23,320,14,85,39,048,27,87,10,282,12,1*41
$GLGSV,1,1,04,75,17,204,28,76,41,264,21,77,23,320,08,85,39,048,15,3*76
