$GNRMC,033934.00,A,3727.0817315,N,12639.1222593,E,0.034,,210622,,,F,V*14
$GNVTG,,T,,M,0.034,N,0.062,K,D*3B
$GNGGA,033934.00,3727.0817315,N,12639.1222593,E,5,12,0.86,18.225,M,17.832,M,2.0,4095*59
$GNGSA,A,3,14,06,19,03,17,,,,,,,,1.83,0.86,1.61,1*0D
$GNGSA,A,3,85,75,71,77,76,,,,,,,,1.83,0.86,1.61,2*08
$GNGSA,A,3,15,21,27,13,,,,,,,,,1.83,0.86,1.61,3*01
$GNGSA,A,3,03,37,07,10,27,28,02,13,33,,,,1.83,0.86,1.61,4*08
$GPGSV,2,1,05,14,54,198,45,17,68,347,46,19,47,315,23,28,,,46,1*58
$GPGSV,2,2,05,41,27,238,32,1*59
$GPGSV,1,1,04,03,54,067,30,06,36,263,28,14,54,198,39,17,68,347,42,6*69
$GPGSV,1,1,03,11,01,248,,21,06,066,,50,47,179,,0*55
$GLGSV,2,1,07,69,06,021,24,71,28,138,23,75,19,205,32,76,42,267,24,1*79
$GLGSV,2,2,07,77,21,322,19,85,40,046,32,87,09,281,23,1*41
$GLGSV,2,1,05,71,28,138,25,75,19,205,35,76,42,267,25,77,21,322,23,3*74
$GLGSV,2,2,05,85,40,046,25,3*43
$GLGSV,1,1,02,70,39,076,,86,50,334,,0*78
$GAGSV,1,1,04,13,59,295,38,15,50,043,47,18,62,089,31,27,48,203,44,2*7A
$GAGSV,2,1,06,13,59,295,35,15,50,043,43,18,62,08$GAGSV,2,2,06,26,12,260,25,27,48,203,45,7*78
$GAGSV,2,1,05,01,10,324,,03,20,088,,05,06,040,,30,06,165,,0*76
$GAGSV,2,2,05,30,06,165,,0*46
$GBGSV,3,1,09,03,44,206,44,07,77,233,41,08,,,45,10,70,278,42,1*4E
$GBGSV,3,2,09,13,39,233,35,27,36,296,33,28,67,018,48,33,46,105,29,1*7C
$GBGSV,3,3,09,37,26,233,31,1*4F
$GBGSV,2,1,05,02,27,236,30,03,44,206,40,07,77,233,36,10,70,278,39,3*73
$GBGSV,2,2,05,13,39,233,31,3*49
$GNRMC,033935.00,A,3727.0817338,N,12639.1222591,E,0.028,,210622,,,F,V*15
$GNVTG,,T,,M,0.028,N,0.052,K,D*35
$GNGNS,033935.00,3727.0817338,N,12639.1222591,E,FFFF,21,0.86,18.361,17.832,2.0,4095,V*00
$GNGGA,033935.00,3727.0817338,N,12639.1222591,E,5,12,0.86,18.361,M,17.832,M,2.0,4095*54
$GNGSA,A,3,14,06,19,03,17,,,,,,,,1.83,0.86,1.61,1*0D
$GNGSA,A,3,85,75,71,77,76,,,,,,,,1.83,0.86,1.61,2*08
$GNGSA,A,3,15,21,27,13,,,,,,,,,1.83,0.86,1.61,3*01
$GNGSA,A,3,03,37,07,10,27,28,02,13,33,,,,1.83,0.86,1.61,4*08
$GPGSV,2,1,05,14,54,198,46,17,68,347,46,19,47,315,21,28,,,46,1*59
$GPGSV,2,2,05,41,27,238,31,1*5A
$GPGSV,1,1,04,03,54,067,29,06,36,263,28,14,54,198,39,17,68,347,42,6*61
$GPGSV,1,1,03,11,01,248,,21,06,066,,50,47,179,,0*55
$GLGSV,2,1,07,69,06,021,23,71,28,138,24,75,19,205,31,76,42,267,25,1*7B
$GLGSV,2,2,07,77,21,322,19,85,40,046,32,87,09,281,22,1*40
$GLGSV,2,1,05,71,28,138,25,75,19,205,35,76,42,267,25,77,21,322,23,3*74
$GLGSV,2,2,05,85,40,046,24,3*42
$GLGSV,1,1,02,70,39,076,,86,50,334,,0*78
$GAGSV,1,1,04,13,59,295,38,15,50,043,47,18,61,090,30,27,48,203,44,2*70
$GAGSV,2,1,06,13,59,295,36,15,50,043,44,18,61,090,37,21,47,290,33,7*7D
$GAGSV,2,2,06,26,12,260,25,27,48,203,45,7*78
$GAGSV,2,1,05,01,10,324,,03,20,088,,05,06,040,,30,06,165,,0*76
$GAGSV,2,2,05,30,06,165,,0*46
$GBGSV,3,1,09,03,44,206,44,07,77,233,42,08,,,45,10,70,278,41,1*4E
$GBGSV,3,2,09,13,39,233,35,27,36,296,33,28,67,018,48,33,46,105,29,1*7C
$GBGSV,3,3,09,37,26,233,30,1*4E
$GBGSV,2,1,05,02,27,236,31,03,44,206,40,07,77,233,35,10,70,278,39,3*71
$GBGSV,2,2,05,13,39,233,32,3*4A
$GNRMC,033936.00,A,3727.0817407,N,12639.1222396,E,0.073,,210622,,,F,V*12
$GNVTG,,T,,M,0.073,N,0.134,K,D*3A
$GNGNS,033936.00,3727.0817407,N,12639.1222396,E,FFFF,21,0.86,18.504,17.832,2.0,4095,V*0C
$GNGGA,033936.00,3727.0817407,N,12639.1222396,E,5,12,0.86,18.504,M,17.832,M,2.0,4095*58
$GNGSA,A,3,14,06,19,03,17,,,,,,,,1.83,0.86,1.61,1*0D
$GNGSA,A,3,85,75,71,77,76,,,,,,,,1.83,0.86,1.61,2*08
$GNGSA,A,3,15,21,27,13,,,,,,,,,1.83,0.86,1.61,3*01
$GNGSA,A,3,03,37,07,10,27,28,02,13,33,,,,1.83,0.86,1.61,4*08
$GPGSV,2,1,05,14,54,198,46,17,68,347,46,19,47,315,19,28,,,46,1*52
$GPGSV,2,2,05,41,27,238,29,1*53
$GPGSV,1,1,04,03,54,067,29,06,36,263,27,14,54,198,39,17,68,347,42,6*6E
$GPGSV,1,1,03,11,01,248,,21,06,066,,50,47,179,,0*55
$GLGSV,2,1,07,69,06,021,23,71,28,138,25,75,19,205,31,76,42,267,24,1*7B
$GLGSV,2,2,07,77,21,322,20,85,40,046,31,87,09,281,21,1*4A
$GLGSV,2,1,05,71,28,138,26,75,19,205,35,76,42,267,24,77,21,322,23,3*76
$GLGSV,2,2,05,85,40,046,24,3*42
$GLGSV,1,1,02,70,39,076,,86,50,334,,0*78
$GAGSV,1,1,04,13,59,295,38,15,50,043,47,18,61,090,31,27,48,203,44,2*71
$GAGSV,2,1,06,13,59,295,36,15,50,043,43,18,61,090,37,21,47,290,33,7*7A
$GAGSV,2,2,06,26,12,260,26,27,48,203,45,7*7B
$GAGSV,2,1,05,01,10,324,,03,20,088,,05,06,040,,30,06,165,,0*76
$GAGSV,2,2,05,30,06,165,,0*46
$GBGSV,3,1,09,03,44,206,44,07,77,233,42,08,,,45,10,70,278,42,1*4D
$GBGSV,3,2,09,13,39,233,34,27,36,296,32,28,67,018,48,33,46,105,29,1*7C
$GBGSV,3,3,09,37,26,233,29,1*46
$GBGSV,2,1,05,02,27,236,31,03,44,206,40,07,77,233,35,10,70,278,40,3*7F
$GBGSV,2,2,05,13,39,233,32,3*4A
$GNRMC,033937.00,A,3727.0817363,N,12639.1222520,E,0.026,,210622,,,F,V*1D
$GNVTG,,T,,M,0.026,N,0.049,K,D*31
$GNGNS,033937.00,3727.0817363,N,12639.1222520,E,FFFF,22,0.86,18.610,17.832,2.0,4095,V*06
$GNGGA,033937.00,3727.0817363,N,12639.1222520,E,5,12,0.86,18.610,M,17.832,M,2.0,4095*51
$GNGSA,A,3,14,06,19,03,17,,,,,,,,1.83,0.86,1.61,1*0D
$GNGSA,A,3,85,75,71,77,76,,,,,,,,1.83,0.86,1.61,2*08
$GNGSA,A,3,15,21,27,13,,,,,,,,,1.83,0.86,1.61,3*01
$GNGSA,A,3,03,37,07,10,27,28,02,13,33,,,,1.83,0.86,1.61,4*08
$GPGSV,2,1,05,14,54,198,46,17,68,347,46,19,47,315,19,28,,,46,1*52
$GPGSV,2,2,05,41,27,238,28,1*52
$GPGSV,1,1,04,03,54,067,29,06,36,263,27,14,54,198,39,17,68,347,41,6*6D
$GPGSV,1,1,03,11,01,248,,21,06,066,,50,47,179,,0*55
$GLGSV,2,1,07,69,06,021,23,71,28,138,26,75,19,205,31,76,42,267,24,1*78
$GLGSV,2,2,07,77,21,322,21,85,40,046,32,87,09,281,21,1*48
$GLGSV,2,1,05,71,28,138,26,75,19,205,35,76,42,267,24,77,21,322,23,3*76
$GLGSV,2,2,05,85,40,046,23,3*45
$GLGSV,1,1,02,70,39,076,,86,50,334,,0*78
$GAGSV,1,1,04,13,59,295,39,15,50,043,47,18,61,090,30,27,48,203,44,2*71
$GAGSV,2,1,06,13,59,295,36,15,50,043,43,18,61,090,37,21,47,289,33,7*72
$GAGSV,2,2,06,26,12,260,26,27,48,203,45,7*7B
$GAGSV,2,1,05,01,10,324,,03,20,088,,05,06,040,,30,06,165,,0*76
$GAGSV,2,2,05,30,06,165,,0*46
$GBGSV,3,1,09,03,44,206,44,07,77,233,42,08,,,46,10,70,278,42,1*4E
$GBGSV,3,2,09,13,39,233,34,27,36,296,32,28,67,018,48,33,46,105,29,1*7C
$GBGSV,3,3,09,37,26,233,31,1*4F
$GBGSV,2,1,05,02,27,236,31,03,44,206,40,07,77,233,36,10,70,278,39,3*72
$GBGSV,2,2,05,13,39,233,32,3*4A
$GNRMC,033938.00,A,3727.0817391,N,12639.1222392,E,0.036,,210622,,,F,V*11
$GNVTG,,T,,M,0.036,N,0.067,K,D*3C
$GNGNS,033938.00,3727.0817391,N,12639.1222392,E,FFFF,21,0.92,18.696,17.832,2.0,4095,V*03
$GNGGA,033938.00,3727.0817391,N,12639.1222392,E,5,12,0.92,18.696,M,17.832,M,2.0,4095*57
$GNGSA,A,3,14,06,19,03,17,,,,,,,,1.91,0.92,1.67,1*0D
$GNGSA,A,3,85,75,71,77,76,,,,,,,,1.91,0.92,1.67,2*08
$GNGSA,A,3,15,21,27,13,,,,,,,,,1.91,0.92,1.67,3*01
$GNGSA,A,3,03,37,07,10,27,28,02,13,33,,,,1.91,0.92,1.67,4*08
$GPGSV,2,1,05,14,54,198,46,17,68,347,46,19,47,315,18,28,,,47,1*52
$GPGSV,2,2,05,41,27,238,27,1*5D
$GPGSV,1,1,04,03,54,067,29,06,36,263,27,14,54,198,39,17,68,347,42,6*6E
$GPGSV,1,1,03,11,01,248,,21,06,066,,50,47,179,,0*55
$GLGSV,2,1,07,69,06,021,24,71,28,138,26,75,19,205,30,76,42,267,23,1*79
$GLGSV,2,2,07,77,21,322,21,85,40,046,32,87,09,281,20,1*49
$GLGSV,2,1,05,71,28,138,26,75,19,205,35,76,42,267,23,77,21,322,22,3*70
$GLGSV,2,2,05,85,40,046,23,3*45
$GLGSV,1,1,02,70,39,076,,86,50,334,,0*78
$GAGSV,1,1,04,13,59,295,39,15,50,043,47,18,61,090,29,27,48,203,45,2*78
$GAGSV,2,1,06,13,59,295,36,15,50,043,44,18,61,090,37,21,47,289,32,7*74
$GAGSV,2,2,06,26,12,260,25,27,48,203,45,7*78
$GAGSV,2,1,05,01,10,324,,03,20,088,,05,06,040,,30,06,165,,0*76
$GAGSV,2,2,05,30,06,165,,0*46
$GBGSV,3,1,09,03,44,206,44,07,77,233,42,08,,,46,10,70,278,42,1*4E
$GBGSV,3,2,09,13,39,233,34,27,36,296,32,28,67,018,48,33,46,105,29,1*7C
$GBGSV,3,3,09,37,26,233,30,1*4E
$GBGSV,2,1,05,02,27,236,31,03,44,206,40,07,77,233,36,10,70,278,40,3*7C
$GBGSV,2,2,05,13,39,233,33,3*4B
$GNRMC,033939.00,A,3727.0817432,N,12639.1222239,E,0.023,,210622,,,F,V*1A
$GNVTG,,T,,M,0.023,N,0.043,K,D*3E
$GNGNS,033939.00,3727.0817432,N,12639.1222239,E,FFFF,21,0.86,18.774,17.832,2.0,4095,V*04
$GNGGA,033939.00,3727.0817432,N,12639.1222239,E,5,12,0.86,18.774,M,17.832,M,2.0,4095*50
$GNGSA,A,3,14,06,19,03,17,,,,,,,,1.83,0.86,1.61,1*0D
$GNGSA,A,3,85,75,71,77,76,,,,,,,,1.83,0.86,1.61,2*08
$GNGSA,A,3,15,21,27,13,,,,,,,,,1.83,0.86,1.61,3*01
$GNGSA,A,3,03,37,07,10,27,28,02,13,33,,,,1.83,0.86,1.61,4*08
$GPGSV,2,2,06,28,,,46,41,27,238,27,1*56
$GPGSV,1,1,04,03,54,067,29,06,36,263,26,14,54,198,39,17,68,347,42,6*6F
$GPGSV,1,1,03,11,01,248,,21,06,066,,50,47,179,,0*55
$GLGSV,2,1,07,69,06,021,23,71,28,138,26,75,19,205,30,76,42,267,22,1*7F
$GLGSV,2,2,07,77,21,322,21,85,40,046,32,87,09,281,19,1*43
$GLGSV,2,1,05,71,28,138,26,75,19,205,35,76,42,267,24,77,21,322,22,3*77
$GLGSV,2,2,05,85,40,046,22,3*44
$GLGSV,1,1,02,70,39,076,,86,50,334,,0*78
$GAGSV,1,1,04,13,59,295,38,15,50,043,47,18,61,090,29,27,48,203,44,2*78
$GAGSV,2,1,06,13,59,295,36,15,50,043,44,18,61,090,37,21,47,289,32,7*74
$GAGSV,2,2,06,26,12,260,26,27,48,203,45,7*7B
$GAGSV,2,1,05,01,10,324,,03,20,088,,05,06,040,,30,06,165,,0*76
$GAGSV,2,2,05,30,06,165,,0*46
$GBGSV,3,1,09,03,44,206,44,07,77,233,42,08,,,46,10,70,278,41,1*4D
$GBGSV,3,2,09,13,39,233,34,27,36,296,31,28,67,018,48,33,46,105,29,1*7F
$GBGSV,3,3,09,37,26,233,30,1*4E
$GBGSV,2,1,05,02,27,236,32,03,44,206,40,07,77,233,3$GBGSV,2,2,05,13,39,233,32,3*4A
$GNRMC,033940.00,A,3727.0817457,N,12639.1222144,E,0.031,,210622,,,F,V*1D
$GNVTG,,T,,M,0.031,N,0.057,K,D*38
$GNGNS,033940.00,3727.0817457,N,12639.1222144,E,FFFF,23,0.86,18.823,17.832,2.0,4095,V*0F
$GNGGA,033940.00,3727.0817457,N,12639.1222144,E,5,12,0.86,18.823,M,17.832,M,2.0,4095*59
$GNGSA,A,3,14,06,19,03,17,,,,,,,,1.83,0.86,1.61,1*0D
$GNGSA,A,3,85,75,71,77,76,,,,,,,,1.83,0.86,1.61,2*08
$GNGSA,A,3,15,21,27,13,,,,,,,,,1.83,0.86,1.61,3*01
$GNGSA,A,3,03,37,07,10,27,28,02,13,33,,,,1.83,0.86,1.61,4*08
$GPGSV,1,1,04,14,54,198,46,17,68,347,46,19,47,315,18,28,,,47,1*50
$GPGSV,1,1,04,03,54,067,29,06,36,263,27,14,54,198,39,17,68,347,41,6*6D
$GPGSV,1,1,03,11,01,248,,21,06,066,,50,47,179,,0*55
$GLGSV,2,1,07,69,06,021,23,71,28,138,26,75,19,205,29,76,42,267,21,1*74
$GLGSV,2,2,07,77,21,322,22,85,40,046,32,87,09,281,19,1*40
$GLGSV,2,1,05,71,28,138,25,75,19,205,35,76,42,267,24,77,21,322,22,3*74
$GLGSV,2,2,05,85,40,046,21,3*47
$GLGSV,1,1,02,70,39,076,,86,50,334,,0*78
$GAGSV,2,1,05,13,59,295,38,15,50,043,47,18,61,090,29,21,47,289,24,2*77
$GAGSV,2,2,05,27,47,203,44,2*44
$GAGSV,2,1,06,13,59,295,36,15,50,043,44,18,61,090,37,21,47,289,32,7*74
$GAGSV,2,2,06,26,12,260,25,27,47,203,45,7*77
$GAGSV,2,1,05,01,10,324,,03,20,088,,05,06,040,,30,06,165,,0*76
$GAGSV,2,2,05,30,06,165,,0*46
$GBGSV,3,1,09,03,44,206,44,07,77,233,42,08,,,45,10,70,278,41,1*4E
$GBGSV,3,2,09,13,39,233,34,27,36,296,31,28,67,018,47,33,46,105,29,1*70
$GBGSV,3,3,09,37,26,233,29,1*46
$GBGSV,2,1,05,02,27,236,31,03,44,206,40,07,77,233,36,10,70,278,40,3*7C
$GBGSV,2,2,05,13,39,233,32,3*4A
$GNRMC,033941.00,A,3727.0817620,N,12639.1221917,E,0.048,,210622,,,F,V*1D
$GNVTG,,T,,M,0.048,N,0.090,K,D*3D
$GNGNS,033941.00,3727.0817620,N,12639.1221917,E,FFFF,21,0.77,18.811,17.832,2.0,4095,V*0C
$GNGGA,033941.00,3727.0817620,N,12639.1221917,E,5,12,0.77,18.811,M,17.832,M,2.0,4095*58
$GNGSA,A,3,14,06,19,03,17,,,,,,,,1.72,0.77,1.54,1*0B
$GNGSA,A,3,85,75,71,77,76,,,,,,,,1.72,0.77,1.54,2*0E
$GNGSA,A,3,15,21,27,13,,,,,,,,,1.72,0.77,1.54,3*07
$GNGSA,A,3,03,37,07,10,27,28,02,13,33,,,,1.72,0.77,1.54,4*0E
$GPGSV,1,1,04,14,54,198,46,17,68,347,46,19,47,315,18,28,,,47,1*50
$GPGSV,1,1,04,03,54,067,28,06,36,263,26,14,54,198,39,17,68,347,41,6*6D
$GPGSV,1,1,03,11,01,248,,21,06,066,,50,47,179,,0*55
$GLGSV,2,1,07,69,06,021,23,71,28,138,27,75,19,205,30,76,42,267,21,1*7D
$GLGSV,2,2,07,77,21,322,22,85,40,046,32,87,09,281,19,1*40
$GLGSV,2,1,05,71,28,138,25,75,19,205,35,76,42,267,23,77,21,322,22,3*73
$GLGSV,2,2,05,85,40,046,21,3*47
$GLGSV,1,1,02,70,39,076,,86,50,334,,0*78
$GAGSV,2,1,05,13,59,295,38,15,50,043,47,18,61,090,29,21,47,289,23,2*70
$GAGSV,2,2,05,27,47,203,45,2*45
$GAGSV,2,1,06,13,59,295,35,15,50,043,44,18,61,090,37,21,47,289,31,7*74
$GAGSV,2,2,06,26,12,260,25,27,47,203,45,7*77
$GAGSV,2,1,05,01,10,324,,03,20,088,,05,06,040,,30,06,165,,0*76
$GAGSV,2,2,05,30,06,165,,0*46
$GBGSV,3,1,09,03,44,206,44,07,77,233,42,08,,,45,10,70,278,41,1*4E
$GBGSV,3,2,09,13,39,233,34,27,36,296,30,28,67,018,48,33,46,105,30,1*76
$GBGSV,3,3,09,37,26,233,29,1*46
$GBGSV,2,1,05,02,27,236,31,03,44,206,40,07,77,233,36,10,70,278,40,3*7C
$GBGSV,2,2,05,13,39,233,33,3*4B
$GNRMC,033942.00,A,3727.0817720,N,12639.1221798,E,0.020,,210622,,,F,V*18
$GNVTG,,T,,M,0.020,N,0.037,K,D*3E
$GNGNS,033942.00,3727.0817720,N,12639.1221798,E,FFFF,21,0.79,18.822,17.832,2.0,4095,V*09
$GNGGA,033942.00,3727.0817720,N,12639.1221798,E,5,12,0.79,18.822,M,17.832,M,2.0,4095*5D
$GNGSA,A,3,14,06,19,03,17,,,,,,,,1.75,0.79,1.56,1*00
$GNGSA,A,3,85,75,71,77,76,,,,,,,,1.75,0.79,1.56,2*05
$GNGSA,A,3,15,21,27,13,,,,,,,,,1.75,0.79,1.56,3*0C
$GNGSA,A,3,03,37,07,10,27,28,02,13,33,,,,1.75,0.79,1.56,4*05
$GPGSV,1,1,04,14,54,198,46,17,68,347,46,19,47,315,18,28,,,47,1*50
$GPGSV,1,1,04,03,54,067,28,06,36,263,26,14,54,198,39,17,68,347,41,6*6D
$GPGSV,1,1,03,11,01,248,,21,06,066,,50,47,179,,0*55
$GLGSV,2,1,07,69,06,021,23,71,28,138,26,75,19,205,30,76,42,267,22,1*7F
$GLGSV,2,2,07,77,21,322,22,85,40,046,31,87,09,281,20,1*49
$GLGSV,2,1,05,71,28,138,25,75,19,205,35,76,42,267,23,77,21,322,22,3*73
$GLGSV,2,2,05,85,40,046,20,3*46
$GLGSV,1,1,02,70,39,076,,86,50,334,,0*78
$GAGSV,2,1,05,13,59,295,38,15,50,043,47,18,61,090,29,21,47,289,23,2*70
$GAGSV,2,2,05,27,47,203,45,2*45
$GAGSV,2,1,06,13,59,295,35,15,50,043,44,18,61,090,37,21,47,289,32,7*77
$GAGSV,2,2,06,26,12,260,25,27,47,203,45,7*77
$GAGSV,2,1,05,01,10,324,,03,20,088,,05,06,040,,30,06,165,,0*76
$GAGSV,2,2,05,30,06,165,,0*46
$GBGSV,3,1,09,03,44,206,44,07,77,233,42,08,,,45,10,70,278,41,1*4E
$GBGSV,3,2,09,13,39,233,34,27,36,296,30,28,67,018,48,33,46,105,29,1*7E
$GBGSV,3,3,09,37,26,233,29,1*46
$GNRMC,033943.00,A,3727.0817855,N,12639.1221693,E,0.071,,210622,,,F,V*1A
$GNVTG,,T,,M,0.071,N,0.131,K,D*3D
$GNGNS,033943.00,3727.0817855,N,12639.1221693,E,FFFF,23,0.79,18.825,17.832,1.0,4095,V*09
$GNGGA,033943.00,3727.0817855,N,12639.1221693,E,5,12,0.79,18.825,M,17.832,M,1.0,4095*5F
$GNGSA,A,3,14,06,19,03,17,,,,,,,,1.75,0.79,1.56,1*00
$GNGSA,A,3,85,75,71,77,76,,,,,,,,1.75,0.79,1.56,2*05
$GNGSA,A,3,15,21,27,13,,,,,,,,,1.75,0.79,1.56,3*0C
$GNGSA,A,3,03,37,07,10,27,28,02,13,33,,,,1.75,0.79,1.56,4*05
$GPGSV,1,1,04,14,54,198,46,17,68,347,46,19,47,315,17,28,,,47,1*5F
$GPGSV,1,1,04,03,54,067,28,06,36,263,26,14,54,198,39,17,68,347,41,6*6D
$GPGSV,1,1,03,11,01,248,,21,06,066,,50,47,179,,0*55
$GLGSV,2,1,07,69,06,021,23,71,28,138,26,75,19,205,31,76,42,267,23,1*7F
$GLGSV,2,2,07,77,21,322,22,85,40,046,32,87,09,281,21,1*4B
$GLGSV,2,1,05,71,28,138,24,75,19,205,35,76,42,267,24,77,21,322,22,3*75
$GLGSV,2,2,05,85,40,046,18,3*4D
$GLGSV,1,1,02,70,39,076,,86,50,334,,0*78
$GAGSV,2,1,05,13,59,295,38,15,50,043,47,18,61,090,29,21,47,289,23,2*70
$GAGSV,2,2,05,27,47,203,45,2*45
$GAGSV,2,1,06,13,59,295,35,15,50,043,44,18,61,090,37,21,47,289,32,7*77
$GAGSV,2,2,06,26,12,260,25,27,47,203,45,7*77
$GAGSV,2,1,05,01,10,324,,03,20,088,,05,06,040,,30,06,165,,0*76
$GAGSV,2,2,05,30,06,165,,0*46
$GBGSV,3,1,09,03,44,206,44,07,77,233,42,08,,,45,10,70,278,41,1*4E
$GBGSV,3,2,09,13,39,233,34,27,36,296,30,28,67,018,48,33,46,105,28,1*7F
$GBGSV,3,3,09,37,26,233,29,1*46
$GNRMC,033944.00,A,3727.0817875,N,12639.1221766,E,0.044,,210622,,,F,V*12
$GNVTG,,T,,M,0.044,N,0.081,K,D*31
$GNGNS,033944.00,3727.0817875,N,12639.1221766,E,FFFF,22,0.85,18.851,17.832,2.0,4095,V*05
$GNGGA,033944.00,3727.0817875,N,12639.1221766,E,5,12,0.85,18.851,M,17.832,M,2.0,4095*52
$GNGSA,A,3,14,06,19,03,17,,,,,,,,1.87,0.85,1.66,1*0D
$GNGSA,A,3,85,75,71,77,76,,,,,,,,1.87,0.85,1.66,2*08
$GNGSA,A,3,15,21,27,13,,,,,,,,,1.87,0.85,1.66,3*01
$GNGSA,A,3,03,37,07,10,27,28,02,13,33,,,,1.87,0.85,1.66,4*08
$GPGSV,2,1,06,03,54,067,26,06,36,263,29,14,54,198,46,17,68,347,46,1*65
$GPGSV,2,2,06,19,47,315,18,28,,,47,1*5E
$GPGSV,1,1,04,03,54,067,27,06,36,263,25,14,54,198,39,17,68,347,41,6*61
$GPGSV,1,1,03,11,01,248,,21,06,066,,50,47,179,,0*55
$GLGSV,2,1,07,69,06,021,23,71,28,138,27,75,19,205,31,76,42,267,25,1*78
$GLGSV,2,2,07,77,21,322,22,85,40,046,32,87,09,281,22,1*48
$GLGSV,2,1,05,71,28,138,24,75,19,205,35,76,42,267,25,77,21,322,21,3*77
$GLGSV,2,2,05,85,40,046,17,3*42
$GLGSV,1,1,02,70,39,076,,86,50,334,,0*78
$GAGSV,2,1,05,13,59,295,38,15,50,043,47,18,61,090,29,21,47,289,23,2*70
$GAGSV,2,2,05,27,47,203,45,2*45
$GAGSV,2,1,06,13,59,295,36,15,50,043,44,18,61,090,37,21,47,289,32,7*74
$GAGSV,2,2,06,26,12,260,25,27,47,203,45,7*77
$GAGSV,2,1,05,01,10,324,,03,20,088,,05,06,040,,30,06,165,,0*76
$GAGSV,2,2,05,30,06,165,,0*46
$GBGSV,3,1,09,03,44,206,44,07,77,233,42,08,,,45,10,70,278,41,1*4E
$GBGSV,3,2,09,13,39,233,34,27,36,296,31,28,67,018,48,33,46,105,28,1*7E
$GBGSV,3,3,09,37,26,233,28,1*47
$GBGSV,2,1,05,02,27,236,31,03,44,206,41,07,77,233,36,10,70,278,40,3*7D
$GBGSV,2,2,05,13,39,233,32,3*4A
$GNRMC,033945.00,A,3727.0817889,N,12639.1221706,E,0.009,,210622,,,F,V*1F
$GNVTG,,T,,M,0.009,N,0.016,K,D*36
$GNGNS,033945.00,3727.0817889,N,12639.1221706,E,FFFF,24,0.79,18.860,17.832,2.0,4095,V*06
$GNGGA,033945.00,3727.0817889,N,12639.1221706,E,5,12,0.79,18.860,M,17.832,M,2.0,4095*57
$GNGSA,A,3,14,06,19,03,17,,,,,,,,1.75,0.79,1.56,1*00
$GNGSA,A,3,85,75,71,77,76,,,,,,,,1.75,0.79,1.56,2*05
$GNGSA,A,3,15,21,27,13,,,,,,,,,1.75,0.79,1.56,3*0C
$GNGSA,A,3,03,08,37,07,10,27,28,02,13,33,,,1.75,0.79,1.56,4*0D
$GPGSV,2,1,06,03,54,067,26,06,36,263,30,14,54,198,46,17,68,347,46,1*6D
$GPGSV,2,2,06,19,47,315,19,28,,,47,1*5F
$GPGSV,1,1,04,03,54,067,27,06,36,263,25,14,54,198,39,17,68,347,41,6*61
$GPGSV,1,1,03,11,01,248,,21,06,066,,50,47,179,,0*55
$GLGSV,2,1,07,69,06,021,23,71,28,138,28,75,19,205,31,76,42,267,25,1*77
$GLGSV,2,2,07,77,21,322,23,85,40,046,33,87,09,281,22,1*48
$GLGSV,2,1,05,71,28,138,24,75,19,205,35,76,42,267,25,77,21,322,21,3*77
$GLGSV,2,2,05,85,40,046,19,3*4C
$GLGSV,1,1,02,70,39,076,,86,50,334,,0*78
$GAGSV,2,1,05,13,59,295,38,15,50,043,47,18,61,090,29,21,47,289,23,2*70
$GAGSV,2,2,05,27,47,203,45,2*45
$GAGSV,2,1,06,13,59,295,35,15,50,043,44,18,61,090,37,21,47,289,31,7*74
$GAGSV,2,2,06,26,12,260,25,27,47,203,45,7*77
$GAGSV,2,1,05,01,10,324,,03,20,088,,05,06,040,,30,06,165,,0*76
$GAGSV,2,2,05,30,06,165,,0*46
$GBGSV,3,1,09,03,44,206,44,07,77,233,42,08,,,45,10,70,278,41,1*4E
$GBGSV,3,2,09,13,39,233,34,27,36,296,30,28,67,018,48,33,46,105,29,1*7E
$GBGSV,3,3,09,37,26,233,27,1*48
$GBGSV,2,1,05,02,27,236,31,03,44,206,41,07,77,233,36,10,70,278,40,3*7D
$GBGSV,2,2,05,13,39,233,32,3*4A
$GNRMC,033946.00,A,3727.0817932,N,12639.1221671,E,0.044,,210622,,,F,V*15
$GNVTG,,T,,M,0.044,N,0.082,K,D*32
$GNGNS,033946.00,3727.0817932,N,12639.1221671,E,FFFF,24,0.77,18.836,17.832,2.0,4095,V*08
$GNGGA,033946.00,3727.0817932,N,12639.1221671,E,5,12,0.77,18.836,M,17.832,M,2.0,4095*59
$GNGSA,A,3,14,06,19,03,17,,,,,,,,1.72,0.77,1.54,1*0B
$GNGSA,A,3,85,75,71,77,76,,,,,,,,1.72,0.77,1.54,2*0E
$GNGSA,A,3,15,21,27,13,,,,,,,,,1.72,0.77,1.54,3*07
$GNGSA,A,3,03,08,37,07,10,27,28,02,13,33,,,1.72,0.77,1.54,4*06
$GPGSV,2,1,05,06,36,263,30,14,54,198,46,17,68,347,46,19,47,315,20,1*67
$GPGSV,2,2,05,28,,,47,1*68
$GPGSV,1,1,04,03,54,067,26,06,36,263,25,14,54,198,39,17,68,347,41,6*60
$GPGSV,1,1,03,11,01,248,,21,06,066,,50,47,179,,0*55
$GLGSV,2,1,07,69,06,021,24,71,28,138,28,75,19,205,31,76,42,267,26,1*73
$GLGSV,2,2,07,77,21,322,23,85,40,046,33,87,09,281,23,1*49
$GLGSV,2,1,05,71,28,138,24,75,19,205,35,76,42,267,25,77,21,322,20,3*76
$GLGSV,2,2,05,85,40,046,20,3*46
$GLGSV,1,1,02,70,39,076,,86,50,334,,0*78
$GAGSV,2,1,05,13,59,295,38,15,50,043,47,18,61,090,29,21,47,289,23,2*70
$GAGSV,2,2,05,27,47,203,45,2*45
$GAGSV,2,1,06,13,59,295,35,15,50,043,44,18,61,090,37,21,47,289,31,7*74
$GAGSV,2,2,06,26,12,260,25,27,47,203,45,7*77
$GAGSV,2,1,05,01,10,324,,03,20,088,,05,06,040,,30,06,165,,0*76
$GAGSV,2,2,05,30,06,165,,0*46
$GBGSV,3,1,09,03,44,206,44,07,77,233,42,08,49,235,45,10,70,278,41,1*77
$GBGSV,3,2,09,13,39,233,34,27,36,296,30,28,67,018,48,33,46,105,28,1*7F
$GBGSV,3,3,09,37,26,233,26,1*49
$GBGSV,2,1,05,02,27,236,31,03,44,206,41,07,77,233,36,10,70,278,40,3*7D
$GBGSV,2,2,05,13,39,233,32,3*4A
$GNRMC,033947.00,A,3727.0817931,N,12639.1221726,E,0.041,,210622,,,F,V*11
$GNVTG,,T,,M,0.041,N,0.076,K,D*3C
$GNGNS,033947.00,3727.0817931,N,12639.1221726,E,FFFF,23,0.77,18.837,17.832,2.0,4095,V*0F
$GNGGA,033947.00,3727.0817931,N,12639.1221726,E,5,12,0.77,18.837,M,17.832,M,2.0,4095*59
$GNGSA,A,3,14,06,19,03,17,,,,,,,,1.72,0.77,1.54,1*0B
$GNGSA,A,3,85,75,71,77,76,,,,,,,,1.72,0.77,1.54,2*0E
$GNGSA,A,3,15,21,27,13,,,,,,,,,1.72,0.77,1.54,3*07
$GNGSA,A,3,03,08,37,07,10,27,28,02,13,33,,,1.72,0.77,1.54,4*06
$GPGSV,2,1,06,03,54,067,27,06,36,263,32,14,54,198,46,17,68,347,46,1*6E
$GPGSV,2,2,06,19,47,315,22,28,,,47,1*57
$GPGSV,1,1,04,03,54,067,26,06,36,263,24,14,54,198,39,17,68,347,41,6*61
$GPGSV,1,1,03,11,01,248,,21,06,066,,50,47,179,,0*55
$GLGSV,2,1,07,69,06,021,25,71,28,138,27,75,19,205,31,76,42,267,26,1*7D
$GLGSV,2,2,07,77,21,322,23,85,40,046,33,87,09,281,23,1*49
$GLGSV,2,1,05,71,28,138,25,75,19,205,35,76,42,267,26,77,21,322,21,3*75
$GLGSV,2,2,05,85,40,046,20,3*46
$GLGSV,1,1,02,70,39,076,,86,50,334,,0*78
$GAGSV,2,1,05,13,59,295,38,15,50,043,47,18,61,090,29,21,47,289,24,2*77
$GAGSV,2,2,05,27,47,203,45,2*45
$GAGSV,2,1,06,13,59,295,35,15,50,043,44,18,61,090,37,21,47,289,30,7*75
$GAGSV,2,2,06,26,12,260,25,27,47,203,45,7*77
$GAGSV,2,1,05,01,10,324,,03,20,088,,05,06,040,,30,06,165,,0*76
$GAGSV,2,2,05,30,06,165,,0*46
$GBGSV,3,1,09,03,44,206,44,07,77,233,42,08,49,235,45,10,70,278,41,1*77
$GBGSV,3,2,09,13,39,233,34,27,36,296,29,28,67,018,48,33,46,105,28,1*77
$GBGSV,3,3,09,37,26,233,27,1*48
$GBGSV,2,1,05,02,27,236,31,03,44,206,41,07,77,233,36,10,70,278,40,3*7D
$GBGSV,2,2,05,13,39,233,31,3*49
$GNRMC,033948.00,A,3727.0817944,N,12639.1221621,E,0.048,,210622,,,F,V*13
$GNVTG,,T,,M,0.048,N,0.088,K,D*34
$GNGNS,033948.00,3727.0817944,N,12639.1221621,E,FFFF,24,0.82,18.857,17.832,2.0,4095,V*0F
$GNGGA,033948.00,3727.0817944,N,12639.1221621,E,5,12,0.82,18.857,M,17.832,M,2.0,4095*5E
$GNGSA,A,3,14,06,19,03,17,,,,,,,,1.82,0.82,1.62,1*0B
$GNGSA,A,3,85,75,71,77,76,,,,,,,,1.82,0.82,1.62,2*0E
$GNGSA,A,3,15,21,27,13,,,,,,,,,1.82,0.82,1.62,3*07
$GNGSA,A,3,03,08,37,07,10,27,28,02,13,33,,,1.82,0.82,1.62,4*06
$GPGSV,2,1,06,03,54,067,27,06,36,263,33,14,54,198,46,17,68,347,46,1*6F
$GPGSV,2,2,06,19,47,315,23,28,,,47,1*56
$GPGSV,1,1,04,03,54,067,26,06,36,263,24,14,54,198,39,17,68,347,41,6*61
$GPGSV,1,1,03,11,01,248,,21,06,066,,50,47,179,,0*55
$GLGSV,2,1,07,69,06,021,26,71,28,138,27,75,19,205,31,76,42,267,24,1*7C
$GLGSV,2,2,07,77,21,322,23,85,40,046,32,87,09,281,23,1*48
$GLGSV,2,1,05,71,28,138,25,75,19,205,34,76,42,267,26,77,21,322,21,3*74
$GLGSV,2,2,05,85,40,046,19,3*4C
$GLGSV,1,1,02,70,39,076,,86,50,334,,0*78
$GAGSV,2,1,05,13,59,295,38,15,50,043,47,18,61,090,29,21,47,289,24,2*77
$GAGSV,2,2,05,27,47,203,45,2*45
$GAGSV,2,1,06,13,59,295,34,15,50,043,44,18,61,090,36,21,47,289,30,7*75
$GAGSV,2,2,06,26,12,260,25,27,47,203,45,7*77
$GAGSV,2,1,05,01,10,324,,03,20,088,,05,06,040,,30,06,165,,0*76
$GAGSV,2,2,05,30,06,165,,0*46
$GBGSV,3,1,09,03,44,206,44,07,77,232,42,08,49,235,45,10,70,278,41,1*76
$GBGSV,3,2,09,13,39,233,34,27,36,296,29,28,67,018,48,33,46,105,28,1*77
$GBGSV,3,3,09,37,26,233,27,1*48
$GBGSV,2,1,06,02,27,236,31,03,44,206,41,07,77,232,36,08,49,235,43,3*76
$GNRMC,033949.00,A,3727.0817905,N,12639.1221570,E,0.058,,210622,,,F,V*11
$GNVTG,,T,,M,0.058,N,0.108,K,D*3C
$GNGNS,033949.00,3727.0817905,N,12639.1221570,E,FFFF,24,0.82,18.916,17.832,2.0,4095,V*08
$GNGGA,033949.00,3727.0817905,N,12639.1221570,E,5,12,0.82,18.916,M,17.832,M,2.0,4095*59
$GNGSA,A,3,14,06,19,03,17,,,,,,,,1.82,0.82,1.62,1*0B
$GNGSA,A,3,85,75,71,77,76,,,,,,,,1.82,0.82,1.62,2*0E
$GNGSA,A,3,15,21,27,13,,,,,,,,,1.82,0.82,1.62,3*07
$GNGSA,A,3,03,08,37,07,10,27,28,02,13,33,,,1.82,0.82,1.62,4*06
$GPGSV,2,1,06,03,54,067,26,06,36,263,33,14,54,198,46,17,68,347,46,1*6E
$GPGSV,2,2,06,19,47,315,24,28,,,47,1*51
$GPGSV,1,1,04,03,54,067,26,06,36,263,23,14,54,198,39,17,68,347,41,6*66
$GPGSV,1,1,03,11,01,248,,21,06,066,,50,47,179,,0*55
$GLGSV,2,1,07,69,06,021,26,71,28,138,28,75,19,205,31,76,42,267,21,1*76
$GLGSV,2,2,07,77,21,322,23,85,40,046,32,87,09,281,23,1*48
$GLGSV,2,1,05,71,28,138,25,75,19,205,34,76,42,267,26,77,21,322,20,3*75
$GLGSV,2,2,05,85,40,046,19,3*4C
$GLGSV,1,1,02,70,39,076,,86,50,334,,0*78
$GAGSV,2,1,05,13,59,295,38,15,50,043,47,18,61,090,29,21,47,289,24,2*77
$GAGSV,2,2,05,27,47,203,45,2*45
$GAGSV,2,1,06,13,59,295,34,15,50,043,44,18,61,090,36,21,47,289,30,7*75
$GAGSV,2,2,06,26,12,260,25,27,47,203,45,7*77
$GAGSV,2,1,05,01,10,324,,03,20,088,,05,06,040,,30,06,165,,0*76
$GAGSV,2,2,05,30,06,165,,0*46
$GBGSV,3,1,09,03,44,206,44,07,77,232,42,08,49,235,45,10,70,278,41,1*76
$GBGSV,3,2,09,13,39,233,34,27,36,296,29,28,67,018,48,33,46,105,28,1*77
$GBGSV,3,3,09,37,26,233,29,1*46
$GBGSV,2,1,06,02,27,236,30,03,44,206,41,07,77,232,36,08,49,235,43,3*77
$GBGSV,2,2,06,10,70,278,40,13,39,233,31,3*75
$GNRMC,033950.00,A,3727.0817928,N,12639.1221287,E,0.056,,210622,,,F,V*17
$GNVTG,,T,,M,0.056,N,0.103,K,D*39
$GNGNS,033950.00,3727.0817928,N,12639.1221287,E,FFFF,24,0.82,18.934,17.832,2.0,4095,V*00
$GNGGA,033950.00,3727.0817928,N,12639.1221287,E,5,12,0.82,18.934,M,17.832,M,2.0,4095*51
$GNGSA,A,3,14,06,19,03,17,,,,,,,,1.82,0.82,1.62,1*0B
$GNGSA,A,3,85,75,71,77,76,,,,,,,,1.82,0.82,1.62,2*0E
$GNGSA,A,3,15,21,27,13,,,,,,,,,1.82,0.82,1.62,3*07
$GNGSA,A,3,03,08,37,07,10,27,28,02,13,33,,,1.82,0.82,1.62,4*06
$GPGSV,2,1,06,03,54,067,26,06,36,263,34,14,54,198,47,17,68,347,46,1*68
$GPGSV,2,2,06,19,47,315,25,28,,,47,1*50
$GPGSV,1,1,04,03,54,067,26,06,36,263,23,14,54,198,39,17,68,347,41,6*66
$GPGSV,1,1,03,11,01,248,,21,06,066,,50,47,179,,0*55
$GLGSV,2,1,07,69,06,021,27,71,28,138,28,75,19,205,32,76,42,267,18,1*7E
$GLGSV,2,2,07,77,21,322,23,85,40,046,32,87,09,281,22,1*49
$GLGSV,2,1,05,71,28,138,25,75,19,205,34,76,42,267,27,77,21,322,19,3*7E
$GLGSV,2,2,05,85,40,046,19,3*4C
$GLGSV,1,1,02,70,39,076,,86,50,334,,0*78
$GAGSV,2,1,05,13,59,295,38,15,50,043,47,18,61,090,30,21,47,289,25,2*7E
$GAGSV,2,2,05,27,47,203,45,2*45
$GAGSV,2,1,06,13,59,295,34,15,50,043,44,18,61,090,36,21,47,289,29,7*7D
$GAGSV,2,2,06,26,12,260,25,27,47,203,45,7*77
$GAGSV,2,1,05,01,10,324,,03,20,088,,05,06,040,,30,06,165,,0*76
$GAGSV,2,2,05,30,06,165,,0*46
$GBGSV,3,1,09,03,44,206,44,07,77,232,42,08,49,235,45,10,70,277,41,1*79
$GBGSV,3,2,09,13,39,233,34,27,36,296,29,28,67,018,48,33,46,105,28,1*77
$GBGSV,3,3,09,37,26,233,28,1*47
$GBGSV,2,1,06,02,27,236,30,03,44,206,41,07,77,232,36,08,49,235,43,3*77
$GBGSV,2,2,06,10,70,277,40,13,39,233,31,3*7A
$GNRMC,033951.00,A,3727.0817872,N,12639.1221063,E,0.029,,210622,,,F,V*18
$GNVTG,,T,,M,0.029,N,0.053,K,D*35
$GNGNS,033951.00,3727.0817872,N,12639.1221063,E,FFFF,24,0.82,18.960,17.832,2.0,4095,V*06
$GNGGA,033951.00,3727.0817872,N,12639.1221063,E,5,12,0.82,18.960,M,17.832,M,2.0,4095*57
$GNGSA,A,3,14,06,19,03,17,,,,,,,,1.82,0.82,1.62,1*0B
$GNGSA,A,3,85,75,71,77,76,,,,,,,,1.82,0.82,1.62,2*0E
$GNGSA,A,3,15,21,27,13,,,,,,,,,1.82,0.82,1.62,3*07
$GNGSA,A,3,03,08,37,07,10,27,28,02,13,33,,,1.82,0.82,1.62,4*06
$GPGSV,2,1,05,06,36,263,34,14,54,198,47,17,68,347,46,19,47,315,24,1*66
$GPGSV,2,2,05,28,,,47,1*68
$GPGSV,1,1,04,03,54,067,26,06,36,263,23,14,54,198,39,17,68,347,41,6*66
$GPGSV,1,1,03,11,01,248,,21,06,066,,50,47,179,,0*55
$GLGSV,2,1,07,69,06,021,26,71,28,138,28,75,19,205,31,76,42,267,15,1*71
$GLGSV,2,2,07,77,21,322,23,85,40,046,32,87,09,281,23,1*48
$GLGSV,2,1,05,71,28,138,24,75,19,205,34,76,42,267,27,77,21,322,19,3*7F
$GLGSV,2,2,05,85,40,046,19,3*4C
$GLGSV,1,1,02,70,39,076,,86,50,334,,0*78
$GAGSV,2,1,05,13,59,295,38,15,50,043,47,18,61,090,30,21,47,289,25,2*7E
$GAGSV,2,2,05,27,47,203,45,2*45
$GAGSV,2,1,06,13,59,295,34,15,50,043,44,18,61,090,36,21,47,289,30,7*75
$GAGSV,2,2,06,26,12,260,26,27,47,203,45,7*74
$GAGSV,2,1,05,01,10,324,,03,20,088,,05,06,040,,30,06,165,,0*76
$GAGSV,2,2,05,30,06,165,,0*46
$GBGSV,3,1,09,03,44,206,44,07,77,232,42,08,49,235,45,10,70,277,41,1*79
$GBGSV,3,2,09,13,39,234,34,27,36,296,28,28,67,018,48,33,46,105,28,1*71
$GBGSV,3,3,09,37,26,233,28,1*47
$GBGSV,2,1,06,02,27,236,30,03,44,206,41,07,77,232,37,08,49,235,43,3*76
$GBGSV,2,2,06,10,70,277,40,13,39,234,31,3*7D
$GNRMC,033952.00,A,3727.0817625,N,12639.1221097,E,0.012,,210622,,,F,V*14
$GNVTG,,T,,M,0.012,N,0.022,K,D*3B
$GNGNS,033952.00,3727.0817625,N,12639.1221097,E,FFFF,22,0.82,19.041,17.832,2.0,4095,V*0F
$GNGGA,033952.00,3727.0817625,N,12639.1221097,E,5,12,0.82,19.041,M,17.832,M,2.0,4095*58
$GNGSA,A,3,14,06,19,03,17,,,,,,,,1.82,0.82,1.62,1*0B
$GNGSA,A,3,85,75,71,77,76,,,,,,,,1.82,0.82,1.62,2*0E
$GNGSA,A,3,15,21,27,13,,,,,,,,,1.82,0.82,1.62,3*07
$GNGSA,A,3,03,08,37,07,10,28,02,13,33,,,,1.82,0.82,1.62,4*03
$GPGSV,2,1,05,06,36,263,34,14,54,198,47,17,68,347,46,19,47,315,25,1*67
$GPGSV,2,2,05,28,,,47,1*68
$GPGSV,1,1,04,03,54,067,26,06,36,263,24,14,54,198,38,17,68,347,41,6*60
$GPGSV,1,1,03,11,01,248,,21,06,066,,50,47,179,,0*55
$GLGSV,2,1,07,69,06,021,26,71,28,138,29,75,19,205,30,76,42,267,14,1*70
$GLGSV,2,2,07,77,21,322,23,85,40,046,32,87,09,281,25,1*4E
$GLGSV,2,1,05,71,28,138,24,75,19,205,34,76,42,267,27,77,21,322,19,3*7F
$GLGSV,2,2,05,85,40,046,18,3*4D
$GLGSV,1,1,02,70,39,076,,86,50,334,,0*78
$GAGSV,2,1,05,13,59,295,38,15,50,043,47,18,61,090,30,21,47,289,25,2*7E
$GAGSV,2,2,05,27,47,203,45,2*45
$GAGSV,2,1,06,13,59,295,33,15,50,043,44,18,61,090,35,21,47,289,29,7*79
$GAGSV,2,2,06,26,12,260,26,27,47,203,45,7*74
$GAGSV,2,1,05,01,10,324,,03,20,088,,05,06,040,,30,06,165,,0*76
$GAGSV,2,2,05,30,06,165,,0*46
$GBGSV,2,1,08,03,44,206,44,07,77,232,42,08,49,235,45,10,70,277,41,1*79
$GBGSV,2,2,08,13,39,234,34,28,67,018,48,33,46,105,27,37,26,233,27,1*7E
$GBGSV,2,1,06,02,27,236,31,03,44,206,41,07,77,232,37,08,49,235,43,3*77
$GBGSV,2,2,06,10,70,277,40,13,39,234,32,3*7E
$GBGSV,1,1,01,27,36,297,,0*4A
$GNRMC,033953.00,A,3727.0817446,N,12639.1221060,E,0.031,,210622,,,F,V*1B
$GNVTG,,T,,M,0.031,N,0.058,K,D*37
$GNGNS,033953.00,3727.0817446,N,12639.1221060,E,FFFF,23,0.82,19.119,17.832,1.0,4095,V*0F
$GNGGA,033953.00,3727.0817446,N,12639.1221060,E,5,12,0.82,19.119,M,17.832,M,1.0,4095*59
$GNGSA,A,3,14,06,19,03,17,,,,,,,,1.82,0.82,1.62,1*0B
$GNGSA,A,3,85,75,71,77,76,,,,,,,,1.82,0.82,1.62,2*0E
$GNGSA,A,3,15,21,27,13,,,,,,,,,1.82,0.82,1.62,3*07
$GNGSA,A,3,03,08,37,07,10,28,02,13,33,,,,1.82,0.82,1.62,4*03
$GPGSV,2,1,06,03,54,067,29,06,36,263,34,14,54,198,47,17,68,347,46,1*67
$GPGSV,2,2,06,19,47,315,25,28,,,47,1*50
$GPGSV,1,1,04,03,54,067,26,06,36,263,24,14,54,198,38,17,68,347,41,6*60
$GPGSV,1,1,03,11,01,248,,21,06,066,,50,47,179,,0*55
$GLGSV,2,1,07,69,06,021,26,71,28,138,29,75,19,205,31,76,42,267,14,1*71
$GLGSV,2,2,07,77,21,322,23,85,40,046,32,87,09,281,24,1*4F
$GLGSV,2,1,05,71,28,138,23,75,19,205,34,76,42,267,27,77,21,322,18,3*79
$GLGSV,2,2,05,85,40,046,19,3*4C
$GLGSV,1,1,02,70,39,076,,86,50,334,,0*78
$GAGSV,2,1,05,13,59,295,38,15,50,043,47,18,61,090,31,21,47,289,24,2*7E
$GAGSV,2,2,05,27,47,203,45,2*45
$GAGSV,2,1,06,13,59,295,33,15,50,043,44,18,61,090,35,21,47,289,30,7*71
$GAGSV,2,2,06,26,12,260,25,27,47,203,45,7*77
$GAGSV,2,1,05,01,10,324,,03,20,088,,05,06,040,,30,06,165,,0*76
$GAGSV,2,2,05,30,06,165,,0*46
$GBGSV,2,1,08,03,44,206,44,07,77,232,42,08,49,235,45,10,70,277,41,1*79
$GBGSV,2,2,08,13,39,234,34,28,67,019,48,33,46,105,28,37,26,233,27,1*70
$GBGSV,2,1,06,02,27,236,31,03,44,206,41,07,77,232,37,08,49,235,43,3*77
$GBGSV,2,2,06,10,70,277,40,13,39,234,31,3*7D
$GBGSV,1,1,01,27,36,297,,0*4A
$GNRMC,033954.00,A,3727.0817265,N,12639.1220983,E,0.021,,210622,,,F,V*1F
$GNVTG,,T,,M,0.021,N,0.039,K,D*31
$GNGNS,033954.00,3727.0817265,N,12639.1220983,E,FFFF,23,0.82,19.235,17.832,2.0,4095,V*04
$GNGGA,033954.00,3727.0817265,N,12639.1220983,E,5,12,0.82,19.235,M,17.832,M,2.0,4095*52
$GNGSA,A,3,14,06,19,03,17,,,,,,,,1.82,0.82,1.62,1*0B
$GNGSA,A,3,85,75,71,77,76,,,,,,,,1.82,0.82,1.62,2*0E
$GNGSA,A,3,15,21,27,13,,,,,,,,,1.82,0.82,1.62,3*07
$GNGSA,A,3,03,08,37,07,10,28,02,13,33,,,,1.82,0.82,1.62,4*03
$GPGSV,2,1,06,03,54,067,28,06,36,263,33,14,54,198,46,17,68,347,46,1*60
$GPGSV,2,2,06,19,47,315,26,28,,,47,1*53
$GPGSV,1,1,04,03,54,067,26,06,36,263,23,14,54,198,38,17,68,347,41,6*67
$GPGSV,1,1,03,11,01,248,,21,06,066,,50,47,179,,0*55
$GLGSV,2,1,07,69,06,021,26,71,28,138,28,75,19,205,31,76,42,267,19,1*7D
$GLGSV,2,2,07,77,21,322,23,85,40,046,32,87,09,281,24,1*4F
$GNRMC,033955.00,A,3727.0817094,N,12639.1220814,E,0.036,,210622,,,F,V*1B
$GNVTG,,T,,M,0.036,N,0.067,K,D*3C
$GNGNS,033955.00,3727.0817094,N,12639.1220814,E,FFFF,23,0.82,19.418,17.832,2.0,4095,V*0F
$GNGGA,033955.00,3727.0817094,N,12639.1220814,E,5,12,0.82,19.418,M,17.832,M,2.0,4095*59
$GNGSA,A,3,14,06,19,03,17,,,,,,,,1.82,0.82,1.62,1*0B
$GNGSA,A,3,85,75,71,77,76,,,,,,,,1.82,0.82,1.62,2*0E
$GNGSA,A,3,15,21,27,13,,,,,,,,,1.82,0.82,1.62,3*07
$GNGSA,A,3,03,08,37,07,10,28,02,13,33,,,,1.82,0.82,1.62,4*03
$GPGSV,2,1,06,03,54,067,28,06,36,263,33,14,54,198,46,17,68,347,46,1*60
$GPGSV,2,2,06,19,47,315,26,28,,,47,1*53
$GPGSV,1,1,04,03,54,067,27,06,36,263,22,14,54,198,39,17,68,347,41,6*66
$GPGSV,1,1,03,11,01,248,,21,06,066,,50,47,179,,0*55
$GLGSV,2,1,07,69,06,021,27,71,28,138,29,75,19,205,31,76,42,267,21,1*76
$GLGSV,2,2,07,77,21,322,23,85,40,046,32,87,09,281,24,1*4F
$GLGSV,2,1,05,71,28,138,22,75,19,205,34,76,42,267,25,77,21,322,17,3*75
$GLGSV,2,2,05,85,40,046,19,3*4C
$GLGSV,1,1,02,70,39,076,,86,50,334,,0*78
$GAGSV,2,1,05,13,59,296,38,15,50,043,47,18,61,090,31,21,47,289,24,2*7D
$GAGSV,2,2,05,27,47,203,45,2*45
$GAGSV,2,1,06,13,59,296,33,15,50,043,44,18,61,090,34,21,47,289,29,7*7B
$GAGSV,2,2,06,26,12,260,25,27,47,203,44,7*76
$GAGSV,2,1,05,01,10,324,,03,20,088,,05,06,040,,30,06,165,,0*76
$GAGSV,2,2,05,30,06,165,,0*46
$GBGSV,2,1,08,03,44,206,44,07,77,232,42,08,49,235,45,10,70,277,41,1*79
$GBGSV,2,2,08,13,39,234,34,28,67,019,48,33,46,104,27,37,26,232,25,1*7D
$GBGSV,2,1,06,02,27,236,31,03,44,206,41,07,77,232,37,08,49,235,44,3*70
$GBGSV,2,2,06,10,70,277,40,13,39,234,31,3*7D
$GBGSV,1,1,01,27,36,297,,0*4A
$GNRMC,033956.00,A,3727.0816911,N,12639.1220700,E,0.056,,210622,,,F,V*11
$GNVTG,,T,,M,0.056,N,0.103,K,D*39
$GNGNS,033956.00,3727.0816911,N,12639.1220700,E,FFFF,23,0.82,19.574,17.832,2.0,4095,V*08
$GNGSA,A,3,14,06,19,03,17,,,,,,,,1.82,0.82,1.62,1*0B
$GNGSA,A,3,85,75,71,77,76,,,,,,,,1.82,0.82,1.62,2*0E
$GNGSA,A,3,15,21,27,13,,,,,,,,,1.82,0.82,1.62,3*07
$GNGSA,A,3,03,08,37,07,10,28,02,13,33,,,,1.82,0.82,1.62,4*03
$GPGSV,2,1,06,03,54,067,28,06,36,263,33,14,54,198,46,17,68,347,46,1*60
$GPGSV,2,2,06,19,47,315,27,28,,,47,1*52
$GPGSV,1,1,04,03,54,067,28,06,36,263,21,14,54,198,39,17,68,347,41,6*6A
$GPGSV,1,1,03,11,01,248,,21,06,066,,50,47,179,,0*55
$GLGSV,2,1,07,69,06,021,27,71,28,138,30,75,19,205,32,76,42,267,22,1*7E
$GLGSV,2,2,07,77,21,322,22,85,40,046,32,87,09,281,22,1*48
$GLGSV,2,1,05,71,28,138,21,75,19,205,35,76,42,267,24,77,21,322,17,3*76
$GLGSV,2,2,05,85,40,046,20,3*46
$GLGSV,1,1,02,70,39,076,,86,50,334,,0*78
$GAGSV,2,1,05,13,59,296,38,15,50,043,47,18,61,090,31,21,47,289,25,2*7C
$GAGSV,2,2,05,27,47,203,45,2*45
$GAGSV,2,1,05,13,59,296,33,15,50,043,44,18,61,090,33,21,47,289,28,7*7E
$GAGSV,2,2,05,27,47,$GAGSV,2,1,06,01,10,324,,03,20,088,,05,06,040,,26,12,260,,0*71
$GAGSV,2,2,06,26,12,260,,30,06,165,,0*76
$GBGSV,2,1,08,03,44,206,44,07,77,232,42,08,49,235,45,10,70,277,41,1*79
$GBGSV,2,2,08,13,39,234,34,28,67,019,48,33,46,104,28,37,26,232,24,1*73
$GBGSV,2,1,06,02,27,236,31,03,44,206,41,07,77,232,36,08,49,235,44,3*71
$GBGSV,2,2,06,10,70,277,40,13,39,234,31,3*7D
$GBGSV,1,1,01,27,36,297,,0*4A
$GNRMC,033957.00,A,3727.0816688,N,12639.1220541,E,0.016,,210622,,,F,V*1C
$GNVTG,,T,,M,0.016,N,0.030,K,D*3C
$GNGNS,033957.00,3727.0816688,N,12639.1220541,E,FFFF,23,0.82,19.739,17.832,2.0,4095,V*0A
$GNGGA,033957.00,3727.0816688,N,12639.1220541,E,5,12,0.82,19.739,M,17.832,M,2.0,4095*5C
$GNGSA,A,3,14,06,19,03,17,,,,,,,,1.82,0.82,1.62,1*0B
$GNGSA,A,3,85,75,71,77,76,,,,,,,,1.82,0.82,1.62,2*0E
$GNGSA,A,3,15,21,27,13,,,,,,,,,1.82,0.82,1.62,3*07
$GNGSA,A,3,03,08,37,07,10,28,02,13,33,,,,1.82,0.82,1.62,4*03
$GPGSV,2,1,06,03,54,067,28,06,36,263,32,14,54,198,46,17,68,347,46,1*61
$GPGSV,2,2,06,19,47,315,28,28,,,47,1*5D
$GPGSV,1,1,04,03,54,067,28,06,36,263,21,14,54,198,38,17,68,347,41,6*6B
$GPGSV,1,1,03,11,01,248,,21,06,066,,50,47,179,,0*55
$GLGSV,2,1,07,69,06,021,27,71,28,138,30,75,19,205,32,76,42,267,24,1*78
$GLGSV,2,2,07,77,21,322,23,85,40,046,32,87,09,281,20,1*4B
$GLGSV,2,1,05,71,28,138,21,75,19,205,35,76,42,267,25,77,21,322,17,3*77
$GLGSV,2,2,05,85,40,046,21,3*47
$GLGSV,1,1,02,70,39,076,,86,50,334,,0*78
$GAGSV,2,1,05,13,59,296,38,15,50,043,47,18,61,090,32,21,47,289,25,2*7F
$GAGSV,2,2,05,27,47,203,45,2*45
$GAGSV,2,1,05,13,59,296,33,15,50,043,44,18,61,090,33,21,47,289,28,7*7E
$GAGSV,2,2,05,27,47,203,44,7*41
$GAGSV,2,1,06,01,10,324,,03,20,088,,05,06,040,,26,12,260,,0*71
$GAGSV,2,2,06,26,12,260,,30,06,165,,0*76
$GBGSV,2,1,08,03,44,206,44,07,77,232,42,08,49,235,45,10,70,277,41,1*79
$GBGSV,2,2,08,13,39,234,34,28,67,019,48,33,46,104,28,37,26,232,24,1*73
$GBGSV,2,1,06,02,27,236,31,03,44,206,41,07,77,232,36,08,49,235,44,3*71
$GBGSV,2,2,06,10,70,277,40,13,39,234,31,3*7D
$GBGSV,1,1,01,27,36,297,,0*4A
$GNRMC,033958.00,A,3727.0816460,N,12639.1220461,E,0.026,,210622,,,F,V*17
$GNVTG,,T,,M,0.026,N,0.047,K,D*3F
$GNGNS,033958.00,3727.0816460,N,12639.1220461,E,FFFF,23,0.92,19.843,17.832,2.0,4095,V*01
$GNGGA,033958.00,3727.0816460,N,12639.1220461,E,5,12,0.92,19.843,M,17.832,M,2.0,4095*57
$GNGSA,A,3,14,06,19,03,17,,,,,,,,1.91,0.92,1.67,1*0D
$GNGSA,A,3,85,75,71,77,76,,,,,,,,1.91,0.92,1.67,2*08
$GNGSA,A,3,15,21,27,13,,,,,,,,,1.91,0.92,1.67,3*01
$GNGSA,A,3,03,08,37,07,10,28,02,13,33,,,,1.91,0.92,1.67,4*05
$GPGSV,2,1,06,03,54,067,29,06,36,263,31,14,54,198,46,17,68,347,46,1*63
$GPGSV,2,2,06,19,47,315,28,28,,,47,1*5D
$GPGSV,1,1,04,03,54,067,28,06,36,263,20,14,54,198,39,17,68,347,41,6*6B
$GPGSV,1,1,03,11,01,248,,21,06,066,,50,47,179,,0*55
$GLGSV,2,1,07,69,06,021,27,71,28,138,31,75,19,205,32,76,42,267,25,1*78
$GLGSV,2,2,07,77,21,322,23,85,40,046,32,87,09,281,18,1*40
$GLGSV,2,1,05,71,28,138,21,75,19,205,35,76,42,267,24,77,21,322,17,3*76
$GLGSV,2,2,05,85,40,046,22,3*44
$GLGSV,1,1,02,70,39,076,,86,50,334,,0*78
$GAGSV,2,1,05,13,59,296,38,15,50,043,47,18,61,090,32,21,47,289,26,2*7C
$GAGSV,2,2,05,27,47,203,45,2*45
$GAGSV,2,1,05,13,59,296,33,15,50,043,44,18,61,090,33,21,47,289,28,7*7E
$GAGSV,2,2,05,27,47,203,44,7*41
$GAGSV,2,1,06,01,10,324,,03,20,088,,05,06,040,,26,12,260,,0*71
$GAGSV,2,2,06,26,12,260,,30,06,165,,0*76
$GBGSV,2,1,08,03,44,206,44,07,77,232,42,08,49,235,45,10,70,277,41,1*79
$GBGSV,2,2,08,13,39,234,34,28,67,019,48,33,46,104,29,37,26,232,23,1*75
$GBGSV,2,1,06,02,27,236,31,03,44,206,41,07,77,232,36,08,49,235,44,3*71
$GBGSV,2,2,06,10,70,277,40,13,39,234,31,3*7D
$GBGSV,1,1,01,27,36,297,,0*4A
$GNRMC,033959.00,A,3727.0816236,N,12639.1220298,E,0.027,,210622,,,F,V*12
$GNVTG,,T,,M,0.027,N,0.049,K,D*30
$GNGNS,033959.00,3727.0816236,N,12639.1220298,E,FFFF,23,0.82,19.966,17.832,2.0,4095,V*02
$GNGGA,033959.00,3727.0816236,N,12639.1220298,E,5,12,0.82,19.966,M,17.832,M,2.0,4095*54
$GNGSA,A,3,14,06,19,03,17,,,,,,,,1.82,0.82,1.62,1*0B
$GNGSA,A,3,85,75,71,77,76,,,,,,,,1.82,0.82,1.62,2*0E
$GNGSA,A,3,15,21,27,13,,,,,,,,,1.82,0.82,1.62,3*07
$GPGSV,2,1,06,03,54,067,30,06,36,263,30,14,54,198,46,17,68,347,46,1*6A
$GPGSV,2,2,06,19,47,315,30,28,,,47,1*54
$GPGSV,1,1,04,03,54,067,29,06,36,263,18,14,54,198,38,17,68,347,41,6*60
$GPGSV,1,1,03,11,01,248,,21,06,066,,50,47,179,,0*55
$GLGSV,2,1,07,69,06,021,27,71,28,138,30,75,19,205,32,76,42,267,26,1*7A
$GLGSV,2,2,07,77,21,322,23,85,40,046,33,87,09,281,19,1*40
$GLGSV,2,1,05,71,28,138,21,75,19,205,35,76,42,267,23,77,21,322,18,3*7E
$GLGSV,2,2,05,85,40,046,22,3*44
$GLGSV,1,1,02,70,39,076,,86,50,334,,0*78
$GAGSV,2,1,05,13,59,296,38,15,50,043,47,18,61,090,33,21,47,289,26,2*7D
$GAGSV,2,2,05,27,47,203,45,2*45
$GAGSV,2,1,05,13,59,296,33,15,50,043,44,18,61,090,32,21,47,289,28,7*7F
$GAGSV,2,2,05,27,47,203,44,7*41
$GAGSV,2,1,06,01,10,324,,03,20,088,,05,06,040,,26,12,260,,0*71
$GAGSV,2,2,06,26,12,260,,30,06,165,,0*76
$GBGSV,2,1,08,03,44,206,44,07,77,232,42,08,49,235,45,10,70,277,41,1*79
$GBGSV,2,2,08,13,39,234,34,28,67,019,48,33,46,104,28,37,26$GBGSV,2,1,06,02,27,236,30,03,44,206,41,07,77,232,36,08,49,235,44,3*70
$GBGSV,2,2,06,10,70,277,40,13,39,234,31,3*7D
$GBGSV,1,1,01,27,36,297,,0*4A
$GNRMC,034000.00,A,3727.0816040,N,12639.1220101,E,0.031,,210622,,,F,V*17
$GNVTG,,T,,M,0.031,N,0.058,K,D*37
$GNGNS,034000.00,3727.0816040,N,12639.1220101,E,FFFF,23,0.82,20.077,17.832,2.0,4095,V*03
$GNGGA,034000.00,3727.0816040,N,12639.1220101,E,5,12,0.82,20.077,M,17.832,M,2.0,4095*55
$GNGSA,A,3,14,06,19,03,17,,,,,,,,1.82,0.82,1.62,1*0B
$GNGSA,A,3,85,75,71,77,76,,,,,,,,1.82,0.82,1.62,2*0E
$GNGSA,A,3,15,21,27,13,,,,,,,,,1.82,0.82,1.62,3*07
$GPGSV,2,1,06,03,54,067,31,06,36,263,30,14,54,198,46,17,68,347,46,1*6B
$GPGSV,2,2,06,19,47,315,30,28,,,47,1*54
$GPGSV,1,1,04,03,54,067,29,06,36,263,19,14,54,198,38,17,68,347,41,6*61
$GPGSV,1,1,03,11,01,248,,21,06,066,,50,47,179,,0*55
$GLGSV,2,1,07,69,06,021,27,71,28,138,31,75,19,205,33,76,42,267,27,1*7B
$GLGSV,2,2,07,77,21,322,24,85,40,046,33,87,09,281,17,1*49
$GLGSV,2,1,05,71,28,138,21,75,19,205,35,76,42,267,22,77,21,322,17,3*70
$GLGSV,2,2,05,85,40,046,22,3*44
$GLGSV,1,1,02,70,39,076,,86,50,334,,0*78
$GAGSV,2,1,05,13,59,296,38,15,50,043,47,18,61,090,33,21,47,289,26,2*7D
$GAGSV,2,2,05,27,47,203,45,2*45
$GAGSV,2,1,05,13,59,296,33,15,50,043,44,18,61,090,32,21,47,289,28,7*7F
$GAGSV,2,2,05,27,47,203,44,7*41
$GAGSV,2,1,06,01,10,324,,03,20,088,,05,06,040,,26,12,260,,0*71
$GAGSV,2,2,06,26,12,260,,30,06,165,,0*76
$GBGSV,2,1,08,03,44,206,44,07,77,232,42,08,49,235,45,10,70,277,41,1*79
$GBGSV,2,2,08,13,39,234,33,28,67,019,48,33,46,104,27,37,26$GBGSV,2,1,06,02,27,236,31,03,44,206,41,07,77,232,36,08,49,235,44,3*71
$GBGSV,2,2,06,10,70,277,40,13,39,234,31,3*7D
$GBGSV,1,1,01,27,36,297,,0*4A
$GNRMC,034001.00,A,3727.0815900,N,12639.1219757,E,0.030,,210622,,,F,V*16
$GNVTG,,T,,M,0.030,N,0.056,K,D*38
$GNGNS,034001.00,3727.0815900,N,12639.1219757,E,FFFF,23,0.82,20.163,17.832,2.0,4095,V*07
$GNGGA,034001.00,3727.0815900,N,12639.1219757,E,5,12,0.82,20.163,M,17.832,M,2.0,4095*51
$GNGSA,A,3,14,06,19,03,17,,,,,,,,1.82,0.82,1.62,1*0B
$GNGSA,A,3,85,75,71,77,76,,,,,,,,1.82,0.82,1.62,2*0E
$GNGSA,A,3,15,21,27,13,,,,,,,,,1.82,0.82,1.62,3*07
$GNGSA,A,3,03,08,37,07,10,28,02,13,33,,,,1.82,0.82,1.62,4*03
$GPGSV,2,1,06,03,54,067,30,06,36,263,31,14,54,198,46,17,68,347,46,1*6B
$GPGSV,2,2,06,19,47,315,30,28,,,47,1*54
$GPGSV,1,1,04,03,54,067,29,06,36,263,18,14,54,198,38,17,68,347,41,6*60
$GPGSV,1,1,03,11,01,248,,21,06,066,,50,47,179,,0*55
$GLGSV,2,1,08,69,06,021,26,70,39,076,15,71,28,138,30,75,19,205,33,1*7D
$GLGSV,2,2,08,76,42,267,28,77,21,322,24,85,40,046,33,87,09,281,16,1*79
$GLGSV,2,1,05,71,28,138,20,75,19,205,35,76,42,267,22,77,21,322,16,3*70
$GLGSV,2,2,05,85,40,046,22,3*44
$GLGSV,1,1,01,86,50,334,,0*47
$GAGSV,2,1,05,13,59,296,38,15,50,043,47,18,61,090,33,21,47,289,27,2*7C
$GAGSV,2,2,05,27,47,203,45,2*45
$GAGSV,2,1,05,13,59,296,33,15,50,043,44,18,61,090,31,21,47,289,27,7*73
$GAGSV,2,2,05,27,47,203,44,7*41
$GAGSV,2,1,06,01,10,324,,03,20,088,,05,06,040,,26,12,260,,0*71
$GAGSV,2,2,06,26,12,260,,30,06,165,,0*76
$GBGSV,2,1,08,03,44,206,44,07,77,232,42,08,49,235,45,10,70,277,41,1*79
$GBGSV,2,2,08,13,39,234,34,28,67,019,48,33,46,104,29,37,26,232,24,1*72
$GBGSV,2,1,06,02,27,236,31,03,44,206,41,07,77,232,36,08,49,235,44,3*71
$GBGSV,2,2,06,10,70,277,40,13,39,234,31,3*7D
$GBGSV,1,1,01,27,36,297,,0*4A
$GNRMC,034002.00,A,3727.0815765,N,12639.1219526,E,0.057,,210622,,,F,V*1D
$GNVTG,,T,,M,0.057,N,0.105,K,D*3E
$GNGNS,034002.00,3727.0815765,N,12639.1219526,E,FFFF,23,0.82,20.153,17.832,2.0,4095,V*0E
$GNGGA,034002.00,3727.0815765,N,12639.1219526,E,5,12,0.82,20.153,M,17.832,M,2.0,4095*58
$GNGSA,A,3,14,06,19,03,17,,,,,,,,1.82,0.82,1.62,1*0B
$GNGSA,A,3,85,75,71,77,76,,,,,,,,1.82,0.82,1.62,2*0E
$GNGSA,A,3,15,21,27,13,,,,,,,,,1.82,0.82,1.62,3*07
$GNGSA,A,3,03,08,37,07,10,28,02,13,33,,,,1.82,0.82,1.62,4*03
$GPGSV,2,1,06,03,54,067,31,06,36,263,30,14,54,198,46,17,68,347,46,1*6B
$GPGSV,2,2,06,19,47,315,31,28,,,47,1*55
$GPGSV,1,1,04,03,54,067,30,06,36,263,17,14,54,198,38,17,68,347,41,6*67
$GPGSV,1,1,03,11,01,248,,21,06,066,,50,47,179,,0*55
$GLGSV,2,1,08,69,06,021,26,70,39,076,12,71,28,138,31,75,19,205,33,1*7B
$GLGSV,2,2,08,76,42,267,28,77,21,322,24,85,40,046,34,87,09,281,14,1*7C
$GLGSV,2,1,05,71,28,138,20,75,19,205,35,76,42,267,22,77,21,322,16,3*70
$GLGSV,2,2,05,85,40,046,22,3*44
$GLGSV,1,1,01,86,50,334,,0*47
$GAGSV,2,1,05,13,59,296,38,15,50,043,47,18,61,090,34,21,47,289,27,2*7B
$GAGSV,2,2,05,27,47,203,46,2*46
$GAGSV,2,1,05,13,59,296,33,15,50,043,44,18,61,090,31,21,47,289,27,7*73
$GAGSV,2,2,05,27,47,203,44,7*41
$GAGSV,2,1,06,01,10,324,,03,20,088,,05,06,040,,26,12,260,,0*71
$GAGSV,2,2,06,26,12,260,,30,06,165,,0*76
$GBGSV,2,1,08,03,44,206,44,07,77,232,42,08,49,235,45,10,70,277,41,1*79
$GBGSV,2,2,08,13,39,234,34,28,67,019,49,33,46,104,31,37,26,232,24,1*7A
$GBGSV,2,1,06,02,27,236,30,03,44,206,41,07,77,232,37,08,49,235,44,3*71
$GBGSV,2,2,06,10,70,277,40,13,39,234,31,3*7D
$GBGSV,1,1,01,27,36,297,,0*4A
$GNRMC,034003.00,A,3727.0815553,N,12639.1219429,E,0.015,,210622,,,F,V*13
$GNVTG,,T,,M,0.015,N,0.028,K,D*36
$GNGNS,034003.00,3727.0815553,N,12639.1219429,E,FFFF,24,0.77,20.163,17.832,1.0,4095,V*0B
$GNGSA,A,3,14,06,19,03,17,,,,,,,,1.72,0.77,1.54,1*0B
$GNGSA,A,3,85,75,71,77,76,,,,,,,,1.72,0.77,1.54,2*0E
$GNGSA,A,3,15,21,27,13,,,,,,,,,1.72,0.77,1.54,3*07
$GNGSA,A,3,03,08,37,07,10,27,28,02,13,33,,,1.72,0.77,1.54,4*06
$GPGSV,2,1,06,03,54,067,31,06,36,263,30,14,54,198,46,17,68,347,46,1*6B
$GPGSV,2,2,06,19,47,315,31,28,,,47,1*55
$GPGSV,1,1,04,03,54,067,30,06,36,263,15,14,54,198,38,17,68,347,41,6*65
$GPGSV,1,1,03,11,01,248,,21,06,066,,50,47,179,,0*55
$GLGSV,2,1,08,69,06,021,26,70,39,076,13,71,28,138,31,75,19,205,34,1*7D
$GLGSV,2,2,08,76,42,267,27,77,21,322,23,85,40,046,34,87,09,281,15,1*75
$GLGSV,2,1,05,71,28,138,20,75,19,205,35,76,42,267,23,77,21,322,16,3*71
$GLGSV,2,2,05,85,40,046,22,3*44
$GLGSV,1,1,01,86,50,334,,0*47
$GAGSV,2,1,05,13,59,296,38,15,50,043,47,18,61,090,34,21,47,289,27,2*7B
$GAGSV,2,2,05,27,47,203,45,2*45
$GAGSV,2,1,05,13,59,296,33,15,50,043,44,18,61,090,30,21,47,289,26,7*73
$GAGSV,2,2,05,27$GAGSV,2,1,06,01,10,324,,03,20,088,,05,06,040,,26,12,260,,0*71
$GAGSV,2,2,06,26,12,260,,30,06,165,,0*76
$GBGSV,3,1,09,03,44,206,44,07,77,232,42,08,49,235,45,10,70,277,41,1*79
$GBGSV,3,2,09,13,39,234,34,27,36,297,29,28,67,019,49,33,46,104,30,1*79
$GBGSV,3,3,09,37,26,232,23,1*4D
$GBGSV,2,1,06,02,27,236,30,03,44,206,41,07,77,232,36,08,49,235,44,3*70
$GBGSV,2,2,06,10,70,277,40,13,39,234,31,3*7D
$GNRMC,034004.00,A,3727.0815410,N,12639.1219267,E,0.040,,210622,,,F,V*1E
$GNVTG,,T,,M,0.040,N,0.074,K,D*3F
$GNGNS,034004.00,3727.0815410,N,12639.1219267,E,FFFF,24,0.86,20.141,17.832,2.0,4095,V*0B
$GNGGA,034004.00,3727.0815410,N,12639.1219267,E,5,12,0.86,20.141,M,17.832,M,2.0,4095*5A
$GNGSA,A,3,14,06,19,03,17,,,,,,,,1.82,0.86,1.61,1*0C
$GNGSA,A,3,85,75,71,77,76,,,,,,,,1.82,0.86,1.61,2*09
$GNGSA,A,3,15,21,27,13,,,,,,,,,1.82,0.86,1.61,3*00
$GNGSA,A,3,03,08,37,07,10,27,28,02,13,33,,,1.82,0.86,1.61,4*01
$GPGSV,2,1,06,03,54,067,31,06,36,263,31,14,54,198,46,17,68,347,46,1*6A
$GPGSV,2,2,06,19,47,315,30,28,,,47,1*54
$GPGSV,1,1,04,03,54,067,30,06,36,263,14,14,54,198,38,17,68,347,40,6*65
$GPGSV,1,1,03,11,01,248,,21,06,066,,50,47,179,,0*55
$GLGSV,2,1,08,69,06,021,26,70,39,076,11,71,28,138,31,75,19,205,34,1*7F
$GLGSV,2,2,08,76,42,267,26,77,21,322,22,85,40,046,34,87,09,281,15,1*75
$GLGSV,2,1,05,71,28,138,20,75,19,205,35,76,42,267,23,77,21,322,16,3*71
$GLGSV,2,2,05,85,40,046,23,3*45
$GLGSV,1,1,01,86,50,334,,0*47
$GAGSV,2,1,05,13,59,296,38,15,50,043,47,18,61,090,34,21,47,289,27,2*7B
$GAGSV,2,2,05,27,47,203,45,2*45
$GAGSV,2,1,05,13,59,296,33,15,50,043,44,18,61,090,30,21,47,289,26,7*73
$GAGSV,2,2,05,27,47,203,44,7*41
$GAGSV,2,1,06,01,10,324,,03,20,088,,05,06,040,,26,12,260,,0*71
$GAGSV,2,2,06,26,12,260,,30,06,165,,0*76
$GBGSV,3,1,09,03,44,206,44,07,77,232,42,08,49,235,45,10,70,277,41,1*79
$GBGSV,3,2,09,13,39,234,33,27,36,297,30,28,67,019,49,33,46,104,30,1*76
$GBGSV,3,3,09,37,26,232,21,1*4F
$GBGSV,2,1,06,02,27,236,31,03,44,206,41,07,77,232,36,08,49,235,44,3*71
$GBGSV,2,2,06,10,70,277,40,13,39,234,31,3*7D
$GNRMC,034005.00,A,3727.0815307,N,12639.1219056,E,0.019,,210622,,,F,V*12
$GNVTG,,T,,M,0.019,N,0.035,K,D*36
$GNGNS,034005.00,3727.0815307,N,12639.1219056,E,FFFF,24,0.77,20.112,17.832,2.0,4095,V*03
$GNGGA,034005.00,3727.0815307,N,12639.1219056,E,5,12,0.77,20.112,M,17.832,M,2.0,4095*52
$GNGSA,A,3,14,06,19,03,17,,,,,,,,1.72,0.77,1.54,1*0B
$GNGSA,A,3,85,75,71,77,76,,,,,,,,1.72,0.77,1.54,2*0E
$GNGSA,A,3,15,21,27,13,,,,,,,,,1.72,0.77,1.54,3*07
$GNGSA,A,3,03,08,37,07,10,27,28,02,13,33,,,1.72,0.77,1.54,4*06
$GPGSV,2,1,06,03,54,067,32,06,36,263,32,14,54,198,46,17,68,347,46,1*6A
$GPGSV,2,2,06,19,47,315,30,28,,,47,1*54
$GPGSV,1,1,04,03,54,067,29,06,36,263,14,14,54,198,38,17,68,347,40,6*6D
$GPGSV,1,1,03,11,01,248,,21,06,066,,50,47,179,,0*55
$GLGSV,2,1,08,69,06,021,26,70,39,075,10,71,28,138,30,75,19,205,35,1*7D
$GLGSV,2,2,08,76,42,267,24,77,21,322,22,85,40,046,34,87,09,281,16,1*74
$GLGSV,2,1,05,71,28,138,19,75,19,205,35,76,42,267,23,77,21,322,13,3*7E
$GLGSV,2,2,05,85,40,046,23,3*45
$GLGSV,1,1,01,86,50,334,,0*47
$GAGSV,2,1,05,13,59,296,37,15,50,043,47,18,61,090,35,21,47,289,27,2*75
$GAGSV,2,2,05,27,47,203,45,2*45
$GAGSV,2,1,05,13,59,296,33,15,50,043,44,18,61,090,29,21,47,289,25,7*78
$GAGSV,2,2,05,27,47,203,44,7*41
$GAGSV,2,1,06,01,10,324,,03,20,088,,05,06,040,,26,12,260,,0*71
$GAGSV,2,2,06,26,12,260,,30,06,165,,0*76
$GBGSV,3,1,09,03,44,206,44,07,77,232,42,08,49,235,45,10,70,277,41,1*79
$GBGSV,3,2,09,13,39,234,33,27,36,297,30,28,67,019,49,33,46,104,31,1*77
$GBGSV,3,3,09,37,26,232,21,1*4F
$GBGSV,2,1,06,02,27,236,31,03,44,206,41,07,77,232,36,08,49,235,44,3*71
$GBGSV,2,2,06,10,70,277,40,13,39,234,31,3*7D
$GNRMC,034006.00,A,3727.0815218,N,12639.1218832,E,0.026,,210622,,,F,V*19
$GNVTG,,T,,M,0.026,N,0.049,K,D*31
$GNGNS,034006.00,3727.0815218,N,12639.1218832,E,FFFF,24,0.77,20.037,17.832,2.0,4095,V*02
$GNGSA,A,3,14,06,19,03,17,,,,,,,,1.72,0.77,1.54,1*0B
$GNGSA,A,3,85,75,71,77,76,,,,,,,,1.72,0.77,1.54,2*0E
$GNGSA,A,3,15,21,27,13,,,,,,,,,1.72,0.77,1.54,3*07
$GNGSA,A,3,03,08,37,07,10,27,28,02,13,33,,,1.72,0.77,1.54,4*06
$GPGSV,2,1,06,03,54,067,31,06,36,263,32,14,54,198,46,17,68,347,46,1*69
$GPGSV,2,2,06,19,47,315,31,28,,,47,1*55
$GPGSV,1,1,04,03,54,067,30,06,36,263,15,14,54,198,38,17,68,347,40,6*64
$GPGSV,1,1,03,11,01,248,,21,06,066,,50,47,179,,0*55
$GLGSV,2,1,08,69,06,021,26,70,39,075,08,71,29,137,29,75,19,205,35,1*72
$GLGSV,2,2,08,76,42,267,23,77,21,322,22,85,40,046,35,87,09,281,17,1*73
$GLGSV,2,1,05,71,29,137,19,75,19,205,35,76,42,267,24,77,21,322,09,3*7C
$GLGSV,2,2,05,85,40,046,24,3*42
$GLGSV,1,1,01,86,50,334,,0*47
$GAGSV,2,1,05,13,59,296,37,15,50,043,47,18,61,090,35,21,47,289,27,2*75
$GAGSV,2,2,05,27,47,203,46,2*46
$GAGSV,2,1,05,13,59,296,32,15,50,043,44,18,61,090,29,21,47,289,25,7*79
$GAGSV,2,2,05,27$GAGSV,2,1,06,01,10,324,,03,20,088,,05,06,040,,26,12,260,,0*71
$GAGSV,2,2,06,26,12,260,,30,06,165,,0*76
$GBGSV,3,1,09,03,44,206,44,07,77,232,42,08,49,235,45,10,70,277,41,1*79
$GBGSV,3,2,09,13,39,234,34,27,36,297,31,28,67,019,49,33,46,104,31,1*71
$GBGSV,3,3,09,37,26,232,22,1*4C
$GBGSV,2,1,06,02,27,236,31,03,44,206,41,07,77,232,37,08,49,235,44,3*70
$GBGSV,2,2,06,10,70,277,40,13,39,234,31,3*7D
$GNRMC,034007.00,A,3727.0815225,N,12639.1218538,E,0.069,,210622,,,F,V*1A
$GNVTG,,T,,M,0.069,N,0.128,K,D*3C
$GNGNS,034007.00,3727.0815225,N,12639.1218538,E,FFFF,24,0.82,19.948,17.832,2.0,4095,V*0B
$GNGGA,034007.00,3727.0815225,N,12639.1218538,E,5,12,0.82,19.948,M,17.832,M,2.0,4095*5A
$GNGSA,A,3,14,06,19,03,17,,,,,,,,1.82,0.82,1.62,1*0B
$GNGSA,A,3,85,75,71,77,76,,,,,,,,1.82,0.82,1.62,2*0E
$GNGSA,A,3,15,21,27,13,,,,,,,,,1.82,0.82,1.62,3*07
$GNGSA,A,3,03,08,37,07,10,27,28,02,13,33,,,1.82,0.82,1.62,4*06
$GPGSV,2,1,06,03,54,067,30,06,36,263,33,14,54,198,46,17,68,347,45,1*6A
$GPGSV,2,2,06,19,47,315,30,28,,,47,1*54
$GPGSV,1,1,04,03,54,067,30,06,36,263,16,14,54,198,38,17,68,347,40,6*67
$GPGSV,1,1,03,11,01,248,,21,06,066,,50,47,179,,0*55
$GLGSV,3,1,09,69,06,021,26,70,39,075,08,71,29,137,29,75,19,205,36,1*71
$GLGSV,3,2,09,76,42,267,21,77,21,322,22,85,40,046,34,86,50,334,12,1*77
$GLGSV,3,3,09,87,09,281,19,1*44
$GLGSV,2,1,05,71,29,137,19,75,19,205,34,76,42,267,25,77,21,322,12,3*76
$GLGSV,2,2,05,85,40,046,25,3*43
$GAGSV,2,1,05,13,59,296,37,15,50,043,47,18,61,090,35,21,47,289,27,2*75
$GAGSV,2,2,05,27,47,203,46,2*46
$GAGSV,2,1,05,13,59,296,33,15,50,043,44,18,61,090,30,21,47,289,25,7*70
$GAGSV,2,2,05,27,47,203,44,7*41
$GAGSV,2,1,06,01,10,324,,03,20,088,,05,06,040,,26,12,260,,0*71
$GAGSV,2,2,06,26,12,260,,30,06,165,,0*76
$GBGSV,3,1,09,03,44,206,44,07,77,232,42,08,49,235,45,10,70,277,41,1*79
$GBGSV,3,2,09,13,39,234,34,27,36,297,32,28,67,019,49,33,46,104,31,1*72
$GBGSV,3,3,09,37,26,232,22,1*4C
$GBGSV,2,1,06,02,27,236,31,03,44,206,41,07,77,232,37,08,49,235,44,3*70
$GBGSV,2,2,06,10,70,277,40,13,39,234,31,3*7D
$GNRMC,034008.00,A,3727.0815119,N,12639.1218511,E,0.036,,210622,,,F,V*18
$GNVTG,,T,,M,0.036,N,0.068,K,D*33
$GNGNS,034008.00,3727.0815119,N,12639.1218511,E,FFFF,24,0.82,19.845,17.832,2.0,4095,V*0F
$GNGGA,034008.00,3727.0815119,N,12639.1218511,E,5,12,0.82,19.845,M,17.832,M,2.0,4095*5E
$GNGSA,A,3,14,06,19,03,17,,,,,,,,1.82,0.82,1.62,1*0B
$GNGSA,A,3,85,75,71,77,76,,,,,,,,1.82,0.82,1.62,2*0E
$GNGSA,A,3,15,21,27,13,,,,,,,,,1.82,0.82,1.62,3*07
$GNGSA,A,3,03,08,37,07,10,27,28,02,13,33,,,1.82,0.82,1.62,4*06
$GPGSV,2,1,06,03,54,067,30,06,36,263,32,14,54,198,46,17,68,347,45,1*6B
$GPGSV,2,2,06,19,47,315,30,28,,,47,1*54
$GPGSV,1,1,04,03,54,067,30,06,36,263,19,14,54,198,38,17,68,347,40,6*68
$GPGSV,1,1,03,11,01,248,,21,06,066,,50,47,179,,0*55
$GLGSV,3,1,09,69,06,021,26,70,39,075,08,71,29,137,27,75,19,205,36,1*7F
$GLGSV,3,2,09,76,42,267,20,77,21,322,21,85,40,046,35,86,50,334,11,1*77
$GLGSV,3,3,09,87,09,281,21,1*4F
$GLGSV,2,1,05,71,29,137,18,75,19,205,34,76,42,267,26,77,21,322,11,3*77
$GLGSV,2,2,05,85,40,046,26,3*40
$GAGSV,2,1,05,13,59,296,37,15,50,043,47,18,61,090,36,21,47,289,27,2*76
$GAGSV,2,2,05,27,47,203,46,2*46
$GAGSV,2,1,05,13,59,296,33,15,50,043,44,18,61,090,30,21,47,289,25,7*70
$GAGSV,2,2,05,27,47,203,44,7*41
$GAGSV,2,1,06,01,10,324,,03,20,088,,05,06,040,,26,12,260,,0*71
$GAGSV,2,2,06,26,12,260,,30,06,165,,0*76
$GBGSV,3,1,09,03,44,206,44,07,77,232,42,08,49,235,45,10,70,277,41,1*79
$GBGSV,3,2,09,13,39,234,34,27,36,297,32,28,67,019,49,33,46,104,30,1*73
$GBGSV,3,3,09,37,26,232,23,1*4D
$GBGSV,2,1,06,02,27,236,31,03,44,206,41,07,77,232,37,08,49,235,44,3*70
$GBGSV,2,2,06,10,70,277,40,13,39,234,31,3*7D
$GNRMC,034009.00,A,3727.0814959,N,12639.1218504,E,0.024,,210622,,,F,V*13
$GNVTG,,T,,M,0.024,N,0.044,K,D*3E
$GNGGA,034009.00,3727.0814959,N,12639.1218504,E,5,12,0.77,19.803,M,17.832,M,2.0,4095*5E
$GNGSA,A,3,14,06,19,03,17,,,,,,,,1.72,0.77,1.54,1*0B
$GNGSA,A,3,85,75,71,77,76,,,,,,,,1.72,0.77,1.54,2*0E
$GNGSA,A,3,15,21,27,13,,,,,,,,,1.72,0.77,1.54,3*07
$GNGSA,A,3,03,08,37,07,10,27,28,02,13,33,,,1.72,0.77,1.54,4*06
$GPGSV,2,1,06,03,54,067,30,06,36,263,32,14,54,198,46,17,68,347,45,1*6B
$GPGSV,2,2,06,19,47,315,30,28,,,47,1*54
$GPGSV,1,1,04,03,54,067,30,06,36,263,21,14,54,198,38,17,68,347,40,6*63
$GPGSV,1,1,03,11,01,248,,21,06,066,,50,47,179,,0*55
$GLGSV,3,1,09,69,06,021,26,70,39,075,08,71,29,137,26,75,19,205,35,1*7D
$GLGSV,3,2,09,76,42,267,20,77,21,322,20,85,40,046,34,86,50,334,11,1*77
$GLGSV,3,3,09,87,09,281,20,1*4E
$GLGSV,2,1,05,71,29,137,18,75,19,205,34,76,42,267,27,77,21,322,08,3*7E
$GLGSV,2,2,05,85,40,046,26,3*40
$GAGSV,2,1,05,13,59,296,37,15,50,043,47,18,61,090,36,21,47,289,27,2*76
$GAGSV,2,2,05,27,47,203,45,2*$GAGSV,2,1,05,13,59,296,34,15,50,043,45,18,61,090,30,21,47,289,24,7*77
$GAGSV,2,2,05,27,47,203,44,7*41
$GAGSV,2,1,06,01,10,324,,03,20,088,,05,06,040,,26,12,260,,0*71
$GAGSV,2,2,06,26,12,260,,30,06,165,,0*76
$GBGSV,3,1,09,03,44,206,44,07,77,232,42,08,49,235,45,10,70,277,41,1*79
$GBGSV,3,2,09,13,39,234,34,27,36,297,32,28,67,019,49,33,46,104,31,1*72
$GBGSV,3,3,09,37,26,232,23,1*4D
$GBGSV,2,1,06,02,27,236,31,03,44,206,41,07,77,232,37,08,49,235,44,3*70
$GBGSV,2,2,06,10,70,277,40,13,39,234,31,3*7D
$GNRMC,034010.00,A,3727.0814864,N,12639.1218448,E,0.055,,210622,,,F,V*1B
$GNVTG,,T,,M,0.055,N,0.101,K,D*38
$GNGNS,034010.00,3727.0814864,N,12639.1218448,E,FFFF,24,0.77,19.759,17.832,2.0,4095,V*01
$GNGGA,034010.00,3727.0814864,N,12639.1218448,E,5,12,0.77,19.759,M,17.832,M,2.0,4095*50
$GNGSA,A,3,14,06,19,03,17,,,,,,,,1.72,0.77,1.54,1*0B
$GNGSA,A,3,85,75,71,77,76,,,,,,,,1.72,0.77,1.54,2*0E
$GNGSA,A,3,15,21,27,13,,,,,,,,,1.72,0.77,1.54,3*07
$GNGSA,A,3,03,08,37,07,10,27,28,02,13,33,,,1.72,0.77,1.54,4*06
$GPGSV,2,2,06,19,47,315,31,28,,,47,1*55
$GPGSV,1,1,04,03,54,067,30,06,36,263,23,14,54,198,38,17,68,347,40,6*61
$GPGSV,1,1,03,11,01,248,,21,06,066,,50,47,179,,0*55
$GLGSV,3,1,09,69,06,021,26,70,39,075,08,71,29,137,25,75,19,205,36,1*7D
$GLGSV,3,2,09,76,42,267,21,77,21,322,21,85,40,046,35,86,50,334,09,1*7F
$GLGSV,3,3,09,87,09,281,21,1*4F
$GLGSV,2,1,05,71,29,137,18,75,19,205,34,76,42,267,27,77,21,322,08,3*7E
$GLGSV,2,2,05,85,40,046,26,3*40
$GAGSV,2,1,05,13,59,296,37,15,50,043,47,18,61,090,36,21,47,289,27,2*76
$GAGSV,2,2,05,27,47,203,46,2*46
$GAGSV,2,1,05,13,59,296,34,15,50,043,45,18,61,090,30,21,47,289,24,7*77
$GAGSV,2,2,05,27,47,203,44,7*41
$GAGSV,2,1,06,01,10,324,,03,20,088,,05,06,040,,26,12,260,,0*71
$GAGSV,2,2,06,26,12,260,,30,06,165,,0*76
$GBGSV,3,1,09,03,44,206,44,07,77,232,42,08,49,235,45,10,70,277,41,1*79
$GBGSV,3,2,09,13,39,234,34,27,36,297,32,28,67,019,49,33,46,104,31,1*72
$GBGSV,3,3,09,37,26,232,24,1*4A
$GBGSV,2,1,$GBGSV,2,2,06,10,70,277,40,13,39,234,31,3*7D
$GNRMC,034011.00,A,3727.0814799,N,12639.1218416,E,0.027,,210622,,,F,V*19
$GNVTG,,T,,M,0.027,N,0.050,K,D*38
$GNGNS,034011.00,3727.0814799,N,12639.1218416,E,FFFF,24,0.77,19.715,17.832,2.0,4095,V*0E
$GNGGA,034011.00,3727.0814799,N,12639.1218416,E,5,12,0.77,19.715,M,17.832,M,2.0,4095*5F
$GNGSA,A,3,14,06,19,03,17,,,,,,,,1.72,0.77,1.54,1*0B
$GNGSA,A,3,85,75,71,77,76,,,,,,,,1.72,0.77,1.54,2*0E
$GNGSA,A,3,15,21,27,13,,,,,,,,,1.72,0.77,1.54,3*07
$GNGSA,A,3,03,08,37,07,10,27,28,02,13,33,,,1.72,0.77,1.54,4*06
$GPGSV,2,1,06,03,54,067,29,06,36,263,32,14,54,198,46,17,68,347,46,1*60
$GPGSV,2,2,06,19,47,315,32,28,,,47,1*56
$GPGSV,1,1,04,03,54,067,30,06,36,263,23,14,54,198,38,17,68,347,40,6*61
$GPGSV,1,1,03,11,01,248,,21,06,066,,50,47,179,,0*55
$GLGSV,3,1,09,69,06,021,27,70,39,075,08,71,29,137,26,75,19,205,36,1*7F
$GLGSV,3,2,09,76,42,266,22,77,21,322,20,85,40,046,35,86,50,334,09,1*7C
$GLGSV,3,3,09,87,09,281,21,1*4F
$GLGSV,2,1,05,71,29,137,19,75,19,205,34,76,42,266,28,77,21,322,08,3*71
$GLGSV,2,2,05,85,40,046,27,3*41
$GAGSV,2,1,05,13,59,296,37,15,50,043,47,18,61,090,36,21,47,289,27,2*76
$GAGSV,2,2,05,27,47,203,46,2*46
$GAGSV,2,1,05,13,59,296,34,15,50,043,45,18,61,090,31,21,47,289,23,7*71
$GAGSV,2,2,05,27,47,203,44,7*41
$GAGSV,2,1,06,01,10,324,,03,20,088,,05,06,040,,26,12,260,,0*71
$GAGSV,2,2,06,26,12,260,,30,06,165,,0*76
$GBGSV,3,1,09,03,44,206,44,07,77,232,42,08,49,235,45,10,70,277,41,1*79
$GBGSV,3,2,09,13,39,234,34,27,36,297,32,28,67,019,49,33,46,104,30,1*73
$GBGSV,3,3,09,37,26,232,25,1*4B
$GBGSV,2,1,06,02,27,236,32,03,44,206,41,07,77,232,37,08,49,235,44,3*73
$GBGSV,2,2,06,10,70,277,40,13,39,234,31,3*7D
$GNRMC,034012.00,A,3727.0814794,N,12639.1218399,E,0.029,,210622,,,F,V*19
$GNVTG,,T,,M,0.029,N,0.054,K,D*32
$GNGNS,034012.00,3727.0814794,N,12639.1218399,E,FFFF,24,0.86,19.681,17.832,2.0,4095,V*02
$GNGGA,034012.00,3727.0814794,N,12639.1218399,E,5,12,0.86,19.681,M,17.832,M,2.0,4095*53
$GNGSA,A,3,14,06,19,03,17,,,,,,,,1.82,0.86,1.61,1*0C
$GNGSA,A,3,85,75,71,77,76,,,,,,,,1.82,0.86,1.61,2*09
$GNGSA,A,3,15,21,27,13,,,,,,,,,1.82,0.86,1.61,3*00
$GNGSA,A,3,03,08,37,07,10,27,28,02,13,33,,,1.82,0.86,1.61,4*01
$GPGSV,2,1,06,03,54,067,29,06,36,263,32,14,54,198,46,17,68,347,46,1*60
$GPGSV,2,2,06,19,47,315,32,28,,,47,1*56
$GPGSV,1,1,04,03,54,067,30,06,36,263,23,14,54,198,38,17,68,347,40,6*61
$GPGSV,1,1,03,11,01,248,,21,06,066,,50,47,179,,0*55
$GLGSV,3,1,09,69,06,021,27,70,39,075,07,71,29,137,25,75,19,205,36,1*73
$GLGSV,3,2,09,76,42,266,24,77,22,321,18,85,40,046,36,86,50,334,09,1*72
$GLGSV,3,3,09,87,09,281,20,1*4E
$GLGSV,2,1,05,71,29,137,20,75,19,205,34,76,42,266,29,77,22,321,10,3*73
$GLGSV,2,2,05,85,40,046,28,3*4E
$GAGSV,2,1,05,13,59,296,37,15,50,043,47,18,61,090,36,21,47,289,27,2*76
$GAGSV,2,2,05,27,47,203,46,2*46
$GAGSV,2,1,05,13,59,296,34,15,50,043,45,18,61,090,31,21,47,289,22,7*70
$GAGSV,2,2,05,27,47,203,44,7*41
$GAGSV,2,1,06,01,10,324,,03,20,088,,05,06,040,,26,12,260,,0*71
$GAGSV,2,2,06,26,12,260,,30,06,165,,0*76
